{
  "name":"Afghanistan",
  "regions":[{
    "name":"Badakhshan",
    "cities":[{
      "name":"Ashkasham",
      "latitude":36.68333,
      "longitude":71.53333
    },{
      "name":"Fayzabad",
      "latitude":37.11664,
      "longitude":70.58002
    },{
      "name":"Jurm",
      "latitude":36.86477,
      "longitude":70.83421
    },{
      "name":"Khandud",
      "latitude":36.95127,
      "longitude":72.318
    }]
  },{
    "name":"Badghis",
    "cities":[{
      "name":"Ghormach",
      "latitude":35.73062,
      "longitude":63.78264
    },{
      "name":"Qala i Naw",
      "latitude":34.98735,
      "longitude":63.12891
    }]
  },{
    "name":"Balkh",
    "cities":[{
      "name":"Balkh",
      "latitude":36.75635,
      "longitude":66.8972
    },{
      "name":"Khulm",
      "latitude":36.69736,
      "longitude":67.69826
    },{
      "name":"Mazar-e Sharif",
      "latitude":36.70904,
      "longitude":67.11087
    },{
      "name":"Qarchi Gak",
      "latitude":37.03999,
      "longitude":66.78891
    }]
  },{
    "name":"Farah",
    "cities":[{
      "name":"Anar Darah",
      "latitude":32.7587,
      "longitude":61.65397
    },{
      "name":"Farah",
      "latitude":32.37451,
      "longitude":62.11638
    }]
  },{
    "name":"Faryab Province",
    "cities":[{
      "name":"Andkhoy",
      "latitude":36.95293,
      "longitude":65.12376
    },{
      "name":"Maymana",
      "latitude":35.92139,
      "longitude":64.78361
    }]
  },{
    "name":"Helmand",
    "cities":[{
      "name":"Gereshk",
      "latitude":31.82089,
      "longitude":64.57005
    },{
      "name":"Lashkar Gah",
      "latitude":31.59382,
      "longitude":64.37161
    },{
      "name":"Markaz-e Hukumat-e Darweshan",
      "latitude":31.13232,
      "longitude":64.1934
    },{
      "name":"Sangin",
      "latitude":32.07275,
      "longitude":64.8359
    },{
      "name":"`Alaqahdari Dishu",
      "latitude":30.43206,
      "longitude":63.29802
    }]
  },{
    "name":"Herat",
    "cities":[{
      "name":"Chahar Burj",
      "latitude":34.24475,
      "longitude":62.19165
    },{
      "name":"Herat",
      "latitude":34.34817,
      "longitude":62.19967
    },{
      "name":"Kafir Qala",
      "latitude":34.66667,
      "longitude":61.06667
    },{
      "name":"Karukh",
      "latitude":34.48108,
      "longitude":62.5863
    },{
      "name":"Kuhsan",
      "latitude":34.65389,
      "longitude":61.19778
    },{
      "name":"Kushk",
      "latitude":33.29565,
      "longitude":61.95221
    },{
      "name":"Qarah Bagh",
      "latitude":34.94023,
      "longitude":61.77589
    },{
      "name":"Shindand",
      "latitude":33.30294,
      "longitude":62.1474
    },{
      "name":"Tir Pul",
      "latitude":34.59431,
      "longitude":61.26895
    },{
      "name":"Zindah Jan",
      "latitude":34.34264,
      "longitude":61.74675
    }]
  },{
    "name":"Kandahar",
    "cities":[{
      "name":"Kandahar",
      "latitude":31.61332,
      "longitude":65.71013
    }]
  },{
    "name":"Kunduz",
    "cities":[{
      "name":"Dasht-e Archi",
      "latitude":37.13333,
      "longitude":69.16667
    },{
      "name":"Imam Sahib",
      "latitude":37.18897,
      "longitude":68.93644
    },{
      "name":"Khanabad",
      "latitude":36.6825,
      "longitude":69.11556
    },{
      "name":"Kunduz",
      "latitude":36.72896,
      "longitude":68.857
    },{
      "name":"Qarawul",
      "latitude":37.21959,
      "longitude":68.7802
    }]
  },{
    "name":"Nangarhar",
    "cities":[{
      "name":"Basawul",
      "latitude":34.24749,
      "longitude":70.87218
    },{
      "name":"Jalalabad",
      "latitude":34.42647,
      "longitude":70.45153
    },{
      "name":"Markaz-e Woluswali-ye Achin",
      "latitude":34.12583,
      "longitude":70.70778
    }]
  },{
    "name":"Panjshir",
    "cities":[{
      "name":"Bazarak",
      "latitude":35.31292,
      "longitude":69.51519
    }]
  },{
    "name":"Parwan",
    "cities":[{
      "name":"Charikar",
      "latitude":35.01361,
      "longitude":69.17139
    },{
      "name":"Jabal os Saraj",
      "latitude":35.11833,
      "longitude":69.23778
    }]
  },{
    "name":"Samangan",
    "cities":[{
      "name":"Aibak",
      "latitude":36.26468,
      "longitude":68.01551
    }]
  },{
    "name":"Sar-e Pul",
    "cities":[{
      "name":"Chiras",
      "latitude":35.41674,
      "longitude":65.98234
    },{
      "name":"Larkird",
      "latitude":35.48936,
      "longitude":66.66409
    },{
      "name":"Qal`ah-ye Shahr",
      "latitude":35.54729,
      "longitude":65.5676
    },{
      "name":"Sang-e Charak",
      "latitude":35.84972,
      "longitude":66.43694
    },{
      "name":"Sar-e Pul",
      "latitude":36.21544,
      "longitude":65.93249
    },{
      "name":"Tagaw-Bay",
      "latitude":35.69941,
      "longitude":66.06164
    },{
      "name":"Tukzar",
      "latitude":35.94831,
      "longitude":66.42132
    }]
  },{
    "name":"Uruzgan",
    "cities":[{
      "name":"Tarinkot",
      "latitude":32.62998,
      "longitude":65.87806
    },{
      "name":"Uruzgan",
      "latitude":32.92775,
      "longitude":66.63253
    }]
  },{
    "name":"Velayat-e Khowst",
    "cities":[{
      "name":"Khost",
      "latitude":33.33951,
      "longitude":69.92041
    }]
  },{
    "name":"Velayat-e Nurestan",
    "cities":[{
      "name":"Parun",
      "latitude":35.42064,
      "longitude":70.92261
    }]
  },{
    "name":"Wardak",
    "cities":[{
      "name":"Maydanshakhr",
      "latitude":34.39561,
      "longitude":68.86618
    }]
  },{
    "name":"Wilayat-e Baghlan",
    "cities":[{
      "name":"Baghlan",
      "latitude":36.13068,
      "longitude":68.70829
    },{
      "name":"Nahrin",
      "latitude":36.0649,
      "longitude":69.13343
    },{
      "name":"Pul-e Khumri",
      "latitude":35.94458,
      "longitude":68.71512
    }]
  },{
    "name":"Wilayat-e Bamyan",
    "cities":[{
      "name":"Bamyan",
      "latitude":34.82156,
      "longitude":67.82734
    },{
      "name":"Cool urhajo",
      "latitude":34.26545,
      "longitude":67.34516
    },{
      "name":"Panjab",
      "latitude":34.38795,
      "longitude":67.02327
    }]
  },{
    "name":"Wilayat-e Daykundi",
    "cities":[{
      "name":"Nili",
      "latitude":33.72178,
      "longitude":66.13023
    }]
  },{
    "name":"Wilayat-e Ghazni",
    "cities":[{
      "name":"Ghazni",
      "latitude":33.55391,
      "longitude":68.42096
    }]
  },{
    "name":"Wilayat-e Ghor",
    "cities":[{
      "name":"Chaghcharan",
      "latitude":34.51952,
      "longitude":65.25094
    },{
      "name":"Shahrak",
      "latitude":34.10738,
      "longitude":64.3052
    }]
  },{
    "name":"Wilayat-e Jowzjan",
    "cities":[{
      "name":"Darzab",
      "latitude":35.97744,
      "longitude":65.37828
    },{
      "name":"Qarqin",
      "latitude":37.41853,
      "longitude":66.04358
    },{
      "name":"Shibirghan",
      "latitude":36.66757,
      "longitude":65.7529
    }]
  },{
    "name":"Wilayat-e Kabul",
    "cities":[{
      "name":"Kabul",
      "latitude":34.52813,
      "longitude":69.17233
    },{
      "name":"Mir Bachah Kot",
      "latitude":34.74999,
      "longitude":69.11899
    },{
      "name":"Paghman",
      "latitude":34.58787,
      "longitude":68.95091
    }]
  },{
    "name":"Wilayat-e Kapisa",
    "cities":[{
      "name":"Sidqabad",
      "latitude":35.02298,
      "longitude":69.35112
    },{
      "name":"Tagab",
      "latitude":34.85501,
      "longitude":69.64917
    }]
  },{
    "name":"Wilayat-e Kunar",
    "cities":[{
      "name":"Asadabad",
      "latitude":34.87311,
      "longitude":71.14697
    },{
      "name":"Asmar",
      "latitude":35.03333,
      "longitude":71.35809
    }]
  },{
    "name":"Wilayat-e Laghman",
    "cities":[{
      "name":"Mehtar Lam",
      "latitude":34.67139,
      "longitude":70.20944
    }]
  },{
    "name":"Wilayat-e Logar",
    "cities":[{
      "name":"Baraki Barak",
      "latitude":33.96744,
      "longitude":68.9492
    },{
      "name":"Hukumati Azrah",
      "latitude":34.17355,
      "longitude":69.64573
    },{
      "name":"Pul-e `Alam",
      "latitude":33.99529,
      "longitude":69.02274
    }]
  },{
    "name":"Wilayat-e Nimroz",
    "cities":[{
      "name":"Khash",
      "latitude":31.52919,
      "longitude":62.79055
    },{
      "name":"Mirabad",
      "latitude":30.43624,
      "longitude":61.8383
    },{
      "name":"Rudbar",
      "latitude":30.15,
      "longitude":62.6
    },{
      "name":"Zaranj",
      "latitude":30.95962,
      "longitude":61.86037
    }]
  },{
    "name":"Wilayat-e Paktika",
    "cities":[{
      "name":"Sharan",
      "latitude":33.17568,
      "longitude":68.73045
    },{
      "name":"Zarah Sharan",
      "latitude":33.14641,
      "longitude":68.79213
    },{
      "name":"Zarghun Shahr",
      "latitude":32.84734,
      "longitude":68.44573
    }]
  },{
    "name":"Wilayat-e Paktiya",
    "cities":[{
      "name":"Gardez",
      "latitude":33.59744,
      "longitude":69.22592
    }]
  },{
    "name":"Wilayat-e Takhar",
    "cities":[{
      "name":"Art Khwajah",
      "latitude":37.08571,
      "longitude":69.47958
    },{
      "name":"Farkhar",
      "latitude":36.57288,
      "longitude":69.85783
    },{
      "name":"Rustaq",
      "latitude":37.12604,
      "longitude":69.83045
    },{
      "name":"Taloqan",
      "latitude":36.73605,
      "longitude":69.53451
    },{
      "name":"Yangi Qal`ah",
      "latitude":37.46572,
      "longitude":69.61131
    }]
  },{
    "name":"Wilayat-e Zabul",
    "cities":[{
      "name":"Qalat",
      "latitude":32.10575,
      "longitude":66.90833
    }]
  }]
}
