{
  "name":"Botswana",
  "regions":[{
    "name":"Central District",
    "cities":[{
      "name":"Letlhakane",
      "latitude":-21.41494,
      "longitude":25.59263
    },{
      "name":"Mahalapye",
      "latitude":-23.10407,
      "longitude":26.81421
    },{
      "name":"Orapa",
      "latitude":-21.3115,
      "longitude":25.37642
    },{
      "name":"Palapye",
      "latitude":-22.54605,
      "longitude":27.12507
    },{
      "name":"Rakops",
      "latitude":-21.02258,
      "longitude":24.36052
    },{
      "name":"Selebi-Phikwe",
      "latitude":-21.97895,
      "longitude":27.84296
    },{
      "name":"Serowe",
      "latitude":-22.38754,
      "longitude":26.71077
    },{
      "name":"Tonota",
      "latitude":-21.44236,
      "longitude":27.46153
    }]
  },{
    "name":"Ghanzi District",
    "cities":[{
      "name":"Ghanzi",
      "latitude":-21.56667,
      "longitude":21.78333
    }]
  },{
    "name":"Kgalagadi District",
    "cities":[{
      "name":"Tshabong",
      "latitude":-26.05,
      "longitude":22.45
    }]
  },{
    "name":"Kgatleng District",
    "cities":[{
      "name":"Mochudi",
      "latitude":-24.41667,
      "longitude":26.15
    }]
  },{
    "name":"Kweneng District",
    "cities":[{
      "name":"Gabane",
      "latitude":-24.66667,
      "longitude":25.78222
    },{
      "name":"Letlhakeng",
      "latitude":-24.09442,
      "longitude":25.02977
    },{
      "name":"Metsemotlhaba",
      "latitude":-24.55139,
      "longitude":25.80306
    },{
      "name":"Mogoditshane",
      "latitude":-24.62694,
      "longitude":25.86556
    },{
      "name":"Molepolole",
      "latitude":-24.40659,
      "longitude":25.49508
    },{
      "name":"Thamaga",
      "latitude":-24.67014,
      "longitude":25.53975
    }]
  },{
    "name":"North East District",
    "cities":[{
      "name":"Francistown",
      "latitude":-21.16995,
      "longitude":27.50788
    }]
  },{
    "name":"North West District",
    "cities":[{
      "name":"Kasane",
      "latitude":-17.81667,
      "longitude":25.15
    },{
      "name":"Maun",
      "latitude":-19.98333,
      "longitude":23.41667
    },{
      "name":"Shakawe",
      "latitude":-18.36536,
      "longitude":21.84219
    }]
  },{
    "name":"South East District",
    "cities":[{
      "name":"Gaborone",
      "latitude":-24.65451,
      "longitude":25.90859
    },{
      "name":"Janeng",
      "latitude":-25.41667,
      "longitude":25.55
    },{
      "name":"Kopong",
      "latitude":-24.48333,
      "longitude":25.88333
    },{
      "name":"Lobatse",
      "latitude":-25.22435,
      "longitude":25.67728
    },{
      "name":"Otse",
      "latitude":-25.01667,
      "longitude":25.73333
    },{
      "name":"Ramotswa",
      "latitude":-24.87158,
      "longitude":25.86989
    }]
  },{
    "name":"Southern District",
    "cities":[{
      "name":"Kanye",
      "latitude":-24.96675,
      "longitude":25.33274
    },{
      "name":"Mosopa",
      "latitude":-24.7718,
      "longitude":25.42156
    }]
  }]
}
