{
  "name":"Cameroon",
  "regions":[{
    "name":"Adamaoua Region",
    "cities":[{
      "name":"Bankim",
      "latitude":6.08303,
      "longitude":11.4905
    },{
      "name":"Banyo",
      "latitude":6.75,
      "longitude":11.81667
    },{
      "name":"Belel",
      "latitude":7.05,
      "longitude":14.43333
    },{
      "name":"Kontcha",
      "latitude":7.96667,
      "longitude":12.23333
    },{
      "name":"Meiganga",
      "latitude":6.51667,
      "longitude":14.3
    },{
      "name":"Ngaoundere",
      "latitude":7.32765,
      "longitude":13.58472
    },{
      "name":"Tibati",
      "latitude":6.46504,
      "longitude":12.62843
    }]
  },{
    "name":"Centre Region",
    "cities":[{
      "name":"Akonolinga",
      "latitude":3.76667,
      "longitude":12.25
    },{
      "name":"Bafia",
      "latitude":4.75,
      "longitude":11.23333
    },{
      "name":"Eseka",
      "latitude":3.65,
      "longitude":10.76667
    },{
      "name":"Mbalmayo",
      "latitude":3.51667,
      "longitude":11.5
    },{
      "name":"Mbandjok",
      "latitude":4.45,
      "longitude":11.9
    },{
      "name":"Nanga Eboko",
      "latitude":4.68333,
      "longitude":12.36667
    },{
      "name":"Ndikinimeki",
      "latitude":4.76667,
      "longitude":10.83333
    },{
      "name":"Nkoteng",
      "latitude":4.51667,
      "longitude":12.03333
    },{
      "name":"Ntui",
      "latitude":4.45,
      "longitude":11.63333
    },{
      "name":"Obala",
      "latitude":4.16667,
      "longitude":11.53333
    },{
      "name":"Okola",
      "latitude":4.01667,
      "longitude":11.38333
    },{
      "name":"Saa",
      "latitude":4.36667,
      "longitude":11.45
    },{
      "name":"Yaounde",
      "latitude":3.86667,
      "longitude":11.51667
    },{
      "name":"Yoko",
      "latitude":5.53333,
      "longitude":12.31667
    }]
  },{
    "name":"East Region",
    "cities":[{
      "name":"Abong Mbang",
      "latitude":3.98333,
      "longitude":13.18333
    },{
      "name":"Batouri",
      "latitude":4.43333,
      "longitude":14.36667
    },{
      "name":"Belabo",
      "latitude":4.93333,
      "longitude":13.3
    },{
      "name":"Bertoua",
      "latitude":4.57728,
      "longitude":13.68459
    },{
      "name":"Betare Oya",
      "latitude":5.6,
      "longitude":14.08333
    },{
      "name":"Dimako",
      "latitude":4.38333,
      "longitude":13.56667
    },{
      "name":"Doume",
      "latitude":4.23333,
      "longitude":13.45
    },{
      "name":"Garoua Boulai",
      "latitude":5.88333,
      "longitude":14.55
    },{
      "name":"Ndelele",
      "latitude":4.04065,
      "longitude":14.92501
    },{
      "name":"Yokadouma",
      "latitude":3.51667,
      "longitude":15.05
    }]
  },{
    "name":"Far North Region",
    "cities":[{
      "name":"Bogo",
      "latitude":10.7336,
      "longitude":14.60928
    },{
      "name":"Kaele",
      "latitude":10.10917,
      "longitude":14.45083
    },{
      "name":"Kousseri",
      "latitude":12.07689,
      "longitude":15.03063
    },{
      "name":"Makary",
      "latitude":12.5717,
      "longitude":14.46662
    },{
      "name":"Maroua",
      "latitude":10.59095,
      "longitude":14.31592
    },{
      "name":"Mindif",
      "latitude":10.39757,
      "longitude":14.43626
    },{
      "name":"Mokolo",
      "latitude":10.73978,
      "longitude":13.80188
    },{
      "name":"Mora",
      "latitude":11.04611,
      "longitude":14.14011
    },{
      "name":"Yagoua",
      "latitude":10.34107,
      "longitude":15.23288
    }]
  },{
    "name":"Littoral Region",
    "cities":[{
      "name":"Bonaberi",
      "latitude":4.0779,
      "longitude":9.6759
    },{
      "name":"Dizangue",
      "latitude":3.76667,
      "longitude":9.98333
    },{
      "name":"Douala",
      "latitude":4.04827,
      "longitude":9.70428
    },{
      "name":"Edea",
      "latitude":3.8,
      "longitude":10.13333
    },{
      "name":"Loum",
      "latitude":4.7182,
      "longitude":9.7351
    },{
      "name":"Manjo",
      "latitude":4.8428,
      "longitude":9.8217
    },{
      "name":"Mbanga",
      "latitude":4.5016,
      "longitude":9.5671
    },{
      "name":"Melong",
      "latitude":5.1218,
      "longitude":9.96143
    },{
      "name":"Ndom",
      "latitude":4.4978,
      "longitude":9.5628
    },{
      "name":"Ngambe",
      "latitude":4.23333,
      "longitude":10.61667
    },{
      "name":"Nkongsamba",
      "latitude":4.9547,
      "longitude":9.9404
    },{
      "name":"Penja",
      "latitude":4.63911,
      "longitude":9.67987
    },{
      "name":"Yabassi",
      "latitude":4.45697,
      "longitude":9.96822
    }]
  },{
    "name":"North Region",
    "cities":[{
      "name":"Garoua",
      "latitude":9.30142,
      "longitude":13.39771
    },{
      "name":"Guider",
      "latitude":9.9333,
      "longitude":13.94672
    },{
      "name":"Lagdo",
      "latitude":9.0263,
      "longitude":13.6919
    },{
      "name":"Pitoa",
      "latitude":9.3839,
      "longitude":13.50231
    },{
      "name":"Poli",
      "latitude":8.48333,
      "longitude":13.25
    },{
      "name":"Rey Bouba",
      "latitude":8.6724,
      "longitude":14.1786
    },{
      "name":"Tchollire",
      "latitude":8.4022,
      "longitude":14.1698
    }]
  },{
    "name":"North-West Region",
    "cities":[{
      "name":"Babanki",
      "latitude":6.11667,
      "longitude":10.25
    },{
      "name":"Bali",
      "latitude":5.88724,
      "longitude":10.01248
    },{
      "name":"Bamenda",
      "latitude":5.95266,
      "longitude":10.15824
    },{
      "name":"Batibo",
      "latitude":5.8358,
      "longitude":9.8553
    },{
      "name":"Belo",
      "latitude":6.13333,
      "longitude":10.25
    },{
      "name":"Fundong",
      "latitude":6.25,
      "longitude":10.26667
    },{
      "name":"Jakiri",
      "latitude":6.1,
      "longitude":10.65
    },{
      "name":"Kumbo",
      "latitude":6.2,
      "longitude":10.66667
    },{
      "name":"Mbengwi",
      "latitude":6.01667,
      "longitude":10.0
    },{
      "name":"Mme-Bafumen",
      "latitude":6.33333,
      "longitude":10.23333
    },{
      "name":"Njinikom",
      "latitude":6.23333,
      "longitude":10.28333
    },{
      "name":"Wum",
      "latitude":6.38333,
      "longitude":10.06667
    }]
  },{
    "name":"South Region",
    "cities":[{
      "name":"Akom II",
      "latitude":2.78333,
      "longitude":10.56667
    },{
      "name":"Ambam",
      "latitude":2.38333,
      "longitude":11.28333
    },{
      "name":"Ebolowa",
      "latitude":2.9,
      "longitude":11.15
    },{
      "name":"Kribi",
      "latitude":2.95,
      "longitude":9.91667
    },{
      "name":"Lolodorf",
      "latitude":3.23333,
      "longitude":10.73333
    },{
      "name":"Sangmelima",
      "latitude":2.93333,
      "longitude":11.98333
    }]
  },{
    "name":"South-West Region",
    "cities":[{
      "name":"Bamusso",
      "latitude":4.4591,
      "longitude":8.9027
    },{
      "name":"Bekondo",
      "latitude":4.6819,
      "longitude":9.3214
    },{
      "name":"Buea",
      "latitude":4.1527,
      "longitude":9.241
    },{
      "name":"Fontem",
      "latitude":5.4685,
      "longitude":9.8818
    },{
      "name":"Idenao",
      "latitude":4.2475,
      "longitude":9.00472
    },{
      "name":"Kumba",
      "latitude":4.6363,
      "longitude":9.4469
    },{
      "name":"Limbe",
      "latitude":4.0242,
      "longitude":9.2149
    },{
      "name":"Mamfe",
      "latitude":5.754,
      "longitude":9.3123
    },{
      "name":"Mundemba",
      "latitude":4.9479,
      "longitude":8.8724
    },{
      "name":"Mutengene",
      "latitude":4.0913,
      "longitude":9.3144
    },{
      "name":"Muyuka",
      "latitude":4.2898,
      "longitude":9.4103
    },{
      "name":"Nguti",
      "latitude":5.3299,
      "longitude":9.4185
    },{
      "name":"Tiko",
      "latitude":4.0745,
      "longitude":9.3699
    }]
  },{
    "name":"West Region",
    "cities":[{
      "name":"Bafang",
      "latitude":5.15705,
      "longitude":10.1771
    },{
      "name":"Bafoussam",
      "latitude":5.47775,
      "longitude":10.41759
    },{
      "name":"Bamendjou",
      "latitude":5.38988,
      "longitude":10.33014
    },{
      "name":"Bana",
      "latitude":5.14655,
      "longitude":10.27545
    },{
      "name":"Bandjoun",
      "latitude":5.37568,
      "longitude":10.41326
    },{
      "name":"Bangangte",
      "latitude":5.14079,
      "longitude":10.52535
    },{
      "name":"Bansoa",
      "latitude":5.44836,
      "longitude":10.31355
    },{
      "name":"Bazou",
      "latitude":5.06001,
      "longitude":10.46751
    },{
      "name":"Dschang",
      "latitude":5.44397,
      "longitude":10.05332
    },{
      "name":"Foumban",
      "latitude":5.7291,
      "longitude":10.90011
    },{
      "name":"Foumbot",
      "latitude":5.50787,
      "longitude":10.6356
    },{
      "name":"Mbouda",
      "latitude":5.62578,
      "longitude":10.25517
    },{
      "name":"Ngou",
      "latitude":5.19685,
      "longitude":10.38595
    },{
      "name":"Tonga",
      "latitude":4.96667,
      "longitude":10.7
    }]
  }]
}
