{
  "name":"Denmark",
  "regions":[{
    "name":"North Denmark Region",
    "cities":[{
      "name":"Aalborg",
      "latitude":57.048,
      "longitude":9.9187
    },{
      "name":"Aars",
      "latitude":56.80399,
      "longitude":9.51441
    },{
      "name":"Bronderslev",
      "latitude":57.27021,
      "longitude":9.94102
    },{
      "name":"Frederikshavn",
      "latitude":57.44073,
      "longitude":10.53661
    },{
      "name":"Hadsund",
      "latitude":56.71482,
      "longitude":10.11682
    },{
      "name":"Hirtshals",
      "latitude":57.58812,
      "longitude":9.95922
    },{
      "name":"Hjorring",
      "latitude":57.46417,
      "longitude":9.98229
    },{
      "name":"Hobro",
      "latitude":56.64306,
      "longitude":9.79029
    },{
      "name":"Nykobing Mors",
      "latitude":56.79334,
      "longitude":8.85282
    },{
      "name":"Saeby",
      "latitude":57.33188,
      "longitude":10.52251
    },{
      "name":"Skagen",
      "latitude":57.72093,
      "longitude":10.58394
    },{
      "name":"Stovring",
      "latitude":56.88536,
      "longitude":9.83839
    },{
      "name":"Thisted",
      "latitude":56.95523,
      "longitude":8.69491
    }]
  },{
    "name":"Region Hovedstaden",
    "cities":[{
      "name":"Albertslund",
      "latitude":55.65691,
      "longitude":12.36381
    },{
      "name":"Ballerup",
      "latitude":55.73165,
      "longitude":12.36328
    },{
      "name":"Birkerod",
      "latitude":55.84759,
      "longitude":12.42791
    },{
      "name":"Charlottenlund",
      "latitude":55.75367,
      "longitude":12.59181
    },{
      "name":"Copenhagen",
      "latitude":55.67594,
      "longitude":12.56553
    },{
      "name":"Dragor",
      "latitude":55.59455,
      "longitude":12.66638
    },{
      "name":"Espergaerde",
      "latitude":56.0,
      "longitude":12.56667
    },{
      "name":"Farum",
      "latitude":55.80858,
      "longitude":12.36066
    },{
      "name":"Flong",
      "latitude":55.66212,
      "longitude":12.18698
    },{
      "name":"Fredensborg",
      "latitude":55.97558,
      "longitude":12.40314
    },{
      "name":"Frederiksberg",
      "latitude":55.67938,
      "longitude":12.53463
    },{
      "name":"Frederikssund",
      "latitude":55.83956,
      "longitude":12.06896
    },{
      "name":"Frederiksvaerk",
      "latitude":55.97073,
      "longitude":12.0225
    },{
      "name":"Gilleleje",
      "latitude":56.12196,
      "longitude":12.31056
    },{
      "name":"Glostrup",
      "latitude":55.6666,
      "longitude":12.40377
    },{
      "name":"Hellebaek",
      "latitude":56.06823,
      "longitude":12.55782
    },{
      "name":"Helsinge",
      "latitude":56.02283,
      "longitude":12.19752
    },{
      "name":"Helsingor",
      "latitude":56.03606,
      "longitude":12.6136
    },{
      "name":"Hillerod",
      "latitude":55.92791,
      "longitude":12.30081
    },{
      "name":"Horsholm",
      "latitude":55.88098,
      "longitude":12.50111
    },{
      "name":"Humlebaek",
      "latitude":55.9618,
      "longitude":12.5341
    },{
      "name":"Hundested",
      "latitude":55.96667,
      "longitude":11.86667
    },{
      "name":"Hvidovre",
      "latitude":55.65719,
      "longitude":12.47364
    },{
      "name":"Ishoj",
      "latitude":55.61543,
      "longitude":12.35182
    },{
      "name":"Kongens Lyngby",
      "latitude":55.77044,
      "longitude":12.50378
    },{
      "name":"Lillerod",
      "latitude":55.87496,
      "longitude":12.34579
    },{
      "name":"Malov",
      "latitude":55.75528,
      "longitude":12.32327
    },{
      "name":"Niva",
      "latitude":55.93405,
      "longitude":12.50485
    },{
      "name":"Olstykke",
      "latitude":55.79567,
      "longitude":12.15509
    },{
      "name":"Rodovre",
      "latitude":55.68062,
      "longitude":12.45373
    },{
      "name":"Ronne",
      "latitude":55.10091,
      "longitude":14.70664
    },{
      "name":"Slangerup",
      "latitude":55.85,
      "longitude":12.18333
    },{
      "name":"Smorumnedre",
      "latitude":55.74232,
      "longitude":12.30276
    },{
      "name":"Stavnsholt",
      "latitude":55.81479,
      "longitude":12.40545
    },{
      "name":"Stenlose",
      "latitude":55.76828,
      "longitude":12.19723
    },{
      "name":"Taastrup",
      "latitude":55.65173,
      "longitude":12.29216
    },{
      "name":"Tarnby",
      "latitude":55.6303,
      "longitude":12.60035
    },{
      "name":"Trorod",
      "latitude":55.83946,
      "longitude":12.54432
    },{
      "name":"Vaerlose",
      "latitude":55.78251,
      "longitude":12.36856
    },{
      "name":"Vallensbaek",
      "latitude":55.63333,
      "longitude":12.36667
    }]
  },{
    "name":"Region Midtjylland",
    "cities":[{
      "name":"Arhus",
      "latitude":56.15674,
      "longitude":10.21076
    },{
      "name":"Bjerringbro",
      "latitude":56.37797,
      "longitude":9.66065
    },{
      "name":"Brande",
      "latitude":55.93814,
      "longitude":9.12178
    },{
      "name":"Ebeltoft",
      "latitude":56.19442,
      "longitude":10.6821
    },{
      "name":"Grenaa",
      "latitude":56.41578,
      "longitude":10.87825
    },{
      "name":"Hadsten",
      "latitude":56.32819,
      "longitude":10.04931
    },{
      "name":"Hammel",
      "latitude":56.25762,
      "longitude":9.86316
    },{
      "name":"Hedensted",
      "latitude":55.77043,
      "longitude":9.7011
    },{
      "name":"Herning",
      "latitude":56.13932,
      "longitude":8.97378
    },{
      "name":"Hinnerup",
      "latitude":56.26608,
      "longitude":10.06299
    },{
      "name":"Holstebro",
      "latitude":56.36009,
      "longitude":8.61607
    },{
      "name":"Horning",
      "latitude":56.08701,
      "longitude":10.03716
    },{
      "name":"Horsens",
      "latitude":55.86066,
      "longitude":9.85034
    },{
      "name":"Ikast",
      "latitude":56.13883,
      "longitude":9.15768
    },{
      "name":"Kolt",
      "latitude":56.10845,
      "longitude":10.06986
    },{
      "name":"Lemvig",
      "latitude":56.54856,
      "longitude":8.31019
    },{
      "name":"Logten",
      "latitude":56.27459,
      "longitude":10.31181
    },{
      "name":"Lystrup",
      "latitude":56.2375,
      "longitude":10.23778
    },{
      "name":"Odder",
      "latitude":55.97313,
      "longitude":10.153
    },{
      "name":"Randers",
      "latitude":56.4607,
      "longitude":10.03639
    },{
      "name":"Ringkobing",
      "latitude":56.09006,
      "longitude":8.24402
    },{
      "name":"Silkeborg",
      "latitude":56.1697,
      "longitude":9.54508
    },{
      "name":"Skanderborg",
      "latitude":56.03991,
      "longitude":9.9272
    },{
      "name":"Skive",
      "latitude":56.56381,
      "longitude":9.04024
    },{
      "name":"Skjern",
      "latitude":55.95,
      "longitude":8.5
    },{
      "name":"Struer",
      "latitude":56.49122,
      "longitude":8.58376
    },{
      "name":"Tranbjerg",
      "latitude":56.0901,
      "longitude":10.11937
    },{
      "name":"Viborg",
      "latitude":56.45319,
      "longitude":9.40201
    }]
  },{
    "name":"Region Sjaelland",
    "cities":[{
      "name":"Greve",
      "latitude":55.58333,
      "longitude":12.3
    },{
      "name":"Haslev",
      "latitude":55.32346,
      "longitude":11.96389
    },{
      "name":"Holbaek",
      "latitude":55.71354,
      "longitude":11.7169
    },{
      "name":"Jyllinge",
      "latitude":55.75843,
      "longitude":12.11227
    },{
      "name":"Kalundborg",
      "latitude":55.67954,
      "longitude":11.08864
    },{
      "name":"Koge",
      "latitude":55.45802,
      "longitude":12.18214
    },{
      "name":"Korsor",
      "latitude":55.32993,
      "longitude":11.13857
    },{
      "name":"Maribo",
      "latitude":54.77662,
      "longitude":11.50017
    },{
      "name":"Naestved",
      "latitude":55.22992,
      "longitude":11.76092
    },{
      "name":"Nakskov",
      "latitude":54.83734,
      "longitude":11.12839
    },{
      "name":"Nykobing Falster",
      "latitude":54.76906,
      "longitude":11.87425
    },{
      "name":"Nykobing Sjaelland",
      "latitude":55.92491,
      "longitude":11.67109
    },{
      "name":"Ringsted",
      "latitude":55.4426,
      "longitude":11.79011
    },{
      "name":"Roskilde",
      "latitude":55.64152,
      "longitude":12.08035
    },{
      "name":"Skaelskor",
      "latitude":55.25058,
      "longitude":11.29352
    },{
      "name":"Slagelse",
      "latitude":55.40276,
      "longitude":11.35459
    },{
      "name":"Solrod Strand",
      "latitude":55.53285,
      "longitude":12.22227
    },{
      "name":"Soro",
      "latitude":55.43184,
      "longitude":11.55547
    },{
      "name":"Tune",
      "latitude":55.59528,
      "longitude":12.18319
    },{
      "name":"Vordingborg",
      "latitude":55.00801,
      "longitude":11.91057
    }]
  },{
    "name":"Region Syddanmark",
    "cities":[{
      "name":"Aabenraa",
      "latitude":55.04434,
      "longitude":9.41741
    },{
      "name":"Assens",
      "latitude":55.27023,
      "longitude":9.90081
    },{
      "name":"Billund",
      "latitude":55.73349,
      "longitude":9.10785
    },{
      "name":"Bramming",
      "latitude":55.46946,
      "longitude":8.70007
    },{
      "name":"Esbjerg",
      "latitude":55.47028,
      "longitude":8.45187
    },{
      "name":"Faaborg",
      "latitude":55.0951,
      "longitude":10.24226
    },{
      "name":"Fredericia",
      "latitude":55.56568,
      "longitude":9.75257
    },{
      "name":"Grindsted",
      "latitude":55.754,
      "longitude":8.91231
    },{
      "name":"Haderslev",
      "latitude":55.25377,
      "longitude":9.48982
    },{
      "name":"Kerteminde",
      "latitude":55.44903,
      "longitude":10.65769
    },{
      "name":"Kolding",
      "latitude":55.4904,
      "longitude":9.47216
    },{
      "name":"Middelfart",
      "latitude":55.50591,
      "longitude":9.73054
    },{
      "name":"Munkebo",
      "latitude":55.46184,
      "longitude":10.55577
    },{
      "name":"Neder Holluf",
      "latitude":55.36451,
      "longitude":10.44824
    },{
      "name":"Nordborg",
      "latitude":55.05732,
      "longitude":9.7408
    },{
      "name":"Nyborg",
      "latitude":55.31274,
      "longitude":10.78964
    },{
      "name":"Odense",
      "latitude":55.39594,
      "longitude":10.38831
    },{
      "name":"Ribe",
      "latitude":55.33051,
      "longitude":8.76966
    },{
      "name":"Rodekro",
      "latitude":55.07016,
      "longitude":9.31641
    },{
      "name":"Sonderborg",
      "latitude":54.90926,
      "longitude":9.80737
    },{
      "name":"Svendborg",
      "latitude":55.05982,
      "longitude":10.60677
    },{
      "name":"Tonder",
      "latitude":54.93306,
      "longitude":8.86674
    },{
      "name":"Varde",
      "latitude":55.62112,
      "longitude":8.48069
    },{
      "name":"Vejen",
      "latitude":55.48117,
      "longitude":9.13795
    },{
      "name":"Vejle",
      "latitude":55.70927,
      "longitude":9.5357
    },{
      "name":"Vojens",
      "latitude":55.24639,
      "longitude":9.30604
    }]
  }]
}
