{
  "name":"Grenada",
  "regions":[{
    "name":"Carriacou and Petite Martinique",
    "cities":[{
      "name":"Hillsborough",
      "latitude":12.48292,
      "longitude":-61.45597
    }]
  },{
    "name":"Saint Andrew",
    "cities":[{
      "name":"Grenville",
      "latitude":12.12278,
      "longitude":-61.62498
    }]
  },{
    "name":"Saint David",
    "cities":[{
      "name":"Saint Davids",
      "latitude":12.04903,
      "longitude":-61.66874
    }]
  },{
    "name":"Saint George",
    "cities":[{
      "name":"Saint Georges",
      "latitude":12.05644,
      "longitude":-61.74849
    }]
  },{
    "name":"Saint John",
    "cities":[{
      "name":"Gouyave",
      "latitude":12.16462,
      "longitude":-61.72965
    }]
  },{
    "name":"Saint Mark",
    "cities":[{
      "name":"Victoria",
      "latitude":12.19021,
      "longitude":-61.70677
    }]
  },{
    "name":"Saint Patrick",
    "cities":[{
      "name":"Sauteurs",
      "latitude":12.21833,
      "longitude":-61.63917
    }]
  }]
}
