{
  "name":"Guinea",
  "regions":[{
    "name":"Boke Region",
    "cities":[{
      "name":"Boke",
      "latitude":10.94094,
      "longitude":-14.29665
    },{
      "name":"Fria",
      "latitude":10.45,
      "longitude":-13.53333
    },{
      "name":"Gaoual",
      "latitude":11.75,
      "longitude":-13.2
    },{
      "name":"Kamsar",
      "latitude":10.66667,
      "longitude":-14.6
    },{
      "name":"Kimbo",
      "latitude":10.4,
      "longitude":-13.55
    },{
      "name":"Koundara",
      "latitude":12.48333,
      "longitude":-13.3
    },{
      "name":"Sangueya",
      "latitude":10.7,
      "longitude":-14.36667
    },{
      "name":"Youkounkoun",
      "latitude":12.5311,
      "longitude":-13.1224
    }]
  },{
    "name":"Conakry Region",
    "cities":[{
      "name":"Camayenne",
      "latitude":9.535,
      "longitude":-13.68778
    },{
      "name":"Conakry",
      "latitude":9.53795,
      "longitude":-13.67729
    }]
  },{
    "name":"Faranah Region",
    "cities":[{
      "name":"Dabola",
      "latitude":10.75,
      "longitude":-11.11667
    },{
      "name":"Dinguiraye",
      "latitude":11.3,
      "longitude":-10.71667
    },{
      "name":"Faranah",
      "latitude":10.04036,
      "longitude":-10.74343
    },{
      "name":"Kissidougou",
      "latitude":9.1848,
      "longitude":-10.09987
    }]
  },{
    "name":"Kankan Region",
    "cities":[{
      "name":"Kankan",
      "latitude":10.38542,
      "longitude":-9.30568
    },{
      "name":"Kerouane",
      "latitude":9.26667,
      "longitude":-9.01667
    },{
      "name":"Kouroussa",
      "latitude":10.65,
      "longitude":-9.88333
    },{
      "name":"Mandiana",
      "latitude":10.63333,
      "longitude":-8.68333
    },{
      "name":"Siguiri",
      "latitude":11.42282,
      "longitude":-9.16852
    },{
      "name":"Tokonou",
      "latitude":9.65,
      "longitude":-9.78333
    }]
  },{
    "name":"Kindia Region",
    "cities":[{
      "name":"Coyah",
      "latitude":9.70556,
      "longitude":-13.37694
    },{
      "name":"Dubreka",
      "latitude":9.79111,
      "longitude":-13.52333
    },{
      "name":"Forecariah",
      "latitude":9.43056,
      "longitude":-13.08806
    },{
      "name":"Kindia",
      "latitude":10.05692,
      "longitude":-12.86576
    },{
      "name":"Telimele",
      "latitude":10.9,
      "longitude":-13.03333
    },{
      "name":"Tondon",
      "latitude":10.36667,
      "longitude":-13.35
    }]
  },{
    "name":"Labe Region",
    "cities":[{
      "name":"Koubia",
      "latitude":11.58333,
      "longitude":-11.9
    },{
      "name":"Labe",
      "latitude":11.31823,
      "longitude":-12.28332
    },{
      "name":"Mali",
      "latitude":12.079,
      "longitude":-12.2982
    },{
      "name":"Tougue",
      "latitude":11.45,
      "longitude":-11.68333
    }]
  },{
    "name":"Mamou Region",
    "cities":[{
      "name":"Dalaba",
      "latitude":10.7,
      "longitude":-12.25
    },{
      "name":"Mamou",
      "latitude":10.37546,
      "longitude":-12.09148
    },{
      "name":"Pita",
      "latitude":11.08333,
      "longitude":-12.4
    }]
  },{
    "name":"Nzerekore Region",
    "cities":[{
      "name":"Beyla",
      "latitude":8.68333,
      "longitude":-8.63333
    },{
      "name":"Gueckedou",
      "latitude":8.56744,
      "longitude":-10.1336
    },{
      "name":"Macenta",
      "latitude":8.54351,
      "longitude":-9.47099
    },{
      "name":"Nzerekore",
      "latitude":7.75624,
      "longitude":-8.8179
    }]
  }]
}
