{
  "name":"Honduras",
  "regions":[{
    "name":"Departamento de Atlantida",
    "cities":[{
      "name":"La Ceiba",
      "latitude":15.75971,
      "longitude":-86.78221
    },{
      "name":"Mezapa",
      "latitude":15.58333,
      "longitude":-87.65
    },{
      "name":"San Juan Pueblo",
      "latitude":15.58333,
      "longitude":-87.23333
    },{
      "name":"Tela",
      "latitude":15.78333,
      "longitude":-87.45
    }]
  },{
    "name":"Departamento de Choluteca",
    "cities":[{
      "name":"Ciudad Choluteca",
      "latitude":13.30028,
      "longitude":-87.19083
    },{
      "name":"El Triunfo",
      "latitude":13.11667,
      "longitude":-87.0
    },{
      "name":"Monjaras",
      "latitude":13.20056,
      "longitude":-87.37417
    },{
      "name":"San Marcos de Colon",
      "latitude":13.43333,
      "longitude":-86.8
    }]
  },{
    "name":"Departamento de Colon",
    "cities":[{
      "name":"Saba",
      "latitude":15.46667,
      "longitude":-86.25
    },{
      "name":"Tocoa",
      "latitude":15.68333,
      "longitude":-86.0
    },{
      "name":"Trujillo",
      "latitude":15.91667,
      "longitude":-85.95417
    }]
  },{
    "name":"Departamento de Comayagua",
    "cities":[{
      "name":"Ajuterique",
      "latitude":14.38333,
      "longitude":-87.7
    },{
      "name":"Comayagua",
      "latitude":14.45139,
      "longitude":-87.6375
    },{
      "name":"Siguatepeque",
      "latitude":14.6,
      "longitude":-87.83333
    },{
      "name":"Villa de San Antonio",
      "latitude":14.31667,
      "longitude":-87.61667
    }]
  },{
    "name":"Departamento de Copan",
    "cities":[{
      "name":"Copan",
      "latitude":14.83333,
      "longitude":-89.15
    },{
      "name":"Florida",
      "latitude":15.03333,
      "longitude":-88.83333
    },{
      "name":"La Entrada",
      "latitude":15.05,
      "longitude":-88.73333
    },{
      "name":"Santa Rosa de Copan",
      "latitude":14.76667,
      "longitude":-88.77917
    }]
  },{
    "name":"Departamento de Cortes",
    "cities":[{
      "name":"Baracoa",
      "latitude":15.76667,
      "longitude":-87.85
    },{
      "name":"Choloma",
      "latitude":15.61444,
      "longitude":-87.95302
    },{
      "name":"Cofradia",
      "latitude":15.4,
      "longitude":-88.15
    },{
      "name":"Cuyamel",
      "latitude":15.66667,
      "longitude":-88.2
    },{
      "name":"La Lima",
      "latitude":15.43333,
      "longitude":-87.91667
    },{
      "name":"Pimienta Vieja",
      "latitude":15.23333,
      "longitude":-87.96667
    },{
      "name":"Potrerillos",
      "latitude":15.23333,
      "longitude":-87.96667
    },{
      "name":"Puerto Cortez",
      "latitude":15.83333,
      "longitude":-87.95
    },{
      "name":"San Manuel",
      "latitude":15.33333,
      "longitude":-87.91667
    },{
      "name":"San Pedro Sula",
      "latitude":15.50417,
      "longitude":-88.025
    },{
      "name":"Santa Cruz de Yojoa",
      "latitude":14.98333,
      "longitude":-87.9
    },{
      "name":"Villanueva",
      "latitude":15.31667,
      "longitude":-88.0
    }]
  },{
    "name":"Departamento de El Paraiso",
    "cities":[{
      "name":"Danli",
      "latitude":14.03333,
      "longitude":-86.58333
    },{
      "name":"El Paraiso",
      "latitude":13.86667,
      "longitude":-86.55
    },{
      "name":"Las Trojes",
      "latitude":14.06667,
      "longitude":-85.98333
    },{
      "name":"Yuscaran",
      "latitude":13.94389,
      "longitude":-86.85278
    }]
  },{
    "name":"Departamento de Francisco Morazan",
    "cities":[{
      "name":"Guaimaca",
      "latitude":14.53333,
      "longitude":-86.81667
    },{
      "name":"Talanga",
      "latitude":14.4,
      "longitude":-87.08333
    },{
      "name":"Tegucigalpa",
      "latitude":14.0818,
      "longitude":-87.20681
    },{
      "name":"Villa de San Francisco",
      "latitude":14.16667,
      "longitude":-86.96667
    }]
  },{
    "name":"Departamento de Gracias a Dios",
    "cities":[{
      "name":"Puerto Lempira",
      "latitude":15.26667,
      "longitude":-83.77222
    }]
  },{
    "name":"Departamento de Intibuca",
    "cities":[{
      "name":"Intibuca",
      "latitude":14.31667,
      "longitude":-88.16667
    },{
      "name":"Jesus de Otoro",
      "latitude":14.48333,
      "longitude":-87.98333
    },{
      "name":"La Esperanza",
      "latitude":14.31111,
      "longitude":-88.18056
    }]
  },{
    "name":"Departamento de Islas de la Bahia",
    "cities":[{
      "name":"Coxen Hole",
      "latitude":16.31759,
      "longitude":-86.53793
    }]
  },{
    "name":"Departamento de La Paz",
    "cities":[{
      "name":"La Paz",
      "latitude":14.31944,
      "longitude":-87.67917
    },{
      "name":"Marcala",
      "latitude":14.15,
      "longitude":-88.03333
    }]
  },{
    "name":"Departamento de Lempira",
    "cities":[{
      "name":"Gracias",
      "latitude":14.59028,
      "longitude":-88.58194
    }]
  },{
    "name":"Departamento de Ocotepeque",
    "cities":[{
      "name":"Nueva Ocotepeque",
      "latitude":14.43333,
      "longitude":-89.18333
    },{
      "name":"San Marcos",
      "latitude":14.4,
      "longitude":-88.95
    }]
  },{
    "name":"Departamento de Olancho",
    "cities":[{
      "name":"Campamento",
      "latitude":14.55,
      "longitude":-86.65
    },{
      "name":"Juticalpa",
      "latitude":14.66667,
      "longitude":-86.21944
    },{
      "name":"San Francisco de la Paz",
      "latitude":14.9,
      "longitude":-86.2
    }]
  },{
    "name":"Departamento de Santa Barbara",
    "cities":[{
      "name":"Azacualpa",
      "latitude":15.34333,
      "longitude":-88.55139
    },{
      "name":"Las Vegas",
      "latitude":14.86667,
      "longitude":-88.06667
    },{
      "name":"San Luis",
      "latitude":15.08333,
      "longitude":-88.38333
    },{
      "name":"Santa Barbara",
      "latitude":14.91944,
      "longitude":-88.23611
    }]
  },{
    "name":"Departamento de Valle",
    "cities":[{
      "name":"La Alianza",
      "latitude":13.51222,
      "longitude":-87.72444
    },{
      "name":"Nacaome",
      "latitude":13.53611,
      "longitude":-87.4875
    },{
      "name":"San Lorenzo",
      "latitude":13.42417,
      "longitude":-87.44722
    }]
  },{
    "name":"Departamento de Yoro",
    "cities":[{
      "name":"Agua Blanca Sur",
      "latitude":15.25,
      "longitude":-87.88333
    },{
      "name":"El Negrito",
      "latitude":15.31667,
      "longitude":-87.7
    },{
      "name":"El Progreso",
      "latitude":15.4,
      "longitude":-87.8
    },{
      "name":"Morazan",
      "latitude":15.31667,
      "longitude":-87.6
    },{
      "name":"Olanchito",
      "latitude":15.48131,
      "longitude":-86.57415
    },{
      "name":"Santa Rita",
      "latitude":15.16667,
      "longitude":-87.28333
    },{
      "name":"Yoro",
      "latitude":15.1375,
      "longitude":-87.12778
    }]
  }]
}
