{
  "name":"Hungary",
  "regions":[{
    "name":"Bacs-Kiskun county",
    "cities":[{
      "name":"Bacsalmas",
      "latitude":46.12648,
      "longitude":19.3326
    },{
      "name":"Baja",
      "latitude":46.17496,
      "longitude":18.95639
    },{
      "name":"Izsak",
      "latitude":46.80454,
      "longitude":19.35172
    },{
      "name":"Janoshalma",
      "latitude":46.29861,
      "longitude":19.32583
    },{
      "name":"Kalocsa",
      "latitude":46.52639,
      "longitude":18.98583
    },{
      "name":"Kecel",
      "latitude":46.52528,
      "longitude":19.25194
    },{
      "name":"Kecskemet",
      "latitude":46.90618,
      "longitude":19.69128
    },{
      "name":"Kerekegyhaza",
      "latitude":46.93722,
      "longitude":19.47806
    },{
      "name":"Kiskoros",
      "latitude":46.62139,
      "longitude":19.28528
    },{
      "name":"Kiskunfelegyhaza",
      "latitude":46.71213,
      "longitude":19.84458
    },{
      "name":"Kiskunhalas",
      "latitude":46.43402,
      "longitude":19.4848
    },{
      "name":"Kiskunmajsa",
      "latitude":46.49028,
      "longitude":19.74
    },{
      "name":"Kunszentmiklos",
      "latitude":47.027,
      "longitude":19.12575
    },{
      "name":"Lajosmizse",
      "latitude":47.02133,
      "longitude":19.56171
    },{
      "name":"Melykut",
      "latitude":46.21509,
      "longitude":19.38102
    },{
      "name":"Solt",
      "latitude":46.80067,
      "longitude":18.99993
    },{
      "name":"Soltvadkert",
      "latitude":46.57889,
      "longitude":19.39389
    },{
      "name":"Szabadszallas",
      "latitude":46.87575,
      "longitude":19.22324
    },{
      "name":"Tiszaalpar",
      "latitude":46.81279,
      "longitude":19.99841
    },{
      "name":"Tiszakecske",
      "latitude":46.93262,
      "longitude":20.10349
    }]
  },{
    "name":"Baranya county",
    "cities":[{
      "name":"Komlo",
      "latitude":46.19278,
      "longitude":18.26494
    },{
      "name":"Mohacs",
      "latitude":45.99306,
      "longitude":18.68306
    },{
      "name":"Pecs",
      "latitude":46.08333,
      "longitude":18.23333
    },{
      "name":"Siklos",
      "latitude":45.85499,
      "longitude":18.29752
    },{
      "name":"Szentlorinc",
      "latitude":46.04016,
      "longitude":17.98719
    },{
      "name":"Szigetvar",
      "latitude":46.04865,
      "longitude":17.80554
    }]
  },{
    "name":"Bekes County",
    "cities":[{
      "name":"Battonya",
      "latitude":46.28333,
      "longitude":21.01667
    },{
      "name":"Bekes",
      "latitude":46.76667,
      "longitude":21.13333
    },{
      "name":"Bekescsaba",
      "latitude":46.68333,
      "longitude":21.1
    },{
      "name":"Csorvas",
      "latitude":46.63333,
      "longitude":20.83333
    },{
      "name":"Devavanya",
      "latitude":47.03333,
      "longitude":20.96667
    },{
      "name":"Elek",
      "latitude":46.53333,
      "longitude":21.25
    },{
      "name":"Fuzesgyarmat",
      "latitude":47.1,
      "longitude":21.21667
    },{
      "name":"Gyomaendrod",
      "latitude":46.93333,
      "longitude":20.83333
    },{
      "name":"Gyula",
      "latitude":46.65,
      "longitude":21.28333
    },{
      "name":"Kondoros",
      "latitude":46.76667,
      "longitude":20.8
    },{
      "name":"Korosladany",
      "latitude":46.96667,
      "longitude":21.08333
    },{
      "name":"Mezobereny",
      "latitude":46.81667,
      "longitude":21.03333
    },{
      "name":"Mezohegyes",
      "latitude":46.31667,
      "longitude":20.81667
    },{
      "name":"Mezokovacshaza",
      "latitude":46.4,
      "longitude":20.91667
    },{
      "name":"Nagyszenas",
      "latitude":46.68333,
      "longitude":20.66667
    },{
      "name":"Oroshaza",
      "latitude":46.56667,
      "longitude":20.66667
    },{
      "name":"Sarkad",
      "latitude":46.75,
      "longitude":21.38333
    },{
      "name":"Szarvas",
      "latitude":46.86667,
      "longitude":20.55
    },{
      "name":"Szeghalom",
      "latitude":47.03333,
      "longitude":21.16667
    },{
      "name":"Totkomlos",
      "latitude":46.41667,
      "longitude":20.73333
    },{
      "name":"Ujkigyos",
      "latitude":46.58333,
      "longitude":21.03333
    },{
      "name":"Veszto",
      "latitude":46.91667,
      "longitude":21.26667
    }]
  },{
    "name":"Borsod-Abauj Zemplen county",
    "cities":[{
      "name":"Alsozsolca",
      "latitude":48.06982,
      "longitude":20.88046
    },{
      "name":"Edeleny",
      "latitude":48.3,
      "longitude":20.73333
    },{
      "name":"Emod",
      "latitude":47.93333,
      "longitude":20.81667
    },{
      "name":"Encs",
      "latitude":48.33333,
      "longitude":21.13333
    },{
      "name":"Felsozsolca",
      "latitude":48.1,
      "longitude":20.86667
    },{
      "name":"Kazincbarcika",
      "latitude":48.25,
      "longitude":20.63333
    },{
      "name":"Mezocsat",
      "latitude":47.81667,
      "longitude":20.91667
    },{
      "name":"Mezokovesd",
      "latitude":47.81667,
      "longitude":20.58333
    },{
      "name":"Miskolc",
      "latitude":48.1,
      "longitude":20.78333
    },{
      "name":"Ozd",
      "latitude":48.21667,
      "longitude":20.3
    },{
      "name":"Putnok",
      "latitude":48.3,
      "longitude":20.43333
    },{
      "name":"Sajoszentpeter",
      "latitude":48.21667,
      "longitude":20.71667
    },{
      "name":"Sarospatak",
      "latitude":48.3245,
      "longitude":21.57383
    },{
      "name":"Satoraljaujhely",
      "latitude":48.39492,
      "longitude":21.65871
    },{
      "name":"Szerencs",
      "latitude":48.15993,
      "longitude":21.2097
    },{
      "name":"Szikszo",
      "latitude":48.2,
      "longitude":20.93333
    },{
      "name":"Tiszaluc",
      "latitude":48.03774,
      "longitude":21.07261
    },{
      "name":"Tiszaujvaros",
      "latitude":47.93333,
      "longitude":21.08333
    },{
      "name":"Tokaj",
      "latitude":48.11667,
      "longitude":21.41667
    }]
  },{
    "name":"Budapest fovaros",
    "cities":[{
      "name":"Budapest",
      "latitude":47.49801,
      "longitude":19.03991
    },{
      "name":"Budapest I. keruelet",
      "latitude":47.49705,
      "longitude":19.03961
    },{
      "name":"Budapest II. keruelet",
      "latitude":47.51291,
      "longitude":19.03184
    },{
      "name":"Budapest III. keruelet",
      "latitude":47.54157,
      "longitude":19.04501
    },{
      "name":"Budapest IV. keruelet",
      "latitude":47.56182,
      "longitude":19.08909
    },{
      "name":"Budapest IX. keruelet",
      "latitude":47.48299,
      "longitude":19.06591
    },{
      "name":"Budapest VI. keruelet",
      "latitude":47.50369,
      "longitude":19.06583
    },{
      "name":"Budapest VII. keruelet",
      "latitude":47.50045,
      "longitude":19.06875
    },{
      "name":"Budapest VIII. keruelet",
      "latitude":47.48919,
      "longitude":19.07012
    },{
      "name":"Budapest X. keruelet",
      "latitude":47.4791,
      "longitude":19.15835
    },{
      "name":"Budapest XI. keruelet",
      "latitude":47.47603,
      "longitude":19.03605
    },{
      "name":"Budapest XII. keruelet",
      "latitude":47.49192,
      "longitude":19.01493
    },{
      "name":"Budapest XIII. keruelet",
      "latitude":47.52978,
      "longitude":19.08068
    },{
      "name":"Budapest XIV. keruelet",
      "latitude":47.5183,
      "longitude":19.10789
    },{
      "name":"Budapest XIX. keruelet",
      "latitude":47.45293,
      "longitude":19.14943
    },{
      "name":"Budapest XV. keruelet",
      "latitude":47.56263,
      "longitude":19.11681
    },{
      "name":"Budapest XVI. keruelet",
      "latitude":47.51482,
      "longitude":19.17028
    },{
      "name":"Budapest XVII. keruelet",
      "latitude":47.47997,
      "longitude":19.25388
    },{
      "name":"Budapest XVIII. keruelet",
      "latitude":47.44417,
      "longitude":19.17595
    },{
      "name":"Budapest XX. keruelet",
      "latitude":47.43674,
      "longitude":19.10093
    },{
      "name":"Budapest XXI. keruelet",
      "latitude":47.43047,
      "longitude":19.07098
    },{
      "name":"Budapest XXII. keruelet",
      "latitude":47.42698,
      "longitude":19.04016
    },{
      "name":"Budapest XXIII. keruelet",
      "latitude":47.39788,
      "longitude":19.11492
    }]
  },{
    "name":"Csongrad megye",
    "cities":[{
      "name":"Algyo",
      "latitude":46.33472,
      "longitude":20.20849
    },{
      "name":"Csongrad",
      "latitude":46.71332,
      "longitude":20.14242
    },{
      "name":"Hodmezovasarhely",
      "latitude":46.41667,
      "longitude":20.33333
    },{
      "name":"Kistelek",
      "latitude":46.4725,
      "longitude":19.97972
    },{
      "name":"Mako",
      "latitude":46.21667,
      "longitude":20.48333
    },{
      "name":"Mindszent",
      "latitude":46.52362,
      "longitude":20.19038
    },{
      "name":"Morahalom",
      "latitude":46.21806,
      "longitude":19.8851
    },{
      "name":"Sandorfalva",
      "latitude":46.36087,
      "longitude":20.09889
    },{
      "name":"Szeged",
      "latitude":46.253,
      "longitude":20.14824
    },{
      "name":"Szentes",
      "latitude":46.65627,
      "longitude":20.27201
    }]
  },{
    "name":"Fejer megye",
    "cities":[{
      "name":"Bicske",
      "latitude":47.48419,
      "longitude":18.64404
    },{
      "name":"Csakvar",
      "latitude":47.39184,
      "longitude":18.46501
    },{
      "name":"Dunaujvaros",
      "latitude":46.98333,
      "longitude":18.93333
    },{
      "name":"Enying",
      "latitude":46.93046,
      "longitude":18.24202
    },{
      "name":"Ercsi",
      "latitude":47.25194,
      "longitude":18.89623
    },{
      "name":"Gardony",
      "latitude":47.20942,
      "longitude":18.63607
    },{
      "name":"Martonvasar",
      "latitude":47.31601,
      "longitude":18.79045
    },{
      "name":"Mor",
      "latitude":47.37787,
      "longitude":18.20353
    },{
      "name":"Polgardi",
      "latitude":47.06099,
      "longitude":18.302
    },{
      "name":"Pusztaszabolcs",
      "latitude":47.13718,
      "longitude":18.76704
    },{
      "name":"Sarbogard",
      "latitude":46.88692,
      "longitude":18.62041
    },{
      "name":"Szekesfehervar",
      "latitude":47.18995,
      "longitude":18.41034
    }]
  },{
    "name":"Gyor-Moson-Sopron megye",
    "cities":[{
      "name":"Csorna",
      "latitude":47.61155,
      "longitude":17.25012
    },{
      "name":"Gyor",
      "latitude":47.68333,
      "longitude":17.63512
    },{
      "name":"Janossomorja",
      "latitude":47.78621,
      "longitude":17.13603
    },{
      "name":"Kapuvar",
      "latitude":47.59224,
      "longitude":17.02886
    },{
      "name":"Mosonmagyarovar",
      "latitude":47.86788,
      "longitude":17.26994
    },{
      "name":"Sopron",
      "latitude":47.68501,
      "longitude":16.59049
    }]
  },{
    "name":"Hajdu-Bihar megye",
    "cities":[{
      "name":"Balmazujvaros",
      "latitude":47.61667,
      "longitude":21.35
    },{
      "name":"Berettyoujfalu",
      "latitude":47.21667,
      "longitude":21.55
    },{
      "name":"Debrecen",
      "latitude":47.53333,
      "longitude":21.63333
    },{
      "name":"Derecske",
      "latitude":47.35,
      "longitude":21.56667
    },{
      "name":"Egyek",
      "latitude":47.63333,
      "longitude":20.9
    },{
      "name":"Hajduboszormeny",
      "latitude":47.66667,
      "longitude":21.51667
    },{
      "name":"Hajdudorog",
      "latitude":47.81667,
      "longitude":21.5
    },{
      "name":"Hajduhadhaz",
      "latitude":47.68333,
      "longitude":21.66667
    },{
      "name":"Hajdunanas",
      "latitude":47.85,
      "longitude":21.43333
    },{
      "name":"Hajdusamson",
      "latitude":47.6,
      "longitude":21.76667
    },{
      "name":"Hajduszoboszlo",
      "latitude":47.45,
      "longitude":21.4
    },{
      "name":"Hosszupalyi",
      "latitude":47.39303,
      "longitude":21.7328
    },{
      "name":"Kaba",
      "latitude":47.35,
      "longitude":21.28333
    },{
      "name":"Komadi",
      "latitude":47.0,
      "longitude":21.5
    },{
      "name":"Letavertes",
      "latitude":47.38333,
      "longitude":21.9
    },{
      "name":"Nadudvar",
      "latitude":47.41667,
      "longitude":21.16667
    },{
      "name":"Nyiradony",
      "latitude":47.69746,
      "longitude":21.91878
    },{
      "name":"Polgar",
      "latitude":47.86667,
      "longitude":21.11667
    },{
      "name":"Puspokladany",
      "latitude":47.31667,
      "longitude":21.11667
    },{
      "name":"Teglas",
      "latitude":47.71667,
      "longitude":21.68333
    },{
      "name":"Vamospercs",
      "latitude":47.53333,
      "longitude":21.9
    }]
  },{
    "name":"Heves megye",
    "cities":[{
      "name":"Eger",
      "latitude":47.90265,
      "longitude":20.37329
    },{
      "name":"Fuzesabony",
      "latitude":47.75,
      "longitude":20.41667
    },{
      "name":"Gyongyos",
      "latitude":47.78257,
      "longitude":19.928
    },{
      "name":"Hatvan",
      "latitude":47.66667,
      "longitude":19.68333
    },{
      "name":"Heves",
      "latitude":47.6,
      "longitude":20.28333
    },{
      "name":"Lorinci",
      "latitude":47.73295,
      "longitude":19.67867
    },{
      "name":"Paradsasvar",
      "latitude":47.9126,
      "longitude":19.97709
    }]
  },{
    "name":"Jasz-Nagykun-Szolnok megye",
    "cities":[{
      "name":"Fegyvernek",
      "latitude":47.26667,
      "longitude":20.53333
    },{
      "name":"Jaszapati",
      "latitude":47.51667,
      "longitude":20.15
    },{
      "name":"Jaszarokszallas",
      "latitude":47.64238,
      "longitude":19.98038
    },{
      "name":"Jaszbereny",
      "latitude":47.5,
      "longitude":19.91667
    },{
      "name":"Jaszkiser",
      "latitude":47.45,
      "longitude":20.21667
    },{
      "name":"Jaszladany",
      "latitude":47.36667,
      "longitude":20.16667
    },{
      "name":"Karcag",
      "latitude":47.31667,
      "longitude":20.93333
    },{
      "name":"Kenderes",
      "latitude":47.25,
      "longitude":20.68333
    },{
      "name":"Kisujszallas",
      "latitude":47.21667,
      "longitude":20.76667
    },{
      "name":"Kunhegyes",
      "latitude":47.36667,
      "longitude":20.63333
    },{
      "name":"Kunmadaras",
      "latitude":47.43333,
      "longitude":20.8
    },{
      "name":"Kunszentmarton",
      "latitude":46.83916,
      "longitude":20.28879
    },{
      "name":"Mezotur",
      "latitude":47.0,
      "longitude":20.63333
    },{
      "name":"Rakoczifalva",
      "latitude":47.08333,
      "longitude":20.23333
    },{
      "name":"Szolnok",
      "latitude":47.18333,
      "longitude":20.2
    },{
      "name":"Tiszafoldvar",
      "latitude":46.98333,
      "longitude":20.25
    },{
      "name":"Tiszafured",
      "latitude":47.61667,
      "longitude":20.76667
    },{
      "name":"Torokszentmiklos",
      "latitude":47.18333,
      "longitude":20.41667
    },{
      "name":"Turkeve",
      "latitude":47.1,
      "longitude":20.75
    },{
      "name":"Ujszasz",
      "latitude":47.3,
      "longitude":20.08333
    }]
  },{
    "name":"Komarom-Esztergom megye",
    "cities":[{
      "name":"Acs",
      "latitude":47.71231,
      "longitude":18.01131
    },{
      "name":"Dorog",
      "latitude":47.72095,
      "longitude":18.7364
    },{
      "name":"Esztergom",
      "latitude":47.7928,
      "longitude":18.74148
    },{
      "name":"Kisber",
      "latitude":47.50289,
      "longitude":18.03665
    },{
      "name":"Komarom",
      "latitude":47.74318,
      "longitude":18.11913
    },{
      "name":"Labatlan",
      "latitude":47.74735,
      "longitude":18.49623
    },{
      "name":"Nyergesujfalu",
      "latitude":47.76027,
      "longitude":18.55694
    },{
      "name":"Oroszlany",
      "latitude":47.48671,
      "longitude":18.31225
    },{
      "name":"Tat",
      "latitude":47.74148,
      "longitude":18.64813
    },{
      "name":"Tata",
      "latitude":47.65289,
      "longitude":18.31838
    },{
      "name":"Tatabanya",
      "latitude":47.58494,
      "longitude":18.39325
    }]
  },{
    "name":"Nograd megye",
    "cities":[{
      "name":"Balassagyarmat",
      "latitude":48.07296,
      "longitude":19.29614
    },{
      "name":"Batonyterenye",
      "latitude":47.96962,
      "longitude":19.84076
    },{
      "name":"Paszto",
      "latitude":47.92019,
      "longitude":19.69829
    },{
      "name":"Salgotarjan",
      "latitude":48.09872,
      "longitude":19.80303
    },{
      "name":"Szecseny",
      "latitude":48.08057,
      "longitude":19.52019
    }]
  },{
    "name":"Pest megye",
    "cities":[{
      "name":"Abony",
      "latitude":47.1899,
      "longitude":20.00476
    },{
      "name":"Albertirsa",
      "latitude":47.24315,
      "longitude":19.61686
    },{
      "name":"Aszod",
      "latitude":47.65174,
      "longitude":19.4785
    },{
      "name":"Biatorbagy",
      "latitude":47.4706,
      "longitude":18.81892
    },{
      "name":"Budakeszi",
      "latitude":47.51083,
      "longitude":18.92717
    },{
      "name":"Budaors",
      "latitude":47.46181,
      "longitude":18.95845
    },{
      "name":"Bugyi",
      "latitude":47.22748,
      "longitude":19.14664
    },{
      "name":"Cegled",
      "latitude":47.17266,
      "longitude":19.79952
    },{
      "name":"Csomor",
      "latitude":47.55,
      "longitude":19.23333
    },{
      "name":"Dabas",
      "latitude":47.18594,
      "longitude":19.31091
    },{
      "name":"Diosd",
      "latitude":47.4095,
      "longitude":18.94898
    },{
      "name":"Domsod",
      "latitude":47.09005,
      "longitude":19.01106
    },{
      "name":"Dunaharaszti",
      "latitude":47.3545,
      "longitude":19.09822
    },{
      "name":"Dunakeszi",
      "latitude":47.6364,
      "longitude":19.13864
    },{
      "name":"Dunavarsany",
      "latitude":47.27859,
      "longitude":19.06617
    },{
      "name":"Erd",
      "latitude":47.39489,
      "longitude":18.9136
    },{
      "name":"Erdokertes",
      "latitude":47.67261,
      "longitude":19.30786
    },{
      "name":"Fot",
      "latitude":47.6177,
      "longitude":19.1887
    },{
      "name":"God",
      "latitude":47.68324,
      "longitude":19.13417
    },{
      "name":"Godollo",
      "latitude":47.59657,
      "longitude":19.35515
    },{
      "name":"Gyal",
      "latitude":47.38449,
      "longitude":19.2214
    },{
      "name":"Gyomro",
      "latitude":47.42733,
      "longitude":19.40133
    },{
      "name":"Halasztelek",
      "latitude":47.36173,
      "longitude":18.98119
    },{
      "name":"Isaszeg",
      "latitude":47.53011,
      "longitude":19.40205
    },{
      "name":"Kartal",
      "latitude":47.67133,
      "longitude":19.542
    },{
      "name":"Kerepes",
      "latitude":47.56008,
      "longitude":19.28289
    },{
      "name":"Kiskunlachaza",
      "latitude":47.18839,
      "longitude":19.0093
    },{
      "name":"Kistarcsa",
      "latitude":47.54757,
      "longitude":19.26247
    },{
      "name":"Maglod",
      "latitude":47.44258,
      "longitude":19.36438
    },{
      "name":"Monor",
      "latitude":47.35133,
      "longitude":19.44734
    },{
      "name":"Nagykata",
      "latitude":47.41514,
      "longitude":19.7441
    },{
      "name":"Nagykoros",
      "latitude":47.03419,
      "longitude":19.77857
    },{
      "name":"Ocsa",
      "latitude":47.29986,
      "longitude":19.23057
    },{
      "name":"Orbottyan",
      "latitude":47.68711,
      "longitude":19.28239
    },{
      "name":"Orkeny",
      "latitude":47.12991,
      "longitude":19.43324
    },{
      "name":"Paty",
      "latitude":47.51709,
      "longitude":18.82851
    },{
      "name":"Pecel",
      "latitude":47.48962,
      "longitude":19.34162
    },{
      "name":"Pilis",
      "latitude":47.28904,
      "longitude":19.54848
    },{
      "name":"Piliscsaba",
      "latitude":47.63417,
      "longitude":18.82886
    },{
      "name":"Pilisvorosvar",
      "latitude":47.61386,
      "longitude":18.90893
    },{
      "name":"Pomaz",
      "latitude":47.64227,
      "longitude":19.02784
    },{
      "name":"Rackeve",
      "latitude":47.16095,
      "longitude":18.94478
    },{
      "name":"Solymar",
      "latitude":47.59246,
      "longitude":18.93212
    },{
      "name":"Suelysap",
      "latitude":47.45206,
      "longitude":19.53369
    },{
      "name":"Szazhalombatta",
      "latitude":47.32579,
      "longitude":18.92142
    },{
      "name":"Szentendre",
      "latitude":47.66943,
      "longitude":19.07561
    },{
      "name":"Szigethalom",
      "latitude":47.32228,
      "longitude":19.00262
    },{
      "name":"Szigetszentmiklos",
      "latitude":47.34382,
      "longitude":19.04335
    },{
      "name":"Taksony",
      "latitude":47.32968,
      "longitude":19.06694
    },{
      "name":"Tapioszecso",
      "latitude":47.45,
      "longitude":19.60923
    },{
      "name":"Tapioszele",
      "latitude":47.33609,
      "longitude":19.87724
    },{
      "name":"Tapioszentmarton",
      "latitude":47.3399,
      "longitude":19.74648
    },{
      "name":"Tarnok",
      "latitude":47.37327,
      "longitude":18.84579
    },{
      "name":"Toekoel",
      "latitude":47.32178,
      "longitude":18.96249
    },{
      "name":"Toeroekbalint",
      "latitude":47.42931,
      "longitude":18.91356
    },{
      "name":"Tura",
      "latitude":47.60924,
      "longitude":19.60279
    },{
      "name":"Ullo",
      "latitude":47.38771,
      "longitude":19.35533
    },{
      "name":"Vac",
      "latitude":47.77591,
      "longitude":19.13612
    },{
      "name":"Vecses",
      "latitude":47.40705,
      "longitude":19.28648
    },{
      "name":"Veresegyhaz",
      "latitude":47.6459,
      "longitude":19.29536
    }]
  },{
    "name":"Somogy megye",
    "cities":[{
      "name":"Balatonboglar",
      "latitude":46.77525,
      "longitude":17.64414
    },{
      "name":"Barcs",
      "latitude":45.96,
      "longitude":17.45861
    },{
      "name":"Csurgo",
      "latitude":46.25314,
      "longitude":17.1006
    },{
      "name":"Fonyod",
      "latitude":46.75552,
      "longitude":17.57945
    },{
      "name":"Kaposvar",
      "latitude":46.36667,
      "longitude":17.8
    },{
      "name":"Marcali",
      "latitude":46.58498,
      "longitude":17.41196
    },{
      "name":"Nagyatad",
      "latitude":46.22961,
      "longitude":17.35788
    },{
      "name":"Siofok",
      "latitude":46.90412,
      "longitude":18.058
    }]
  },{
    "name":"Szabolcs-Szatmar-Bereg megye",
    "cities":[{
      "name":"Balkany",
      "latitude":47.77066,
      "longitude":21.86314
    },{
      "name":"Csenger",
      "latitude":47.83582,
      "longitude":22.68096
    },{
      "name":"Fehergyarmat",
      "latitude":47.98333,
      "longitude":22.51667
    },{
      "name":"Ibrany",
      "latitude":48.12329,
      "longitude":21.70953
    },{
      "name":"Kemecse",
      "latitude":48.07532,
      "longitude":21.80625
    },{
      "name":"Kisvarda",
      "latitude":48.21667,
      "longitude":22.08333
    },{
      "name":"Mateszalka",
      "latitude":47.95528,
      "longitude":22.32348
    },{
      "name":"Nagyecsed",
      "latitude":47.86547,
      "longitude":22.3916
    },{
      "name":"Nagyhalasz",
      "latitude":48.13266,
      "longitude":21.76104
    },{
      "name":"Nagykallo",
      "latitude":47.87491,
      "longitude":21.84082
    },{
      "name":"Nyirbator",
      "latitude":47.83333,
      "longitude":22.13333
    },{
      "name":"Nyiregyhaza",
      "latitude":47.95539,
      "longitude":21.71671
    },{
      "name":"Nyirtelek",
      "latitude":48.01667,
      "longitude":21.63333
    },{
      "name":"Rakamaz",
      "latitude":48.12372,
      "longitude":21.46429
    },{
      "name":"Tiszalok",
      "latitude":48.01667,
      "longitude":21.38333
    },{
      "name":"Tiszavasvari",
      "latitude":47.96667,
      "longitude":21.35
    },{
      "name":"Ujfeherto",
      "latitude":47.8,
      "longitude":21.68333
    },{
      "name":"Vasarosnameny",
      "latitude":48.12542,
      "longitude":22.31325
    }]
  },{
    "name":"Tolna megye",
    "cities":[{
      "name":"Bataszek",
      "latitude":46.19373,
      "longitude":18.72307
    },{
      "name":"Bonyhad",
      "latitude":46.29921,
      "longitude":18.53024
    },{
      "name":"Dombovar",
      "latitude":46.37657,
      "longitude":18.13696
    },{
      "name":"Dunafoldvar",
      "latitude":46.808,
      "longitude":18.92638
    },{
      "name":"Paks",
      "latitude":46.62648,
      "longitude":18.85962
    },{
      "name":"Szekszard",
      "latitude":46.35014,
      "longitude":18.70905
    },{
      "name":"Tamasi",
      "latitude":46.63333,
      "longitude":18.28333
    },{
      "name":"Tolna",
      "latitude":46.42676,
      "longitude":18.78248
    }]
  },{
    "name":"Vas megye",
    "cities":[{
      "name":"Celldomolk",
      "latitude":47.25712,
      "longitude":17.15027
    },{
      "name":"Kormend",
      "latitude":47.01096,
      "longitude":16.60596
    },{
      "name":"Koszeg",
      "latitude":47.38922,
      "longitude":16.541
    },{
      "name":"Sarvar",
      "latitude":47.25395,
      "longitude":16.93525
    },{
      "name":"Szentgotthard",
      "latitude":46.95261,
      "longitude":16.27358
    },{
      "name":"Szombathely",
      "latitude":47.23088,
      "longitude":16.62155
    }]
  },{
    "name":"Veszprem megye",
    "cities":[{
      "name":"Ajka",
      "latitude":47.10196,
      "longitude":17.55892
    },{
      "name":"Balatonalmadi",
      "latitude":47.03526,
      "longitude":18.02076
    },{
      "name":"Balatonfured",
      "latitude":46.96188,
      "longitude":17.87187
    },{
      "name":"Berhida",
      "latitude":47.11131,
      "longitude":18.12948
    },{
      "name":"Devecser",
      "latitude":47.10316,
      "longitude":17.43802
    },{
      "name":"Papa",
      "latitude":47.33004,
      "longitude":17.4674
    },{
      "name":"Sumeg",
      "latitude":46.97703,
      "longitude":17.28209
    },{
      "name":"Tapolca",
      "latitude":46.88152,
      "longitude":17.44117
    },{
      "name":"Varpalota",
      "latitude":47.19936,
      "longitude":18.13954
    },{
      "name":"Veszprem",
      "latitude":47.09327,
      "longitude":17.91149
    },{
      "name":"Zirc",
      "latitude":47.26362,
      "longitude":17.87373
    }]
  },{
    "name":"Zala megye",
    "cities":[{
      "name":"Keszthely",
      "latitude":46.76812,
      "longitude":17.24317
    },{
      "name":"Lenti",
      "latitude":46.62403,
      "longitude":16.53863
    },{
      "name":"Nagykanizsa",
      "latitude":46.45347,
      "longitude":16.99104
    },{
      "name":"Zalaegerszeg",
      "latitude":46.84,
      "longitude":16.84389
    },{
      "name":"Zalaszentgrot",
      "latitude":46.94474,
      "longitude":17.07925
    }]
  }]
}
