{
  "name":"Iran",
  "regions":[{
    "name":"Alborz",
    "cities":[{
      "name":"Karaj",
      "latitude":35.83266,
      "longitude":50.99154
    },{
      "name":"Nazarabad",
      "latitude":35.95411,
      "longitude":50.60608
    }]
  },{
    "name":"Ostan-e Ardabil",
    "cities":[{
      "name":"Ardabil",
      "latitude":38.2498,
      "longitude":48.2933
    },{
      "name":"Herowabad",
      "latitude":37.6189,
      "longitude":48.5258
    },{
      "name":"Parsabad",
      "latitude":39.6482,
      "longitude":47.9174
    }]
  },{
    "name":"Ostan-e Azarbayjan-e Gharbi",
    "cities":[{
      "name":"Bukan",
      "latitude":36.521,
      "longitude":46.2089
    },{
      "name":"Khvoy",
      "latitude":38.5503,
      "longitude":44.9521
    },{
      "name":"Mahabad",
      "latitude":36.7631,
      "longitude":45.7222
    },{
      "name":"Miandowab",
      "latitude":36.9694,
      "longitude":46.1027
    },{
      "name":"Naqadeh",
      "latitude":36.9553,
      "longitude":45.388
    },{
      "name":"Orumiyeh",
      "latitude":37.55274,
      "longitude":45.07605
    },{
      "name":"Oshnaviyeh",
      "latitude":37.0397,
      "longitude":45.0983
    },{
      "name":"Piranshahr",
      "latitude":36.701,
      "longitude":45.1413
    },{
      "name":"Qarah Zia od Din",
      "latitude":38.8915,
      "longitude":45.0255
    },{
      "name":"Salmas",
      "latitude":38.1973,
      "longitude":44.7653
    },{
      "name":"Shahin Dezh",
      "latitude":36.6793,
      "longitude":46.5669
    },{
      "name":"Takab",
      "latitude":36.4009,
      "longitude":47.1133
    }]
  },{
    "name":"Ostan-e Azarbayjan-e Sharqi",
    "cities":[{
      "name":"Ahar",
      "latitude":38.4774,
      "longitude":47.0699
    },{
      "name":"Bonab",
      "latitude":37.3404,
      "longitude":46.0561
    },{
      "name":"Hashtrud",
      "latitude":37.4779,
      "longitude":47.0508
    },{
      "name":"Marand",
      "latitude":38.4329,
      "longitude":45.7749
    },{
      "name":"Tabriz",
      "latitude":38.08,
      "longitude":46.2919
    },{
      "name":"`Ajab Shir",
      "latitude":37.4776,
      "longitude":45.8943
    }]
  },{
    "name":"Ostan-e Bushehr",
    "cities":[{
      "name":"Bandar-e Bushehr",
      "latitude":28.9684,
      "longitude":50.8385
    },{
      "name":"Bandar-e Ganaveh",
      "latitude":29.5791,
      "longitude":50.517
    },{
      "name":"Borazjan",
      "latitude":29.2699,
      "longitude":51.2188
    },{
      "name":"Khark",
      "latitude":29.26139,
      "longitude":50.33056
    }]
  },{
    "name":"Ostan-e Chahar Mahal va Bakhtiari",
    "cities":[{
      "name":"Borujen",
      "latitude":31.96523,
      "longitude":51.2873
    },{
      "name":"Farrokh Shahr",
      "latitude":32.27174,
      "longitude":50.98008
    },{
      "name":"Farsan",
      "latitude":32.25694,
      "longitude":50.56096
    },{
      "name":"Shahr-e Kord",
      "latitude":32.32556,
      "longitude":50.86444
    }]
  },{
    "name":"Ostan-e Esfahan",
    "cities":[{
      "name":"Ardestan",
      "latitude":33.3761,
      "longitude":52.3694
    },{
      "name":"Dorcheh Piaz",
      "latitude":32.61528,
      "longitude":51.55556
    },{
      "name":"Dowlatabad",
      "latitude":32.79978,
      "longitude":51.69553
    },{
      "name":"Felavarjan",
      "latitude":32.5553,
      "longitude":51.50974
    },{
      "name":"Fereydunshahr",
      "latitude":32.94098,
      "longitude":50.121
    },{
      "name":"Golpayegan",
      "latitude":33.4537,
      "longitude":50.28836
    },{
      "name":"Isfahan",
      "latitude":32.65246,
      "longitude":51.67462
    },{
      "name":"Kashan",
      "latitude":33.98308,
      "longitude":51.43644
    },{
      "name":"Kelishad va Sudarjan",
      "latitude":32.55118,
      "longitude":51.52758
    },{
      "name":"Khomeyni Shahr",
      "latitude":32.6856,
      "longitude":51.53609
    },{
      "name":"Khvansar",
      "latitude":33.22052,
      "longitude":50.31497
    },{
      "name":"Najafabad",
      "latitude":32.6344,
      "longitude":51.3668
    },{
      "name":"Qahderijan",
      "latitude":32.5767,
      "longitude":51.455
    },{
      "name":"Rehnan",
      "latitude":32.68325,
      "longitude":51.60158
    },{
      "name":"Semirom",
      "latitude":31.41667,
      "longitude":51.56667
    },{
      "name":"Shahreza",
      "latitude":32.03389,
      "longitude":51.87944
    }]
  },{
    "name":"Ostan-e Fars",
    "cities":[{
      "name":"Abadeh",
      "latitude":31.1608,
      "longitude":52.6506
    },{
      "name":"Akbarabad",
      "latitude":29.2464,
      "longitude":52.7793
    },{
      "name":"Darab",
      "latitude":28.75194,
      "longitude":54.54444
    },{
      "name":"Fasa",
      "latitude":28.9383,
      "longitude":53.6482
    },{
      "name":"Firuzabad",
      "latitude":28.8438,
      "longitude":52.5707
    },{
      "name":"Gerash",
      "latitude":27.6652,
      "longitude":54.1371
    },{
      "name":"Kazerun",
      "latitude":29.61949,
      "longitude":51.65415
    },{
      "name":"Neyriz",
      "latitude":29.1988,
      "longitude":54.3278
    },{
      "name":"Nurabad",
      "latitude":30.11405,
      "longitude":51.52174
    },{
      "name":"Shiraz",
      "latitude":29.61031,
      "longitude":52.53114
    }]
  },{
    "name":"Ostan-e Gilan",
    "cities":[{
      "name":"Astaneh-ye Ashrafiyeh",
      "latitude":37.25962,
      "longitude":49.94444
    },{
      "name":"Astara",
      "latitude":38.4291,
      "longitude":48.872
    },{
      "name":"Bandar-e Anzali",
      "latitude":37.47258,
      "longitude":49.4593
    },{
      "name":"Hashtpar",
      "latitude":37.8008,
      "longitude":48.9037
    },{
      "name":"Langerud",
      "latitude":37.19701,
      "longitude":50.15351
    },{
      "name":"Rasht",
      "latitude":37.28077,
      "longitude":49.58319
    },{
      "name":"Rudsar",
      "latitude":37.13761,
      "longitude":50.288
    }]
  },{
    "name":"Ostan-e Golestan",
    "cities":[{
      "name":"Aq Qayeh",
      "latitude":37.27472,
      "longitude":55.15889
    },{
      "name":"Gonbad-e Qabus",
      "latitude":37.25004,
      "longitude":55.16721
    },{
      "name":"Gorgan",
      "latitude":36.84165,
      "longitude":54.44361
    },{
      "name":"Kalaleh",
      "latitude":37.38071,
      "longitude":55.49164
    },{
      "name":"Shah Pasand",
      "latitude":37.08701,
      "longitude":55.17397
    }]
  },{
    "name":"Ostan-e Hamadan",
    "cities":[{
      "name":"Asadabad",
      "latitude":34.78241,
      "longitude":48.11853
    },{
      "name":"Azadshahr",
      "latitude":34.79049,
      "longitude":48.57011
    },{
      "name":"Bahar",
      "latitude":34.9072,
      "longitude":48.4414
    },{
      "name":"Hamadan",
      "latitude":34.79922,
      "longitude":48.51456
    },{
      "name":"Malayer",
      "latitude":34.2969,
      "longitude":48.8235
    },{
      "name":"Nahavand",
      "latitude":34.1885,
      "longitude":48.377
    }]
  },{
    "name":"Ostan-e Hormozgan",
    "cities":[{
      "name":"Bandar Abbas",
      "latitude":27.1865,
      "longitude":56.2808
    },{
      "name":"Bandar-e Lengeh",
      "latitude":26.55792,
      "longitude":54.88067
    },{
      "name":"Kish",
      "latitude":26.55778,
      "longitude":54.01944
    },{
      "name":"Minab",
      "latitude":27.13104,
      "longitude":57.08716
    },{
      "name":"Qeshm",
      "latitude":26.9492,
      "longitude":56.2691
    }]
  },{
    "name":"Ostan-e Ilam",
    "cities":[{
      "name":"Abdanan",
      "latitude":32.9926,
      "longitude":47.4198
    },{
      "name":"Darreh Shahr",
      "latitude":33.1396,
      "longitude":47.3762
    },{
      "name":"Dehloran",
      "latitude":32.6941,
      "longitude":47.2679
    },{
      "name":"Ilam",
      "latitude":33.6374,
      "longitude":46.4227
    },{
      "name":"Mehran",
      "latitude":33.1222,
      "longitude":46.1646
    }]
  },{
    "name":"Ostan-e Kerman",
    "cities":[{
      "name":"Bam",
      "latitude":29.106,
      "longitude":58.357
    },{
      "name":"Bardsir",
      "latitude":29.92266,
      "longitude":56.57434
    },{
      "name":"Kerman",
      "latitude":30.28321,
      "longitude":57.07879
    },{
      "name":"Rafsanjan",
      "latitude":30.4067,
      "longitude":55.9939
    },{
      "name":"Ravar",
      "latitude":31.26562,
      "longitude":56.80545
    },{
      "name":"Shahr-e Babak",
      "latitude":30.1165,
      "longitude":55.1186
    },{
      "name":"Shahrak-e Pabedana",
      "latitude":31.13444,
      "longitude":56.39806
    },{
      "name":"Sirjan",
      "latitude":29.45137,
      "longitude":55.6809
    },{
      "name":"Zarand",
      "latitude":30.81271,
      "longitude":56.56399
    }]
  },{
    "name":"Ostan-e Kermanshah",
    "cities":[{
      "name":"Harsin",
      "latitude":34.2721,
      "longitude":47.5861
    },{
      "name":"Javanrud",
      "latitude":34.79611,
      "longitude":46.51722
    },{
      "name":"Kahriz",
      "latitude":34.3838,
      "longitude":47.0553
    },{
      "name":"Kangavar",
      "latitude":34.5043,
      "longitude":47.9653
    },{
      "name":"Kermanshah",
      "latitude":34.31417,
      "longitude":47.065
    },{
      "name":"Paveh",
      "latitude":35.0434,
      "longitude":46.3565
    },{
      "name":"Sarpol-e Zahab",
      "latitude":34.46109,
      "longitude":45.86264
    },{
      "name":"Sonqor",
      "latitude":34.7837,
      "longitude":47.6004
    }]
  },{
    "name":"Ostan-e Khorasan-e Jonubi",
    "cities":[{
      "name":"Birjand",
      "latitude":32.86628,
      "longitude":59.22114
    }]
  },{
    "name":"Ostan-e Khorasan-e Razavi",
    "cities":[{
      "name":"Chenaran",
      "latitude":36.64546,
      "longitude":59.12123
    },{
      "name":"Gonabad",
      "latitude":34.35286,
      "longitude":58.68365
    },{
      "name":"Kashmar",
      "latitude":35.23831,
      "longitude":58.46558
    },{
      "name":"Mashhad",
      "latitude":36.31559,
      "longitude":59.56796
    },{
      "name":"Neyshabur",
      "latitude":36.21329,
      "longitude":58.79576
    },{
      "name":"Qayen",
      "latitude":33.72654,
      "longitude":59.18439
    },{
      "name":"Quchan",
      "latitude":37.106,
      "longitude":58.50955
    },{
      "name":"Sabzevar",
      "latitude":36.2126,
      "longitude":57.68191
    },{
      "name":"Sarakhs",
      "latitude":36.5449,
      "longitude":61.1577
    },{
      "name":"Taybad",
      "latitude":34.74,
      "longitude":60.7756
    },{
      "name":"Torbat-e Heydariyeh",
      "latitude":35.27401,
      "longitude":59.21949
    },{
      "name":"Torbat-e Jam",
      "latitude":35.244,
      "longitude":60.6225
    }]
  },{
    "name":"Ostan-e Khorasan-e Shomali",
    "cities":[{
      "name":"Bojnurd",
      "latitude":37.47473,
      "longitude":57.32903
    },{
      "name":"Esfarayen",
      "latitude":37.07645,
      "longitude":57.51009
    }]
  },{
    "name":"Ostan-e Khuzestan",
    "cities":[{
      "name":"Abadan",
      "latitude":30.3392,
      "longitude":48.3043
    },{
      "name":"Aghajari",
      "latitude":30.7006,
      "longitude":49.8315
    },{
      "name":"Ahvaz",
      "latitude":31.31901,
      "longitude":48.6842
    },{
      "name":"Behbahan",
      "latitude":30.5959,
      "longitude":50.2417
    },{
      "name":"Khorramshahr",
      "latitude":30.44079,
      "longitude":48.18428
    },{
      "name":"Masjed Soleyman",
      "latitude":31.9364,
      "longitude":49.3039
    },{
      "name":"Omidiyeh",
      "latitude":30.75972,
      "longitude":49.705
    },{
      "name":"Ramhormoz",
      "latitude":31.27997,
      "longitude":49.60351
    },{
      "name":"Ramshir",
      "latitude":30.8946,
      "longitude":49.4092
    },{
      "name":"Shadegan",
      "latitude":30.64972,
      "longitude":48.66472
    },{
      "name":"Shush",
      "latitude":32.1942,
      "longitude":48.2436
    },{
      "name":"Shushtar",
      "latitude":32.0455,
      "longitude":48.8567
    },{
      "name":"Susangerd",
      "latitude":31.5608,
      "longitude":48.1831
    }]
  },{
    "name":"Ostan-e Kohgiluyeh va Bowyer Ahmad",
    "cities":[{
      "name":"Dehdasht",
      "latitude":30.7949,
      "longitude":50.56458
    },{
      "name":"Dogonbadan",
      "latitude":30.3586,
      "longitude":50.7981
    },{
      "name":"Yasuj",
      "latitude":30.66824,
      "longitude":51.58796
    }]
  },{
    "name":"Ostan-e Kordestan",
    "cities":[{
      "name":"Baneh",
      "latitude":35.9975,
      "longitude":45.8853
    },{
      "name":"Bijar",
      "latitude":35.8668,
      "longitude":47.60506
    },{
      "name":"Kamyaran",
      "latitude":34.7956,
      "longitude":46.9355
    },{
      "name":"Qorveh",
      "latitude":35.1664,
      "longitude":47.8045
    },{
      "name":"Sanandaj",
      "latitude":35.31495,
      "longitude":46.99883
    },{
      "name":"Saqqez",
      "latitude":36.24992,
      "longitude":46.2735
    }]
  },{
    "name":"Ostan-e Lorestan",
    "cities":[{
      "name":"Aleshtar",
      "latitude":33.86419,
      "longitude":48.26258
    },{
      "name":"Aligudarz",
      "latitude":33.40063,
      "longitude":49.6949
    },{
      "name":"Azna",
      "latitude":33.6095,
      "longitude":48.9307
    },{
      "name":"Borujerd",
      "latitude":33.8973,
      "longitude":48.7516
    },{
      "name":"Khorramabad",
      "latitude":33.48778,
      "longitude":48.35583
    },{
      "name":"Kuhdasht",
      "latitude":33.53335,
      "longitude":47.60999
    },{
      "name":"Nurabad",
      "latitude":34.0734,
      "longitude":47.9725
    }]
  },{
    "name":"Ostan-e Markazi",
    "cities":[{
      "name":"Abyek",
      "latitude":36.06667,
      "longitude":50.55
    },{
      "name":"Arak",
      "latitude":34.09174,
      "longitude":49.68916
    },{
      "name":"Delijan",
      "latitude":33.9905,
      "longitude":50.6838
    },{
      "name":"Khomeyn",
      "latitude":33.64226,
      "longitude":50.0789
    },{
      "name":"Saveh",
      "latitude":35.0213,
      "longitude":50.3566
    },{
      "name":"Tafresh",
      "latitude":34.69307,
      "longitude":50.01601
    }]
  },{
    "name":"Ostan-e Mazandaran",
    "cities":[{
      "name":"Amol",
      "latitude":36.46961,
      "longitude":52.35072
    },{
      "name":"Babol",
      "latitude":36.55132,
      "longitude":52.67895
    },{
      "name":"Babolsar",
      "latitude":36.70251,
      "longitude":52.6576
    },{
      "name":"Behshahr",
      "latitude":36.69235,
      "longitude":53.55262
    },{
      "name":"Chalus",
      "latitude":36.655,
      "longitude":51.4204
    },{
      "name":"Fereydun Kenar",
      "latitude":36.68642,
      "longitude":52.52255
    },{
      "name":"Juybar",
      "latitude":36.64115,
      "longitude":52.91244
    },{
      "name":"Nashta Rud",
      "latitude":36.75417,
      "longitude":51.01028
    },{
      "name":"Neka",
      "latitude":36.65079,
      "longitude":53.29905
    },{
      "name":"Now Shahr",
      "latitude":36.649,
      "longitude":51.496
    },{
      "name":"Sari",
      "latitude":36.56332,
      "longitude":53.06009
    },{
      "name":"Tonekabon",
      "latitude":36.81626,
      "longitude":50.87376
    }]
  },{
    "name":"Ostan-e Qazvin",
    "cities":[{
      "name":"Qazvin",
      "latitude":36.26877,
      "longitude":50.0041
    },{
      "name":"Takestan",
      "latitude":36.0696,
      "longitude":49.6959
    }]
  },{
    "name":"Ostan-e Semnan",
    "cities":[{
      "name":"Damghan",
      "latitude":36.1679,
      "longitude":54.34292
    },{
      "name":"Istgah-e Rah Ahan-e Garmsar",
      "latitude":35.23455,
      "longitude":52.30942
    },{
      "name":"Mahdishahr",
      "latitude":35.71071,
      "longitude":53.35394
    },{
      "name":"Semnan",
      "latitude":35.57692,
      "longitude":53.39205
    },{
      "name":"Shahrud",
      "latitude":36.41819,
      "longitude":54.97628
    }]
  },{
    "name":"Ostan-e Sistan va Baluchestan",
    "cities":[{
      "name":"Chah Bahar",
      "latitude":25.2919,
      "longitude":60.643
    },{
      "name":"Iranshahr",
      "latitude":27.20245,
      "longitude":60.68476
    },{
      "name":"Khash",
      "latitude":28.22107,
      "longitude":61.21582
    },{
      "name":"Zabol",
      "latitude":31.0306,
      "longitude":61.4949
    },{
      "name":"Zahedan",
      "latitude":29.4963,
      "longitude":60.8629
    }]
  },{
    "name":"Ostan-e Tehran",
    "cities":[{
      "name":"Damavand",
      "latitude":35.71842,
      "longitude":52.06958
    },{
      "name":"Eqbaliyeh",
      "latitude":35.3022,
      "longitude":51.5358
    },{
      "name":"Malard",
      "latitude":35.6659,
      "longitude":50.9767
    },{
      "name":"Pishva",
      "latitude":35.308,
      "longitude":51.7267
    },{
      "name":"Qarchak",
      "latitude":35.42867,
      "longitude":51.57544
    },{
      "name":"Robat Karim",
      "latitude":35.4846,
      "longitude":51.0829
    },{
      "name":"Shahrak-e Emam Hasan-e Mojtaba",
      "latitude":35.48333,
      "longitude":51.35
    },{
      "name":"Shahre Jadide Andisheh",
      "latitude":35.6803,
      "longitude":51.0193
    },{
      "name":"Shahriar",
      "latitude":35.65884,
      "longitude":51.05775
    },{
      "name":"Sharifabad",
      "latitude":35.4275,
      "longitude":51.78528
    },{
      "name":"Tehran",
      "latitude":35.69439,
      "longitude":51.42151
    },{
      "name":"Varamin",
      "latitude":35.3242,
      "longitude":51.6457
    }]
  },{
    "name":"Ostan-e Zanjan",
    "cities":[{
      "name":"Abhar",
      "latitude":36.1468,
      "longitude":49.218
    },{
      "name":"Alvand",
      "latitude":36.3187,
      "longitude":49.1678
    },{
      "name":"Khorram Darreh",
      "latitude":36.213,
      "longitude":49.196
    },{
      "name":"Zanjan",
      "latitude":36.6736,
      "longitude":48.4787
    }]
  },{
    "name":"Qom",
    "cities":[{
      "name":"Qom",
      "latitude":34.6401,
      "longitude":50.8764
    }]
  },{
    "name":"Yazd",
    "cities":[{
      "name":"Ardakan",
      "latitude":32.31001,
      "longitude":54.01747
    },{
      "name":"Bafq",
      "latitude":31.6035,
      "longitude":55.40249
    },{
      "name":"Mahriz",
      "latitude":31.58428,
      "longitude":54.4428
    },{
      "name":"Meybod",
      "latitude":32.25014,
      "longitude":54.01658
    },{
      "name":"Tabas",
      "latitude":33.59586,
      "longitude":56.92437
    },{
      "name":"Taft",
      "latitude":31.74384,
      "longitude":54.20278
    },{
      "name":"Yazd",
      "latitude":31.89722,
      "longitude":54.3675
    }]
  }]
}
