{
  "name":"Liechtenstein",
  "regions":[{
    "name":"Balzers",
    "cities":[{
      "name":"Balzers",
      "latitude":47.06667,
      "longitude":9.5
    }]
  },{
    "name":"Eschen",
    "cities":[{
      "name":"Eschen",
      "latitude":47.21071,
      "longitude":9.52223
    }]
  },{
    "name":"Gemeinde Gamprin",
    "cities":[{
      "name":"Gamprin",
      "latitude":47.22038,
      "longitude":9.50935
    }]
  },{
    "name":"Mauren",
    "cities":[{
      "name":"Mauren",
      "latitude":47.21805,
      "longitude":9.5442
    }]
  },{
    "name":"Planken",
    "cities":[{
      "name":"Planken",
      "latitude":47.18516,
      "longitude":9.54437
    }]
  },{
    "name":"Ruggell",
    "cities":[{
      "name":"Ruggell",
      "latitude":47.23799,
      "longitude":9.5254
    }]
  },{
    "name":"Schaan",
    "cities":[{
      "name":"Schaan",
      "latitude":47.16498,
      "longitude":9.50867
    }]
  },{
    "name":"Schellenberg",
    "cities":[{
      "name":"Schellenberg",
      "latitude":47.23123,
      "longitude":9.54678
    }]
  },{
    "name":"Triesen",
    "cities":[{
      "name":"Triesen",
      "latitude":47.10752,
      "longitude":9.52815
    }]
  },{
    "name":"Triesenberg",
    "cities":[{
      "name":"Triesenberg",
      "latitude":47.11815,
      "longitude":9.54197
    }]
  },{
    "name":"Vaduz",
    "cities":[{
      "name":"Vaduz",
      "latitude":47.14151,
      "longitude":9.52154
    }]
  }]
}
