{
  "name":"Lithuania",
  "regions":[{
    "name":"Alytaus Apskritis",
    "cities":[{
      "name":"Alytus",
      "latitude":54.4,
      "longitude":24.05
    },{
      "name":"Druskininkai",
      "latitude":54.01667,
      "longitude":23.96667
    },{
      "name":"Varena",
      "latitude":54.21667,
      "longitude":24.56667
    }]
  },{
    "name":"Kauno Apskritis",
    "cities":[{
      "name":"Dainava",
      "latitude":54.91525,
      "longitude":23.96831
    },{
      "name":"Jonava",
      "latitude":55.08333,
      "longitude":24.28333
    },{
      "name":"Kaunas",
      "latitude":54.9,
      "longitude":23.9
    },{
      "name":"Kedainiai",
      "latitude":55.28833,
      "longitude":23.97472
    }]
  },{
    "name":"Klaipedos Apskritis",
    "cities":[{
      "name":"Gargzdai",
      "latitude":55.71278,
      "longitude":21.40333
    },{
      "name":"Klaipeda",
      "latitude":55.71722,
      "longitude":21.1175
    },{
      "name":"Kretinga",
      "latitude":55.87583,
      "longitude":21.25083
    },{
      "name":"Palanga",
      "latitude":55.9175,
      "longitude":21.06861
    },{
      "name":"Silute",
      "latitude":55.34889,
      "longitude":21.48306
    }]
  },{
    "name":"Lithuania",
    "cities":[{
      "name":"Elektrenai",
      "latitude":54.76667,
      "longitude":24.63333
    },{
      "name":"Garliava",
      "latitude":54.81667,
      "longitude":23.86667
    },{
      "name":"Grigiskes",
      "latitude":54.68333,
      "longitude":25.08333
    },{
      "name":"Ignalina",
      "latitude":55.35,
      "longitude":26.16667
    },{
      "name":"Kaisiadorys",
      "latitude":54.86667,
      "longitude":24.45
    },{
      "name":"Kazlu Ruda",
      "latitude":54.76667,
      "longitude":23.5
    },{
      "name":"Kelme",
      "latitude":55.63389,
      "longitude":22.93417
    },{
      "name":"Kupiskis",
      "latitude":55.83333,
      "longitude":24.96667
    },{
      "name":"Kursenai",
      "latitude":55.985,
      "longitude":22.91889
    },{
      "name":"Kybartai",
      "latitude":54.63858,
      "longitude":22.76316
    },{
      "name":"Lentvaris",
      "latitude":54.65,
      "longitude":25.05
    },{
      "name":"Moletai",
      "latitude":55.23333,
      "longitude":25.41667
    },{
      "name":"Naujoji Akmene",
      "latitude":56.31667,
      "longitude":22.9
    },{
      "name":"Nemencine",
      "latitude":54.85,
      "longitude":25.48333
    },{
      "name":"Pabrade",
      "latitude":55.0,
      "longitude":25.78333
    },{
      "name":"Prienai",
      "latitude":54.63333,
      "longitude":23.95
    },{
      "name":"Raseiniai",
      "latitude":55.37361,
      "longitude":23.12167
    },{
      "name":"Sakiai",
      "latitude":54.95472,
      "longitude":23.03583
    },{
      "name":"Salcininkai",
      "latitude":54.3,
      "longitude":25.38333
    },{
      "name":"Silale",
      "latitude":55.49056,
      "longitude":22.18139
    },{
      "name":"Sirvintos",
      "latitude":55.05,
      "longitude":24.95
    },{
      "name":"Skuodas",
      "latitude":56.26667,
      "longitude":21.53333
    },{
      "name":"Svencioneliai",
      "latitude":55.16667,
      "longitude":26.0
    },{
      "name":"Svencionys",
      "latitude":55.15,
      "longitude":26.16667
    },{
      "name":"Trakai",
      "latitude":54.63333,
      "longitude":24.93333
    },{
      "name":"Vilkaviskis",
      "latitude":54.65167,
      "longitude":23.03222
    },{
      "name":"Zarasai",
      "latitude":55.73333,
      "longitude":26.25
    }]
  },{
    "name":"Marijampoles Apskritis",
    "cities":[{
      "name":"Marijampole",
      "latitude":54.56667,
      "longitude":23.35
    }]
  },{
    "name":"Panevezys County",
    "cities":[{
      "name":"Birzai",
      "latitude":56.2,
      "longitude":24.75
    },{
      "name":"Panevezys",
      "latitude":55.73333,
      "longitude":24.35
    },{
      "name":"Pasvalys",
      "latitude":56.05944,
      "longitude":24.40361
    },{
      "name":"Rokiskis",
      "latitude":55.96667,
      "longitude":25.58333
    }]
  },{
    "name":"Siauliu Apskritis",
    "cities":[{
      "name":"Joniskis",
      "latitude":56.24028,
      "longitude":23.61528
    },{
      "name":"Pakruojis",
      "latitude":55.96667,
      "longitude":23.86667
    },{
      "name":"Radviliskis",
      "latitude":55.81667,
      "longitude":23.53333
    },{
      "name":"Siauliai",
      "latitude":55.93333,
      "longitude":23.31667
    }]
  },{
    "name":"Taurages Apskritis",
    "cities":[{
      "name":"Jurbarkas",
      "latitude":55.07778,
      "longitude":22.76639
    },{
      "name":"Taurage",
      "latitude":55.25222,
      "longitude":22.28972
    }]
  },{
    "name":"Telsiu Apskritis",
    "cities":[{
      "name":"Mazeikiai",
      "latitude":56.31667,
      "longitude":22.33333
    },{
      "name":"Plunge",
      "latitude":55.91139,
      "longitude":21.84417
    },{
      "name":"Telsiai",
      "latitude":55.98139,
      "longitude":22.24722
    }]
  },{
    "name":"Utenos Apskritis",
    "cities":[{
      "name":"Anyksciai",
      "latitude":55.52557,
      "longitude":25.10264
    },{
      "name":"Utena",
      "latitude":55.5,
      "longitude":25.6
    },{
      "name":"Visaginas",
      "latitude":55.6,
      "longitude":26.41667
    }]
  },{
    "name":"Vilniaus Apskritis",
    "cities":[{
      "name":"Ukmerge",
      "latitude":55.25,
      "longitude":24.75
    },{
      "name":"Vievis",
      "latitude":54.76667,
      "longitude":24.8
    },{
      "name":"Vilnius",
      "latitude":54.68916,
      "longitude":25.2798
    }]
  }]
}
