{
  "name":"Montenegro",
  "regions":[{
    "name":"Andrijevica",
    "cities":[{
      "name":"Andrijevica",
      "latitude":42.73389,
      "longitude":19.79194
    }]
  },{
    "name":"Bar",
    "cities":[{
      "name":"Bar",
      "latitude":42.09306,
      "longitude":19.10028
    }]
  },{
    "name":"Berane",
    "cities":[{
      "name":"Berane",
      "latitude":42.8425,
      "longitude":19.87333
    }]
  },{
    "name":"Bijelo Polje",
    "cities":[{
      "name":"Bijelo Polje",
      "latitude":43.03834,
      "longitude":19.74758
    }]
  },{
    "name":"Budva",
    "cities":[{
      "name":"Budva",
      "latitude":42.28639,
      "longitude":18.84
    }]
  },{
    "name":"Cetinje",
    "cities":[{
      "name":"Cetinje",
      "latitude":42.39063,
      "longitude":18.91417
    }]
  },{
    "name":"Danilovgrad",
    "cities":[{
      "name":"Danilovgrad",
      "latitude":42.55384,
      "longitude":19.14608
    }]
  },{
    "name":"Herceg Novi",
    "cities":[{
      "name":"Herceg-Novi",
      "latitude":42.45306,
      "longitude":18.5375
    }]
  },{
    "name":"Kotor",
    "cities":[{
      "name":"Kotor",
      "latitude":42.42067,
      "longitude":18.76825
    }]
  },{
    "name":"Mojkovac",
    "cities":[{
      "name":"Mojkovac",
      "latitude":42.96044,
      "longitude":19.5833
    }]
  },{
    "name":"Montenegro",
    "cities":[{
      "name":"Dobrota",
      "latitude":42.45417,
      "longitude":18.76833
    }]
  },{
    "name":"Opstina Kolasin",
    "cities":[{
      "name":"Kolasin",
      "latitude":42.82229,
      "longitude":19.51653
    }]
  },{
    "name":"Opstina Niksic",
    "cities":[{
      "name":"Niksic",
      "latitude":42.7731,
      "longitude":18.94446
    }]
  },{
    "name":"Opstina Plav",
    "cities":[{
      "name":"Plav",
      "latitude":42.59694,
      "longitude":19.94556
    }]
  },{
    "name":"Opstina Pluzine",
    "cities":[{
      "name":"Pluzine",
      "latitude":43.15278,
      "longitude":18.83944
    }]
  },{
    "name":"Opstina Rozaje",
    "cities":[{
      "name":"Rozaje",
      "latitude":42.83299,
      "longitude":20.16652
    }]
  },{
    "name":"Opstina Savnik",
    "cities":[{
      "name":"Savnik",
      "latitude":42.95639,
      "longitude":19.09667
    }]
  },{
    "name":"Opstina Zabljak",
    "cities":[{
      "name":"Zabljak",
      "latitude":43.15423,
      "longitude":19.12325
    }]
  },{
    "name":"Pljevlja",
    "cities":[{
      "name":"Pljevlja",
      "latitude":43.3567,
      "longitude":19.35843
    }]
  },{
    "name":"Podgorica",
    "cities":[{
      "name":"Podgorica",
      "latitude":42.44111,
      "longitude":19.26361
    }]
  },{
    "name":"Tivat",
    "cities":[{
      "name":"Tivat",
      "latitude":42.43639,
      "longitude":18.69611
    }]
  },{
    "name":"Ulcinj",
    "cities":[{
      "name":"Ulcinj",
      "latitude":41.92936,
      "longitude":19.22436
    }]
  }]
}
