{
  "name":"Macedonia",
  "regions":[{
    "name":"Aerodrom",
    "cities":[]
  },{
    "name":"Berovo",
    "cities":[{
      "name":"Berovo",
      "latitude":41.70306,
      "longitude":22.85778
    }]
  },{
    "name":"Bitola",
    "cities":[{
      "name":"Bitola",
      "latitude":41.03111,
      "longitude":21.34028
    }]
  },{
    "name":"Bogdanci",
    "cities":[{
      "name":"Bogdanci",
      "latitude":41.20306,
      "longitude":22.57556
    }]
  },{
    "name":"Bogovinje",
    "cities":[{
      "name":"Bogovinje",
      "latitude":41.92361,
      "longitude":20.91361
    },{
      "name":"Kamenjane",
      "latitude":41.94444,
      "longitude":20.92667
    }]
  },{
    "name":"Bosilovo",
    "cities":[{
      "name":"Bosilovo",
      "latitude":41.44056,
      "longitude":22.72778
    }]
  },{
    "name":"Brvenica",
    "cities":[{
      "name":"Brvenica",
      "latitude":41.96722,
      "longitude":20.98083
    }]
  },{
    "name":"Butel",
    "cities":[{
      "name":"Butel",
      "latitude":42.03083,
      "longitude":21.44667
    }]
  },{
    "name":"Debar",
    "cities":[{
      "name":"Debar",
      "latitude":41.525,
      "longitude":20.5275
    }]
  },{
    "name":"Debarca",
    "cities":[{
      "name":"Belcista",
      "latitude":41.30278,
      "longitude":20.83028
    }]
  },{
    "name":"Demir Hisar",
    "cities":[{
      "name":"Demir Hisar",
      "latitude":41.22097,
      "longitude":21.20302
    }]
  },{
    "name":"Demir Kapija",
    "cities":[{
      "name":"Demir Kapija",
      "latitude":41.405,
      "longitude":22.24889
    }]
  },{
    "name":"Dolneni",
    "cities":[{
      "name":"Dolneni",
      "latitude":41.42528,
      "longitude":21.45472
    }]
  },{
    "name":"Drugovo",
    "cities":[{
      "name":"Drugovo",
      "latitude":41.48417,
      "longitude":20.92333
    }]
  },{
    "name":"Gazi Baba",
    "cities":[]
  },{
    "name":"Gevgelija",
    "cities":[{
      "name":"Gevgelija",
      "latitude":41.14166,
      "longitude":22.50141
    }]
  },{
    "name":"Gostivar",
    "cities":[{
      "name":"Dolna Banjica",
      "latitude":41.78611,
      "longitude":20.90611
    },{
      "name":"Gostivar",
      "latitude":41.79722,
      "longitude":20.90833
    },{
      "name":"Vrutok",
      "latitude":41.76861,
      "longitude":20.83917
    }]
  },{
    "name":"Gradsko",
    "cities":[{
      "name":"Gradsko",
      "latitude":41.5775,
      "longitude":21.94278
    }]
  },{
    "name":"Ilinden",
    "cities":[{
      "name":"Ilinden",
      "latitude":41.99451,
      "longitude":21.58002
    }]
  },{
    "name":"Jegunovce",
    "cities":[{
      "name":"Jegunovce",
      "latitude":42.07361,
      "longitude":21.12361
    }]
  },{
    "name":"Karbinci",
    "cities":[{
      "name":"Karbinci",
      "latitude":41.81667,
      "longitude":22.2375
    }]
  },{
    "name":"Kavadarci",
    "cities":[{
      "name":"Kavadarci",
      "latitude":41.43306,
      "longitude":22.01194
    }]
  },{
    "name":"Kisela Voda",
    "cities":[{
      "name":"Kisela Voda",
      "latitude":41.94889,
      "longitude":21.50278
    }]
  },{
    "name":"Kratovo",
    "cities":[{
      "name":"Kratovo",
      "latitude":42.07917,
      "longitude":22.18139
    }]
  },{
    "name":"Kriva Palanka",
    "cities":[{
      "name":"Kriva Palanka",
      "latitude":42.20194,
      "longitude":22.33194
    }]
  },{
    "name":"Kumanovo",
    "cities":[{
      "name":"Kumanovo",
      "latitude":42.13222,
      "longitude":21.71444
    }]
  },{
    "name":"Lozovo",
    "cities":[{
      "name":"Lozovo",
      "latitude":41.78389,
      "longitude":21.90556
    }]
  },{
    "name":"Macedonia",
    "cities":[{
      "name":"Chegrane",
      "latitude":41.83889,
      "longitude":20.97583
    },{
      "name":"Kondovo",
      "latitude":42.01167,
      "longitude":21.31361
    },{
      "name":"Labunishta",
      "latitude":41.26861,
      "longitude":20.59611
    },{
      "name":"Velesta",
      "latitude":41.24083,
      "longitude":20.64389
    }]
  },{
    "name":"Makedonska Kamenica",
    "cities":[{
      "name":"Makedonska Kamenica",
      "latitude":42.02079,
      "longitude":22.5876
    }]
  },{
    "name":"Makedonski Brod",
    "cities":[{
      "name":"Makedonski Brod",
      "latitude":41.51361,
      "longitude":21.21528
    }]
  },{
    "name":"Mogila",
    "cities":[{
      "name":"Mogila",
      "latitude":41.10833,
      "longitude":21.37861
    }]
  },{
    "name":"Negotino",
    "cities":[{
      "name":"Negotino",
      "latitude":41.48389,
      "longitude":22.08917
    }]
  },{
    "name":"Novaci",
    "cities":[{
      "name":"Novaci",
      "latitude":41.04194,
      "longitude":21.45611
    }]
  },{
    "name":"Novo Selo",
    "cities":[{
      "name":"Novo Selo",
      "latitude":41.41389,
      "longitude":22.88111
    }]
  },{
    "name":"Ohrid",
    "cities":[{
      "name":"Ohrid",
      "latitude":41.11722,
      "longitude":20.80194
    }]
  },{
    "name":"Opstina Aracinovo",
    "cities":[{
      "name":"Arachinovo",
      "latitude":42.02639,
      "longitude":21.56194
    }]
  },{
    "name":"Opstina Cair",
    "cities":[{
      "name":"Cair",
      "latitude":42.01528,
      "longitude":21.44111
    }]
  },{
    "name":"Opstina Caska",
    "cities":[{
      "name":"Caska",
      "latitude":41.65056,
      "longitude":21.66222
    }]
  },{
    "name":"Opstina Centar",
    "cities":[]
  },{
    "name":"Opstina Centar Zupa",
    "cities":[{
      "name":"Centar Zupa",
      "latitude":41.47849,
      "longitude":20.55945
    }]
  },{
    "name":"Opstina Cesinovo-Oblesevo",
    "cities":[{
      "name":"Cesinovo",
      "latitude":41.87139,
      "longitude":22.28917
    }]
  },{
    "name":"Opstina Cucer-Sandevo",
    "cities":[{
      "name":"Chucher-Sandevo",
      "latitude":42.10361,
      "longitude":21.38222
    }]
  },{
    "name":"Opstina Delcevo",
    "cities":[{
      "name":"Delchevo",
      "latitude":41.96722,
      "longitude":22.76944
    }]
  },{
    "name":"Opstina Dojran",
    "cities":[{
      "name":"Star Dojran",
      "latitude":41.18647,
      "longitude":22.7203
    }]
  },{
    "name":"Opstina Gjorce Petrov",
    "cities":[]
  },{
    "name":"Opstina Karpos",
    "cities":[{
      "name":"Skopje",
      "latitude":41.99646,
      "longitude":21.43141
    }]
  },{
    "name":"Opstina Kicevo",
    "cities":[{
      "name":"Kicevo",
      "latitude":41.51444,
      "longitude":20.96333
    }]
  },{
    "name":"Opstina Kocani",
    "cities":[{
      "name":"Kochani",
      "latitude":41.91639,
      "longitude":22.41278
    }]
  },{
    "name":"Opstina Konce",
    "cities":[{
      "name":"Konce",
      "latitude":41.49583,
      "longitude":22.385
    }]
  },{
    "name":"Opstina Krivogastani",
    "cities":[{
      "name":"Krivogashtani",
      "latitude":41.33611,
      "longitude":21.33306
    }]
  },{
    "name":"Opstina Krusevo",
    "cities":[{
      "name":"Krushevo",
      "latitude":41.36889,
      "longitude":21.24889
    }]
  },{
    "name":"Opstina Lipkovo",
    "cities":[{
      "name":"Lipkovo",
      "latitude":42.15639,
      "longitude":21.58528
    }]
  },{
    "name":"Opstina Mavrovo i Rostusa",
    "cities":[{
      "name":"Rostusha",
      "latitude":41.61,
      "longitude":20.6
    }]
  },{
    "name":"Opstina Pehcevo",
    "cities":[{
      "name":"Pehcevo",
      "latitude":41.75944,
      "longitude":22.89056
    }]
  },{
    "name":"Opstina Probistip",
    "cities":[{
      "name":"Probishtip",
      "latitude":42.00306,
      "longitude":22.17861
    }]
  },{
    "name":"Opstina Radovis",
    "cities":[{
      "name":"Radovish",
      "latitude":41.63833,
      "longitude":22.46472
    }]
  },{
    "name":"Opstina Rankovce",
    "cities":[{
      "name":"Rankovce",
      "latitude":42.16964,
      "longitude":22.11617
    }]
  },{
    "name":"Opstina Sopiste",
    "cities":[{
      "name":"Sopishte",
      "latitude":41.95472,
      "longitude":21.4275
    }]
  },{
    "name":"Opstina Staro Nagoricane",
    "cities":[{
      "name":"Staro Nagorichane",
      "latitude":42.19806,
      "longitude":21.82861
    }]
  },{
    "name":"Opstina Stip",
    "cities":[{
      "name":"Shtip",
      "latitude":41.74583,
      "longitude":22.19583
    }]
  },{
    "name":"Opstina Studenicani",
    "cities":[{
      "name":"Studenichani",
      "latitude":41.91583,
      "longitude":21.53056
    }]
  },{
    "name":"Opstina Suto Orizari",
    "cities":[{
      "name":"Suto Orizare",
      "latitude":42.04,
      "longitude":21.425
    }]
  },{
    "name":"Opstina Vevcani",
    "cities":[{
      "name":"Vevcani",
      "latitude":41.24056,
      "longitude":20.59333
    }]
  },{
    "name":"Opstina Vranestica",
    "cities":[]
  },{
    "name":"Opstina Vrapciste",
    "cities":[{
      "name":"Negotino",
      "latitude":41.87861,
      "longitude":20.88389
    },{
      "name":"Vrapciste",
      "latitude":41.83389,
      "longitude":20.88528
    }]
  },{
    "name":"Opstina Zelino",
    "cities":[{
      "name":"Zhelino",
      "latitude":41.98028,
      "longitude":21.06417
    }]
  },{
    "name":"Oslomej",
    "cities":[{
      "name":"Oslomej",
      "latitude":41.57722,
      "longitude":21.0
    }]
  },{
    "name":"Petrovec",
    "cities":[{
      "name":"Petrovec",
      "latitude":41.93889,
      "longitude":21.615
    }]
  },{
    "name":"Plasnica",
    "cities":[{
      "name":"Plasnica",
      "latitude":41.46722,
      "longitude":21.12306
    }]
  },{
    "name":"Prilep",
    "cities":[{
      "name":"Prilep",
      "latitude":41.34639,
      "longitude":21.55444
    }]
  },{
    "name":"Resen",
    "cities":[{
      "name":"Resen",
      "latitude":41.08889,
      "longitude":21.01222
    }]
  },{
    "name":"Rosoman",
    "cities":[{
      "name":"Rosoman",
      "latitude":41.51611,
      "longitude":21.94972
    }]
  },{
    "name":"Saraj",
    "cities":[{
      "name":"Saraj",
      "latitude":42.0,
      "longitude":21.32778
    }]
  },{
    "name":"Struga",
    "cities":[{
      "name":"Delogozda",
      "latitude":41.25728,
      "longitude":20.7218
    },{
      "name":"Struga",
      "latitude":41.17799,
      "longitude":20.67784
    }]
  },{
    "name":"Strumica",
    "cities":[{
      "name":"Strumica",
      "latitude":41.4375,
      "longitude":22.64333
    }]
  },{
    "name":"Sveti Nikole",
    "cities":[{
      "name":"Sveti Nikole",
      "latitude":41.86956,
      "longitude":21.95274
    }]
  },{
    "name":"Tearce",
    "cities":[{
      "name":"Tearce",
      "latitude":42.07444,
      "longitude":21.0525
    }]
  },{
    "name":"Tetovo",
    "cities":[{
      "name":"Dzepciste",
      "latitude":42.03278,
      "longitude":21.0
    },{
      "name":"Sipkovica",
      "latitude":42.035,
      "longitude":20.91556
    },{
      "name":"Tetovo",
      "latitude":42.01056,
      "longitude":20.97139
    }]
  },{
    "name":"Valandovo",
    "cities":[{
      "name":"Valandovo",
      "latitude":41.31694,
      "longitude":22.56111
    }]
  },{
    "name":"Vasilevo",
    "cities":[{
      "name":"Vasilevo",
      "latitude":41.47611,
      "longitude":22.64167
    }]
  },{
    "name":"Veles",
    "cities":[{
      "name":"Veles",
      "latitude":41.71556,
      "longitude":21.77556
    }]
  },{
    "name":"Vinica",
    "cities":[{
      "name":"Vinica",
      "latitude":41.88278,
      "longitude":22.50917
    }]
  },{
    "name":"Zajas",
    "cities":[{
      "name":"Zajas",
      "latitude":41.60722,
      "longitude":20.93833
    }]
  },{
    "name":"Zelenikovo",
    "cities":[{
      "name":"Zelenikovo",
      "latitude":41.88667,
      "longitude":21.58694
    }]
  },{
    "name":"Zrnovci",
    "cities":[{
      "name":"Zrnovci",
      "latitude":41.85417,
      "longitude":22.44444
    }]
  }]
}
