{
  "name":"Nigeria",
  "regions":[{
    "name":"Abia State",
    "cities":[{
      "name":"Aba",
      "latitude":5.10658,
      "longitude":7.36667
    },{
      "name":"Amaigbo",
      "latitude":5.78917,
      "longitude":7.83829
    },{
      "name":"Arochukwu",
      "latitude":5.38979,
      "longitude":7.91404
    },{
      "name":"Bende",
      "latitude":5.55718,
      "longitude":7.63676
    },{
      "name":"Ohafia-Ifigh",
      "latitude":5.61455,
      "longitude":7.81191
    },{
      "name":"Umuahia",
      "latitude":5.52627,
      "longitude":7.48959
    }]
  },{
    "name":"Adamawa State",
    "cities":[{
      "name":"Ganye",
      "latitude":8.43333,
      "longitude":12.06667
    },{
      "name":"Holma",
      "latitude":9.89863,
      "longitude":13.0545
    },{
      "name":"Jimeta",
      "latitude":9.28333,
      "longitude":12.46667
    },{
      "name":"Little Gombi",
      "latitude":10.16138,
      "longitude":12.7399
    },{
      "name":"Madagali",
      "latitude":10.89018,
      "longitude":13.63121
    },{
      "name":"Mayo Belwa",
      "latitude":9.05,
      "longitude":12.05
    },{
      "name":"Mubi",
      "latitude":10.26761,
      "longitude":13.26436
    },{
      "name":"Ngurore",
      "latitude":9.28333,
      "longitude":12.23333
    },{
      "name":"Numan",
      "latitude":9.46667,
      "longitude":12.03333
    },{
      "name":"Toungo",
      "latitude":8.11667,
      "longitude":12.05
    },{
      "name":"Yola",
      "latitude":9.2,
      "longitude":12.48333
    }]
  },{
    "name":"Akwa Ibom State",
    "cities":[{
      "name":"Abak",
      "latitude":4.9797,
      "longitude":7.79171
    },{
      "name":"Eket",
      "latitude":4.64122,
      "longitude":7.92092
    },{
      "name":"Esuk Oron",
      "latitude":4.80293,
      "longitude":8.25341
    },{
      "name":"Etinan",
      "latitude":4.84262,
      "longitude":7.85252
    },{
      "name":"Ikot-Ekpene",
      "latitude":5.17938,
      "longitude":7.71082
    },{
      "name":"Itu",
      "latitude":5.2004,
      "longitude":7.98475
    },{
      "name":"Uyo",
      "latitude":5.05127,
      "longitude":7.9335
    }]
  },{
    "name":"Anambra State",
    "cities":[{
      "name":"Agulu",
      "latitude":6.11,
      "longitude":7.0724
    },{
      "name":"Awka",
      "latitude":6.21009,
      "longitude":7.07411
    },{
      "name":"Enugu-Ukwu",
      "latitude":6.17851,
      "longitude":7.01156
    },{
      "name":"Igbo-Ukwu",
      "latitude":6.01669,
      "longitude":7.02654
    },{
      "name":"Ihiala",
      "latitude":5.85377,
      "longitude":6.86026
    },{
      "name":"Nkpor",
      "latitude":6.15164,
      "longitude":6.84458
    },{
      "name":"Nnewi",
      "latitude":6.01986,
      "longitude":6.91478
    },{
      "name":"Onitsha",
      "latitude":6.14543,
      "longitude":6.78845
    },{
      "name":"Ozubulu",
      "latitude":5.95666,
      "longitude":6.84904
    },{
      "name":"Uga",
      "latitude":5.93576,
      "longitude":7.0793
    },{
      "name":"Uruobo-Okija",
      "latitude":5.90016,
      "longitude":6.84312
    }]
  },{
    "name":"Bauchi State",
    "cities":[{
      "name":"Azare",
      "latitude":11.6765,
      "longitude":10.1948
    },{
      "name":"Bauchi",
      "latitude":10.31344,
      "longitude":9.84327
    },{
      "name":"Bununu Dass",
      "latitude":10.0,
      "longitude":9.51667
    },{
      "name":"Bununu Kasa",
      "latitude":9.86806,
      "longitude":9.66278
    },{
      "name":"Darazo",
      "latitude":10.99375,
      "longitude":10.41179
    },{
      "name":"Dindima",
      "latitude":10.22629,
      "longitude":10.15132
    },{
      "name":"Disina",
      "latitude":11.48135,
      "longitude":9.91903
    },{
      "name":"Gabarin",
      "latitude":11.1093,
      "longitude":10.4441
    },{
      "name":"Gamawa",
      "latitude":12.1343,
      "longitude":10.5396
    },{
      "name":"Gwaram",
      "latitude":10.23295,
      "longitude":10.28572
    },{
      "name":"Kari",
      "latitude":11.2471,
      "longitude":10.561
    },{
      "name":"Katagum",
      "latitude":12.2867,
      "longitude":10.3527
    },{
      "name":"Lame",
      "latitude":10.44154,
      "longitude":9.23955
    },{
      "name":"Lere",
      "latitude":9.70889,
      "longitude":9.33833
    },{
      "name":"Madara",
      "latitude":11.7798,
      "longitude":10.4479
    },{
      "name":"Misau",
      "latitude":11.3163,
      "longitude":10.4703
    },{
      "name":"Sade",
      "latitude":11.3595,
      "longitude":10.6732
    },{
      "name":"Yamrat",
      "latitude":10.11161,
      "longitude":9.82604
    },{
      "name":"Yanda Bayo",
      "latitude":11.5071,
      "longitude":10.7459
    },{
      "name":"Yuli",
      "latitude":9.69889,
      "longitude":10.27444
    },{
      "name":"Zadawa",
      "latitude":11.4496,
      "longitude":10.3672
    },{
      "name":"Zalanga",
      "latitude":10.61432,
      "longitude":10.17647
    }]
  },{
    "name":"Bayelsa State",
    "cities":[{
      "name":"Amassoma",
      "latitude":4.96917,
      "longitude":6.10972
    },{
      "name":"Brass",
      "latitude":4.31506,
      "longitude":6.24176
    },{
      "name":"Yenagoa",
      "latitude":4.92472,
      "longitude":6.26417
    }]
  },{
    "name":"Benue State",
    "cities":[{
      "name":"Aliade",
      "latitude":7.2964,
      "longitude":8.487
    },{
      "name":"Boju",
      "latitude":7.37834,
      "longitude":7.91119
    },{
      "name":"Bopo",
      "latitude":7.6565,
      "longitude":7.8664
    },{
      "name":"Igbor",
      "latitude":7.4527,
      "longitude":8.6098
    },{
      "name":"Katsina Ala",
      "latitude":7.16667,
      "longitude":9.28333
    },{
      "name":"Makurdi",
      "latitude":7.7411,
      "longitude":8.5121
    },{
      "name":"Ochobo",
      "latitude":7.183,
      "longitude":7.9769
    },{
      "name":"Otukpa",
      "latitude":7.08921,
      "longitude":7.64989
    },{
      "name":"Takum",
      "latitude":7.26667,
      "longitude":9.98333
    },{
      "name":"Yandev",
      "latitude":7.36667,
      "longitude":9.05
    },{
      "name":"Zaki Biam",
      "latitude":7.51667,
      "longitude":9.61667
    }]
  },{
    "name":"Borno State",
    "cities":[{
      "name":"Bama",
      "latitude":11.5221,
      "longitude":13.68558
    },{
      "name":"Benisheik",
      "latitude":11.8072,
      "longitude":12.4909
    },{
      "name":"Biu",
      "latitude":10.61285,
      "longitude":12.19458
    },{
      "name":"Bornu Yassu",
      "latitude":12.2774,
      "longitude":12.5552
    },{
      "name":"Damasak",
      "latitude":13.09771,
      "longitude":12.4952
    },{
      "name":"Damboa",
      "latitude":11.15604,
      "longitude":12.75758
    },{
      "name":"Dikwa",
      "latitude":12.02396,
      "longitude":13.91646
    },{
      "name":"Gambaru",
      "latitude":12.37066,
      "longitude":14.21731
    },{
      "name":"Goniri",
      "latitude":11.48333,
      "longitude":12.31444
    },{
      "name":"Gwoza",
      "latitude":11.08243,
      "longitude":13.69745
    },{
      "name":"Konduga",
      "latitude":11.65583,
      "longitude":13.42133
    },{
      "name":"Kukawa",
      "latitude":12.92342,
      "longitude":13.56058
    },{
      "name":"Magumeri",
      "latitude":12.1131,
      "longitude":12.8274
    },{
      "name":"Maiduguri",
      "latitude":11.84644,
      "longitude":13.16027
    },{
      "name":"Marte",
      "latitude":12.36532,
      "longitude":13.8293
    },{
      "name":"Miringa",
      "latitude":10.73115,
      "longitude":12.14626
    },{
      "name":"Mongonu",
      "latitude":12.67863,
      "longitude":13.60792
    },{
      "name":"Ngala",
      "latitude":12.33772,
      "longitude":14.18052
    },{
      "name":"Shaffa",
      "latitude":10.50673,
      "longitude":12.33315
    },{
      "name":"Shani",
      "latitude":10.21617,
      "longitude":12.06198
    },{
      "name":"Tokombere",
      "latitude":11.22713,
      "longitude":13.48581
    },{
      "name":"Uba",
      "latitude":10.45306,
      "longitude":13.22139
    },{
      "name":"Wuyo",
      "latitude":10.38522,
      "longitude":11.69678
    },{
      "name":"Yajiwa",
      "latitude":11.38385,
      "longitude":12.7236
    }]
  },{
    "name":"Cross River State",
    "cities":[{
      "name":"Akankpa",
      "latitude":5.1264,
      "longitude":8.1898
    },{
      "name":"Calabar",
      "latitude":4.9517,
      "longitude":8.322
    },{
      "name":"Gakem",
      "latitude":6.76578,
      "longitude":8.98813
    },{
      "name":"Ikang",
      "latitude":4.78978,
      "longitude":8.5316
    },{
      "name":"Ikom",
      "latitude":5.96669,
      "longitude":8.70632
    },{
      "name":"Obubra",
      "latitude":6.07525,
      "longitude":8.32904
    },{
      "name":"Obudu",
      "latitude":6.66737,
      "longitude":9.17157
    },{
      "name":"Ogoja",
      "latitude":6.65471,
      "longitude":8.79764
    },{
      "name":"Ugep",
      "latitude":5.8086,
      "longitude":8.0812
    }]
  },{
    "name":"Delta State",
    "cities":[{
      "name":"Abraka",
      "latitude":5.79023,
      "longitude":6.10473
    },{
      "name":"Agbor",
      "latitude":6.25183,
      "longitude":6.19337
    },{
      "name":"Asaba",
      "latitude":6.19824,
      "longitude":6.73187
    },{
      "name":"Bomadi",
      "latitude":5.15931,
      "longitude":5.92516
    },{
      "name":"Burutu",
      "latitude":5.35091,
      "longitude":5.50758
    },{
      "name":"Kwale",
      "latitude":5.70632,
      "longitude":6.43741
    },{
      "name":"Obiaruku Quarters",
      "latitude":5.84671,
      "longitude":6.15257
    },{
      "name":"Ogwashi-Uku",
      "latitude":6.17818,
      "longitude":6.52429
    },{
      "name":"Orerokpe",
      "latitude":5.63506,
      "longitude":5.88956
    },{
      "name":"Patani",
      "latitude":5.22724,
      "longitude":6.19238
    },{
      "name":"Sapele",
      "latitude":5.89405,
      "longitude":5.67666
    },{
      "name":"Ughelli",
      "latitude":5.48986,
      "longitude":6.00743
    },{
      "name":"Umunede",
      "latitude":6.26374,
      "longitude":6.31161
    },{
      "name":"Warri",
      "latitude":5.51667,
      "longitude":5.75
    }]
  },{
    "name":"Ebonyi State",
    "cities":[{
      "name":"Abakaliki",
      "latitude":6.31625,
      "longitude":8.11691
    },{
      "name":"Afikpo",
      "latitude":5.89312,
      "longitude":7.93735
    },{
      "name":"Effium",
      "latitude":6.62917,
      "longitude":8.05925
    },{
      "name":"Ezza Ohu",
      "latitude":6.4373,
      "longitude":8.0862
    },{
      "name":"Isieke",
      "latitude":6.37831,
      "longitude":8.03524
    }]
  },{
    "name":"Edo",
    "cities":[{
      "name":"Agenebode",
      "latitude":7.106,
      "longitude":6.6966
    },{
      "name":"Auchi",
      "latitude":7.06667,
      "longitude":6.26667
    },{
      "name":"Benin City",
      "latitude":6.33504,
      "longitude":5.62749
    },{
      "name":"Ekpoma",
      "latitude":6.74206,
      "longitude":6.139
    },{
      "name":"Igarra",
      "latitude":7.2827,
      "longitude":6.0878
    },{
      "name":"Illushi",
      "latitude":6.6667,
      "longitude":6.63076
    },{
      "name":"Siluko",
      "latitude":6.53858,
      "longitude":5.1609
    },{
      "name":"Ubiaja",
      "latitude":6.65504,
      "longitude":6.38687
    },{
      "name":"Uromi",
      "latitude":6.7,
      "longitude":6.33333
    }]
  },{
    "name":"Ekiti State",
    "cities":[{
      "name":"Ado-Ekiti",
      "latitude":7.621,
      "longitude":5.2215
    },{
      "name":"Araomoko Ekiti",
      "latitude":7.70927,
      "longitude":5.04474
    },{
      "name":"Emure-Ekiti",
      "latitude":7.43614,
      "longitude":5.45932
    },{
      "name":"Ifaki",
      "latitude":7.78942,
      "longitude":5.24852
    },{
      "name":"Igbara-Odo",
      "latitude":7.50251,
      "longitude":5.06258
    },{
      "name":"Igede-Ekiti",
      "latitude":7.66676,
      "longitude":5.13205
    },{
      "name":"Ijero-Ekiti",
      "latitude":7.8139,
      "longitude":5.0742
    },{
      "name":"Ikerre",
      "latitude":7.49133,
      "longitude":5.23225
    },{
      "name":"Ipoti",
      "latitude":7.87377,
      "longitude":5.07692
    },{
      "name":"Ise-Ekiti",
      "latitude":7.4632,
      "longitude":5.4281
    },{
      "name":"Oke Ila",
      "latitude":7.95,
      "longitude":4.98333
    },{
      "name":"Omuo-Ekiti",
      "latitude":7.75833,
      "longitude":5.72227
    }]
  },{
    "name":"Enugu State",
    "cities":[{
      "name":"Adani",
      "latitude":6.73971,
      "longitude":7.01117
    },{
      "name":"Ake-Eze",
      "latitude":5.91677,
      "longitude":7.67615
    },{
      "name":"Aku",
      "latitude":6.7081,
      "longitude":7.3167
    },{
      "name":"Amagunze",
      "latitude":6.3267,
      "longitude":7.6539
    },{
      "name":"Awgu",
      "latitude":6.0742,
      "longitude":7.4786
    },{
      "name":"Eha Amufu",
      "latitude":6.65915,
      "longitude":7.75961
    },{
      "name":"Enugu",
      "latitude":6.4402,
      "longitude":7.4943
    },{
      "name":"Enugu-Ezike",
      "latitude":6.9825,
      "longitude":7.457
    },{
      "name":"Ete",
      "latitude":7.05,
      "longitude":7.45
    },{
      "name":"Ikem",
      "latitude":6.77903,
      "longitude":7.71685
    },{
      "name":"Nsukka",
      "latitude":6.85783,
      "longitude":7.39577
    },{
      "name":"Obolo-Eke",
      "latitude":6.88333,
      "longitude":7.63333
    },{
      "name":"Ogurugu",
      "latitude":6.78558,
      "longitude":6.95053
    },{
      "name":"Opi",
      "latitude":6.7814,
      "longitude":7.4365
    },{
      "name":"Udi",
      "latitude":6.3144,
      "longitude":7.4258
    }]
  },{
    "name":"Federal Capital Territory",
    "cities":[{
      "name":"Abuja",
      "latitude":9.05785,
      "longitude":7.49508
    },{
      "name":"Kuje",
      "latitude":8.89639,
      "longitude":7.24306
    },{
      "name":"Kwali",
      "latitude":8.86722,
      "longitude":7.005
    },{
      "name":"Madala",
      "latitude":9.10444,
      "longitude":7.21333
    }]
  },{
    "name":"Gombe State",
    "cities":[{
      "name":"Akko",
      "latitude":10.28899,
      "longitude":10.9732
    },{
      "name":"Bara",
      "latitude":10.37444,
      "longitude":10.72884
    },{
      "name":"Biliri",
      "latitude":9.86472,
      "longitude":11.22528
    },{
      "name":"Dadiya",
      "latitude":9.61667,
      "longitude":11.43333
    },{
      "name":"Deba Habe",
      "latitude":10.20864,
      "longitude":11.38586
    },{
      "name":"Dukku",
      "latitude":10.82306,
      "longitude":10.77167
    },{
      "name":"Garko",
      "latitude":10.17506,
      "longitude":11.16458
    },{
      "name":"Gombe",
      "latitude":10.28969,
      "longitude":11.16729
    },{
      "name":"Hinna",
      "latitude":10.30426,
      "longitude":11.49905
    },{
      "name":"Kafarati",
      "latitude":10.38304,
      "longitude":11.09567
    },{
      "name":"Kaltungo",
      "latitude":9.81417,
      "longitude":11.30889
    },{
      "name":"Kumo",
      "latitude":10.04469,
      "longitude":11.21217
    },{
      "name":"Nafada",
      "latitude":11.0956,
      "longitude":11.3327
    },{
      "name":"Pindiga",
      "latitude":9.98333,
      "longitude":10.93333
    }]
  },{
    "name":"Imo State",
    "cities":[{
      "name":"Ihuo",
      "latitude":5.56667,
      "longitude":7.1
    },{
      "name":"Nkwerre",
      "latitude":5.75555,
      "longitude":7.10627
    },{
      "name":"Oguta",
      "latitude":5.7089,
      "longitude":6.81026
    },{
      "name":"Okigwi",
      "latitude":5.83523,
      "longitude":7.35989
    },{
      "name":"Orlu",
      "latitude":5.79464,
      "longitude":7.03495
    },{
      "name":"Orodo",
      "latitude":5.61667,
      "longitude":7.03333
    },{
      "name":"Owerri",
      "latitude":5.48333,
      "longitude":7.03041
    }]
  },{
    "name":"Jigawa State",
    "cities":[{
      "name":"Babura",
      "latitude":12.77305,
      "longitude":9.01583
    },{
      "name":"Birnin Kudu",
      "latitude":11.44588,
      "longitude":9.4984
    },{
      "name":"Birniwa",
      "latitude":12.7903,
      "longitude":10.2348
    },{
      "name":"Dutse",
      "latitude":11.7594,
      "longitude":9.33921
    },{
      "name":"Gagarawa",
      "latitude":12.40741,
      "longitude":9.5277
    },{
      "name":"Gumel",
      "latitude":12.62791,
      "longitude":9.39119
    },{
      "name":"Gwaram",
      "latitude":11.27639,
      "longitude":9.88583
    },{
      "name":"Hadejia",
      "latitude":12.4498,
      "longitude":10.0444
    },{
      "name":"Kazaure",
      "latitude":12.65131,
      "longitude":8.41615
    },{
      "name":"Keffin Hausa",
      "latitude":12.23753,
      "longitude":9.90798
    },{
      "name":"Kiyawa",
      "latitude":11.78278,
      "longitude":9.6125
    },{
      "name":"Malummaduri",
      "latitude":12.565,
      "longitude":9.95729
    },{
      "name":"Ringim",
      "latitude":12.15482,
      "longitude":9.16192
    },{
      "name":"Samamiya",
      "latitude":11.34873,
      "longitude":9.63989
    }]
  },{
    "name":"Kaduna State",
    "cities":[{
      "name":"Anchau",
      "latitude":10.95967,
      "longitude":8.39155
    },{
      "name":"Burumburum",
      "latitude":11.39106,
      "longitude":8.72341
    },{
      "name":"Dutsen Wai",
      "latitude":10.85009,
      "longitude":8.199
    },{
      "name":"Igabi",
      "latitude":10.78887,
      "longitude":7.77493
    },{
      "name":"Kachia",
      "latitude":9.86667,
      "longitude":7.95
    },{
      "name":"Kaduna",
      "latitude":10.52224,
      "longitude":7.43828
    },{
      "name":"Kafachan",
      "latitude":9.58333,
      "longitude":8.3
    },{
      "name":"Kagoro",
      "latitude":9.6,
      "longitude":8.38333
    },{
      "name":"Kajuru",
      "latitude":10.31921,
      "longitude":7.68924
    },{
      "name":"Kujama",
      "latitude":10.45418,
      "longitude":7.63678
    },{
      "name":"Lere",
      "latitude":10.38697,
      "longitude":8.57262
    },{
      "name":"Mando",
      "latitude":10.71667,
      "longitude":6.56667
    },{
      "name":"Rahama",
      "latitude":10.41403,
      "longitude":8.68279
    },{
      "name":"Soba",
      "latitude":10.98134,
      "longitude":8.05749
    },{
      "name":"Sofo-Birnin-Gwari",
      "latitude":11.01537,
      "longitude":6.78036
    },{
      "name":"Zaria",
      "latitude":11.11128,
      "longitude":7.7227
    }]
  },{
    "name":"Kano State",
    "cities":[{
      "name":"Bebeji",
      "latitude":11.66726,
      "longitude":8.26217
    },{
      "name":"Dambarta",
      "latitude":12.43303,
      "longitude":8.51541
    },{
      "name":"Dan Gora",
      "latitude":11.53485,
      "longitude":8.15224
    },{
      "name":"Gaya",
      "latitude":11.86136,
      "longitude":8.99714
    },{
      "name":"Gwarzo",
      "latitude":11.91521,
      "longitude":7.9346
    },{
      "name":"Kano",
      "latitude":12.00012,
      "longitude":8.51672
    },{
      "name":"Kibiya",
      "latitude":11.52629,
      "longitude":8.66227
    },{
      "name":"Kura",
      "latitude":11.76969,
      "longitude":8.43033
    },{
      "name":"Rano",
      "latitude":11.54912,
      "longitude":8.57464
    },{
      "name":"Takai",
      "latitude":11.58333,
      "longitude":9.11667
    },{
      "name":"Wudil",
      "latitude":11.81067,
      "longitude":8.84505
    }]
  },{
    "name":"Katsina State",
    "cities":[{
      "name":"Bakori",
      "latitude":11.55445,
      "longitude":7.42425
    },{
      "name":"Batsari",
      "latitude":12.75147,
      "longitude":7.24472
    },{
      "name":"Danja",
      "latitude":11.37643,
      "longitude":7.56249
    },{
      "name":"Dankama",
      "latitude":13.29782,
      "longitude":7.79492
    },{
      "name":"Daura",
      "latitude":13.03594,
      "longitude":8.31631
    },{
      "name":"Dutsin Ma",
      "latitude":12.45167,
      "longitude":7.49805
    },{
      "name":"Funtua",
      "latitude":11.52325,
      "longitude":7.30813
    },{
      "name":"Gora",
      "latitude":11.91294,
      "longitude":7.6653
    },{
      "name":"Hunkuyi",
      "latitude":11.26676,
      "longitude":7.65118
    },{
      "name":"Jibiya",
      "latitude":13.09778,
      "longitude":7.2225
    },{
      "name":"Jikamshi",
      "latitude":12.17328,
      "longitude":7.77424
    },{
      "name":"Kankara",
      "latitude":11.93016,
      "longitude":7.41267
    },{
      "name":"Katsina",
      "latitude":12.98943,
      "longitude":7.60063
    },{
      "name":"Malumfashi",
      "latitude":11.78529,
      "longitude":7.62175
    },{
      "name":"Mashi",
      "latitude":12.97844,
      "longitude":7.95293
    },{
      "name":"Musawa",
      "latitude":12.12717,
      "longitude":7.6698
    },{
      "name":"Ruma",
      "latitude":12.8626,
      "longitude":7.23469
    },{
      "name":"Runka",
      "latitude":12.44788,
      "longitude":7.30918
    },{
      "name":"Wagini",
      "latitude":12.68781,
      "longitude":7.19579
    },{
      "name":"Zango",
      "latitude":13.05151,
      "longitude":8.48765
    }]
  },{
    "name":"Kebbi State",
    "cities":[{
      "name":"Argungu",
      "latitude":12.74334,
      "longitude":4.52687
    },{
      "name":"Bagudo",
      "latitude":11.40329,
      "longitude":4.22958
    },{
      "name":"Bena",
      "latitude":11.28444,
      "longitude":5.93472
    },{
      "name":"Bin Yauri",
      "latitude":10.7823,
      "longitude":4.81135
    },{
      "name":"Birnin Kebbi",
      "latitude":12.45389,
      "longitude":4.1975
    },{
      "name":"Bunza",
      "latitude":12.08444,
      "longitude":4.02111
    },{
      "name":"Dabai",
      "latitude":11.47652,
      "longitude":5.20625
    },{
      "name":"Dakingari",
      "latitude":11.64511,
      "longitude":4.06046
    },{
      "name":"Gulma",
      "latitude":12.64231,
      "longitude":4.35545
    },{
      "name":"Gwandu",
      "latitude":12.49382,
      "longitude":4.64227
    },{
      "name":"Jega",
      "latitude":12.2175,
      "longitude":4.37917
    },{
      "name":"Kaingiwa",
      "latitude":12.55208,
      "longitude":3.81867
    },{
      "name":"Kamba",
      "latitude":11.84864,
      "longitude":3.65761
    },{
      "name":"Kende",
      "latitude":11.51966,
      "longitude":4.2603
    },{
      "name":"Mahuta",
      "latitude":11.55254,
      "longitude":4.98436
    },{
      "name":"Maiyema",
      "latitude":12.08411,
      "longitude":4.36766
    },{
      "name":"Shanga",
      "latitude":11.21062,
      "longitude":4.57878
    },{
      "name":"Wasagu",
      "latitude":11.3764,
      "longitude":5.79536
    },{
      "name":"Zuru",
      "latitude":11.42406,
      "longitude":5.22879
    }]
  },{
    "name":"Kogi State",
    "cities":[{
      "name":"Abocho",
      "latitude":7.5677,
      "longitude":6.9863
    },{
      "name":"Adoru",
      "latitude":6.97661,
      "longitude":7.16268
    },{
      "name":"Ajaokuta",
      "latitude":7.56229,
      "longitude":6.65497
    },{
      "name":"Ankpa",
      "latitude":7.37058,
      "longitude":7.6253
    },{
      "name":"Bugana",
      "latitude":7.99917,
      "longitude":7.58361
    },{
      "name":"Dekina",
      "latitude":7.69475,
      "longitude":7.02218
    },{
      "name":"Egbe",
      "latitude":8.21667,
      "longitude":5.51667
    },{
      "name":"Icheu",
      "latitude":7.7067,
      "longitude":6.7718
    },{
      "name":"Idah",
      "latitude":7.10651,
      "longitude":6.73415
    },{
      "name":"Isanlu Itedoijowa",
      "latitude":8.26667,
      "longitude":5.83333
    },{
      "name":"Kabba",
      "latitude":7.82873,
      "longitude":6.0731
    },{
      "name":"Koton Karifi",
      "latitude":8.1,
      "longitude":6.8
    },{
      "name":"Lokoja",
      "latitude":7.80236,
      "longitude":6.743
    },{
      "name":"Ogaminan",
      "latitude":7.59464,
      "longitude":6.22476
    }]
  },{
    "name":"Kwara State",
    "cities":[{
      "name":"Ajasse Ipo",
      "latitude":8.23333,
      "longitude":4.81667
    },{
      "name":"Bode Sadu",
      "latitude":8.93333,
      "longitude":4.78333
    },{
      "name":"Gwasero",
      "latitude":9.48333,
      "longitude":3.5
    },{
      "name":"Ilorin",
      "latitude":8.5,
      "longitude":4.55
    },{
      "name":"Jebba",
      "latitude":9.13333,
      "longitude":4.83333
    },{
      "name":"Kaiama",
      "latitude":9.6225,
      "longitude":3.94806
    },{
      "name":"Lafiagi",
      "latitude":8.86667,
      "longitude":5.41667
    },{
      "name":"Offa",
      "latitude":8.15,
      "longitude":4.71667
    },{
      "name":"Okuta",
      "latitude":9.21667,
      "longitude":3.18333
    },{
      "name":"Omu Aran",
      "latitude":8.13333,
      "longitude":5.1
    },{
      "name":"Pategi",
      "latitude":8.73333,
      "longitude":5.75
    },{
      "name":"Suya",
      "latitude":9.46667,
      "longitude":3.18333
    },{
      "name":"Yashikera",
      "latitude":9.76667,
      "longitude":3.4
    }]
  },{
    "name":"Lagos State",
    "cities":[{
      "name":"Badagry",
      "latitude":6.41667,
      "longitude":2.88333
    },{
      "name":"Ebute Ikorodu",
      "latitude":6.60086,
      "longitude":3.48818
    },{
      "name":"Ejirin",
      "latitude":6.61423,
      "longitude":3.90019
    },{
      "name":"Epe",
      "latitude":6.58412,
      "longitude":3.98336
    },{
      "name":"Ikeja",
      "latitude":6.59422,
      "longitude":3.33748
    },{
      "name":"Lagos",
      "latitude":6.45306,
      "longitude":3.39583
    },{
      "name":"Makoko",
      "latitude":6.49611,
      "longitude":3.38778
    }]
  },{
    "name":"Nasarawa State",
    "cities":[{
      "name":"Akwanga",
      "latitude":8.91667,
      "longitude":8.38333
    },{
      "name":"Buga",
      "latitude":8.49056,
      "longitude":7.34139
    },{
      "name":"Doma",
      "latitude":8.38333,
      "longitude":8.35
    },{
      "name":"Keffi",
      "latitude":8.84861,
      "longitude":7.87361
    },{
      "name":"Lafia",
      "latitude":8.48333,
      "longitude":8.51667
    },{
      "name":"Nassarawa",
      "latitude":8.52944,
      "longitude":7.72417
    },{
      "name":"Wamba",
      "latitude":8.93333,
      "longitude":8.6
    }]
  },{
    "name":"Niger State",
    "cities":[{
      "name":"Agaie",
      "latitude":9.01667,
      "longitude":6.31667
    },{
      "name":"Auna",
      "latitude":10.18805,
      "longitude":4.72318
    },{
      "name":"Babana",
      "latitude":10.42949,
      "longitude":3.81495
    },{
      "name":"Badeggi",
      "latitude":9.05,
      "longitude":6.15
    },{
      "name":"Baro",
      "latitude":8.6,
      "longitude":6.41667
    },{
      "name":"Bida",
      "latitude":9.08333,
      "longitude":6.01667
    },{
      "name":"Bokani",
      "latitude":9.43333,
      "longitude":5.2
    },{
      "name":"Duku",
      "latitude":11.2361,
      "longitude":4.90727
    },{
      "name":"Ibeto",
      "latitude":10.48536,
      "longitude":5.14502
    },{
      "name":"Konkwesso",
      "latitude":10.84686,
      "longitude":4.09835
    },{
      "name":"Kontagora",
      "latitude":10.39989,
      "longitude":5.46949
    },{
      "name":"Kusheriki",
      "latitude":10.53283,
      "longitude":6.44222
    },{
      "name":"Kuta",
      "latitude":9.86667,
      "longitude":6.71667
    },{
      "name":"Lapai",
      "latitude":9.05,
      "longitude":6.56667
    },{
      "name":"Minna",
      "latitude":9.61389,
      "longitude":6.55694
    },{
      "name":"Mokwa",
      "latitude":9.28333,
      "longitude":5.05
    },{
      "name":"New Shagunnu",
      "latitude":10.33957,
      "longitude":4.4688
    },{
      "name":"Rijau",
      "latitude":11.10298,
      "longitude":5.25068
    },{
      "name":"Suleja",
      "latitude":9.18052,
      "longitude":7.17933
    },{
      "name":"Tegina",
      "latitude":10.0706,
      "longitude":6.1906
    },{
      "name":"Ukata",
      "latitude":10.83122,
      "longitude":5.82494
    },{
      "name":"Wawa",
      "latitude":9.90222,
      "longitude":4.41917
    },{
      "name":"Zungeru",
      "latitude":9.81278,
      "longitude":6.15583
    }]
  },{
    "name":"Ogun State",
    "cities":[{
      "name":"Abeokuta",
      "latitude":7.15,
      "longitude":3.35
    },{
      "name":"Ado Odo",
      "latitude":6.6,
      "longitude":2.93333
    },{
      "name":"Idi Iroko",
      "latitude":6.63333,
      "longitude":2.73333
    },{
      "name":"Ifo",
      "latitude":6.81437,
      "longitude":3.19575
    },{
      "name":"Ijebu-Ife",
      "latitude":6.77837,
      "longitude":4.03386
    },{
      "name":"Ijebu-Igbo",
      "latitude":6.9798,
      "longitude":4.00329
    },{
      "name":"Ijebu-Ode",
      "latitude":6.81609,
      "longitude":3.91588
    },{
      "name":"Ilaro",
      "latitude":6.88653,
      "longitude":3.0205
    },{
      "name":"Iperu",
      "latitude":6.91002,
      "longitude":3.66557
    },{
      "name":"Isara",
      "latitude":6.99281,
      "longitude":3.68185
    },{
      "name":"Mekkaw",
      "latitude":7.45,
      "longitude":2.85
    },{
      "name":"Owode",
      "latitude":6.94864,
      "longitude":3.50511
    },{
      "name":"Shagamu",
      "latitude":6.84323,
      "longitude":3.64776
    }]
  },{
    "name":"Ondo State",
    "cities":[{
      "name":"Agbabu",
      "latitude":6.58862,
      "longitude":4.8343
    },{
      "name":"Akure",
      "latitude":7.25256,
      "longitude":5.19312
    },{
      "name":"Idanre",
      "latitude":7.1127,
      "longitude":5.1159
    },{
      "name":"Ifon",
      "latitude":6.92412,
      "longitude":5.77603
    },{
      "name":"Ilare",
      "latitude":7.35067,
      "longitude":5.11333
    },{
      "name":"Ode",
      "latitude":7.7899,
      "longitude":5.7117
    },{
      "name":"Ondo",
      "latitude":7.1,
      "longitude":4.83333
    },{
      "name":"Ore",
      "latitude":6.74569,
      "longitude":4.87748
    },{
      "name":"Owo",
      "latitude":7.1962,
      "longitude":5.58681
    }]
  },{
    "name":"Osun State",
    "cities":[{
      "name":"Apomu",
      "latitude":7.33333,
      "longitude":4.18333
    },{
      "name":"Effon Alaiye",
      "latitude":7.65,
      "longitude":4.91667
    },{
      "name":"Ejigbo",
      "latitude":7.9,
      "longitude":4.31667
    },{
      "name":"Gbongan",
      "latitude":7.46667,
      "longitude":4.35
    },{
      "name":"Ijebu Ijesha",
      "latitude":7.68333,
      "longitude":4.81667
    },{
      "name":"Ikire",
      "latitude":7.35,
      "longitude":4.18333
    },{
      "name":"Ikirun",
      "latitude":7.91667,
      "longitude":4.66667
    },{
      "name":"Ila Orangun",
      "latitude":8.01667,
      "longitude":4.9
    },{
      "name":"Ilesa",
      "latitude":7.61667,
      "longitude":4.73333
    },{
      "name":"Ilobu",
      "latitude":7.83333,
      "longitude":4.48333
    },{
      "name":"Inisa",
      "latitude":7.85,
      "longitude":4.33333
    },{
      "name":"Iwo",
      "latitude":7.63333,
      "longitude":4.18333
    },{
      "name":"Modakeke",
      "latitude":7.38333,
      "longitude":4.26667
    },{
      "name":"Oke Mesi",
      "latitude":7.81667,
      "longitude":4.91667
    },{
      "name":"Olupona",
      "latitude":7.6,
      "longitude":4.18333
    },{
      "name":"Osogbo",
      "latitude":7.76667,
      "longitude":4.56667
    },{
      "name":"Otan Aiyegbaju",
      "latitude":7.95,
      "longitude":4.8
    },{
      "name":"Oyan",
      "latitude":8.05,
      "longitude":4.76667
    }]
  },{
    "name":"Oyo State",
    "cities":[{
      "name":"Ago Are",
      "latitude":8.5,
      "longitude":3.41667
    },{
      "name":"Alapa",
      "latitude":8.61667,
      "longitude":4.38333
    },{
      "name":"Fiditi",
      "latitude":7.71361,
      "longitude":3.91722
    },{
      "name":"Ibadan",
      "latitude":7.38778,
      "longitude":3.89639
    },{
      "name":"Igbeti",
      "latitude":8.75,
      "longitude":4.13333
    },{
      "name":"Igbo Ora",
      "latitude":7.43333,
      "longitude":3.28333
    },{
      "name":"Igboho",
      "latitude":8.83333,
      "longitude":3.75
    },{
      "name":"Kishi",
      "latitude":9.08333,
      "longitude":3.85
    },{
      "name":"Lalupon",
      "latitude":7.46667,
      "longitude":4.06667
    },{
      "name":"Oke Iho",
      "latitude":8.03333,
      "longitude":3.35
    },{
      "name":"Orita Eruwa",
      "latitude":7.55,
      "longitude":3.43333
    },{
      "name":"Oyo",
      "latitude":7.85,
      "longitude":3.93333
    },{
      "name":"Saki",
      "latitude":8.66667,
      "longitude":3.38333
    }]
  },{
    "name":"Plateau State",
    "cities":[{
      "name":"Amper",
      "latitude":9.35,
      "longitude":9.7
    },{
      "name":"Boi",
      "latitude":9.56833,
      "longitude":9.49528
    },{
      "name":"Bokkos",
      "latitude":9.3,
      "longitude":9.0
    },{
      "name":"Bukuru",
      "latitude":9.8,
      "longitude":8.86667
    },{
      "name":"Dengi",
      "latitude":9.36667,
      "longitude":9.95
    },{
      "name":"Jos",
      "latitude":9.91667,
      "longitude":8.9
    },{
      "name":"Kwolla",
      "latitude":8.93333,
      "longitude":9.28333
    },{
      "name":"Langtang",
      "latitude":9.13333,
      "longitude":9.78333
    },{
      "name":"Pankshin",
      "latitude":9.33333,
      "longitude":9.45
    },{
      "name":"Panyam",
      "latitude":9.41667,
      "longitude":9.21667
    },{
      "name":"Vom",
      "latitude":9.73333,
      "longitude":8.78333
    },{
      "name":"Yelwa",
      "latitude":8.83333,
      "longitude":9.63333
    }]
  },{
    "name":"Rivers State",
    "cities":[{
      "name":"Ahoada",
      "latitude":5.07395,
      "longitude":6.65353
    },{
      "name":"Bonny",
      "latitude":4.4522,
      "longitude":7.16808
    },{
      "name":"Bori",
      "latitude":4.67366,
      "longitude":7.36201
    },{
      "name":"Buguma",
      "latitude":4.73407,
      "longitude":6.86345
    },{
      "name":"Degema Hulk",
      "latitude":4.76254,
      "longitude":6.752
    },{
      "name":"Elele",
      "latitude":5.1009,
      "longitude":6.81411
    },{
      "name":"Obonoma",
      "latitude":4.70844,
      "longitude":6.79307
    },{
      "name":"Okrika",
      "latitude":4.74159,
      "longitude":7.08488
    },{
      "name":"Omoku",
      "latitude":5.3435,
      "longitude":6.65321
    },{
      "name":"Port Harcourt",
      "latitude":4.77742,
      "longitude":7.0134
    }]
  },{
    "name":"Sokoto State",
    "cities":[{
      "name":"Binji",
      "latitude":13.22277,
      "longitude":4.90955
    },{
      "name":"Dange",
      "latitude":12.85128,
      "longitude":5.34705
    },{
      "name":"Gandi",
      "latitude":12.96358,
      "longitude":5.74337
    },{
      "name":"Goronyo",
      "latitude":13.44232,
      "longitude":5.67632
    },{
      "name":"Gwadabawa",
      "latitude":13.35612,
      "longitude":5.23664
    },{
      "name":"Illela",
      "latitude":13.72918,
      "longitude":5.29752
    },{
      "name":"Rabah",
      "latitude":13.12133,
      "longitude":5.50741
    },{
      "name":"Sokoto",
      "latitude":13.06092,
      "longitude":5.23902
    },{
      "name":"Tambawel",
      "latitude":12.40386,
      "longitude":4.64692
    },{
      "name":"Wurno",
      "latitude":13.28777,
      "longitude":5.42326
    }]
  },{
    "name":"Taraba State",
    "cities":[{
      "name":"Baissa",
      "latitude":7.23333,
      "longitude":10.63333
    },{
      "name":"Beli",
      "latitude":7.85868,
      "longitude":10.97187
    },{
      "name":"Gassol",
      "latitude":8.53333,
      "longitude":10.46667
    },{
      "name":"Gembu",
      "latitude":6.7,
      "longitude":11.26667
    },{
      "name":"Ibi",
      "latitude":8.18333,
      "longitude":9.75
    },{
      "name":"Jalingo",
      "latitude":8.88333,
      "longitude":11.36667
    },{
      "name":"Lau",
      "latitude":9.21667,
      "longitude":11.28333
    },{
      "name":"Mutum Biyu",
      "latitude":8.63333,
      "longitude":10.76667
    },{
      "name":"Riti",
      "latitude":7.91667,
      "longitude":9.61667
    },{
      "name":"Wukari",
      "latitude":7.85,
      "longitude":9.78333
    }]
  },{
    "name":"Yobe State",
    "cities":[{
      "name":"Damaturu",
      "latitude":11.747,
      "longitude":11.9608
    },{
      "name":"Dankalwa",
      "latitude":11.7443,
      "longitude":12.1867
    },{
      "name":"Dapchi",
      "latitude":12.4904,
      "longitude":11.4944
    },{
      "name":"Daura",
      "latitude":11.5538,
      "longitude":11.4085
    },{
      "name":"Gashua",
      "latitude":12.871,
      "longitude":11.0482
    },{
      "name":"Geidam",
      "latitude":12.897,
      "longitude":11.9304
    },{
      "name":"Gorgoram",
      "latitude":12.6398,
      "longitude":10.7039
    },{
      "name":"Gujba",
      "latitude":11.5032,
      "longitude":11.9367
    },{
      "name":"Gwio Kura",
      "latitude":12.6753,
      "longitude":11.0682
    },{
      "name":"Jajere",
      "latitude":11.97969,
      "longitude":11.44426
    },{
      "name":"Kumagunnam",
      "latitude":13.15514,
      "longitude":10.63423
    },{
      "name":"Matsena",
      "latitude":13.13639,
      "longitude":10.04924
    },{
      "name":"Nguru",
      "latitude":12.8791,
      "longitude":10.4526
    },{
      "name":"Potiskum",
      "latitude":11.7091,
      "longitude":11.0694
    }]
  },{
    "name":"Zamfara State",
    "cities":[{
      "name":"Anka",
      "latitude":12.11381,
      "longitude":5.92427
    },{
      "name":"Chafe",
      "latitude":11.95527,
      "longitude":6.92232
    },{
      "name":"Dan Sadau",
      "latitude":11.29621,
      "longitude":6.4952
    },{
      "name":"Gummi",
      "latitude":12.14358,
      "longitude":5.10809
    },{
      "name":"Gusau",
      "latitude":12.16278,
      "longitude":6.66135
    },{
      "name":"Kaura Namoda",
      "latitude":12.58979,
      "longitude":6.57791
    },{
      "name":"Kwatarkwashi",
      "latitude":12.14082,
      "longitude":6.82196
    },{
      "name":"Maru",
      "latitude":12.33417,
      "longitude":6.40569
    },{
      "name":"Moriki",
      "latitude":12.87405,
      "longitude":6.48754
    },{
      "name":"Sauri",
      "latitude":11.72655,
      "longitude":6.78374
    },{
      "name":"Shinkafe",
      "latitude":13.07534,
      "longitude":6.51046
    },{
      "name":"Talata Mafara",
      "latitude":12.57317,
      "longitude":6.05971
    }]
  }]
}
