{
  "name":"Panama",
  "regions":[{
    "name":"Embera-Wounaan",
    "cities":[{
      "name":"Union Choco",
      "latitude":8.08404,
      "longitude":-77.53507
    }]
  },{
    "name":"Guna Yala",
    "cities":[{
      "name":"El Porvenir",
      "latitude":9.55276,
      "longitude":-78.9523
    }]
  },{
    "name":"Ngoebe-Bugle",
    "cities":[{
      "name":"Llano Tugri",
      "latitude":8.48333,
      "longitude":-81.71667
    }]
  },{
    "name":"Provincia de Bocas del Toro",
    "cities":[{
      "name":"Almirante",
      "latitude":9.3,
      "longitude":-82.4
    },{
      "name":"Bocas del Toro",
      "latitude":9.34031,
      "longitude":-82.24204
    },{
      "name":"Changuinola",
      "latitude":9.43333,
      "longitude":-82.51667
    },{
      "name":"Guabito",
      "latitude":9.5,
      "longitude":-82.61667
    }]
  },{
    "name":"Provincia de Chiriqui",
    "cities":[{
      "name":"Boquete",
      "latitude":8.78333,
      "longitude":-82.43333
    },{
      "name":"David",
      "latitude":8.42729,
      "longitude":-82.43085
    },{
      "name":"La Concepcion",
      "latitude":8.51667,
      "longitude":-82.61667
    },{
      "name":"Las Lomas",
      "latitude":8.43333,
      "longitude":-82.4
    },{
      "name":"Pedregal",
      "latitude":8.36667,
      "longitude":-82.43333
    },{
      "name":"Puerto Armuelles",
      "latitude":8.27775,
      "longitude":-82.86206
    },{
      "name":"Volcan",
      "latitude":8.76667,
      "longitude":-82.63333
    }]
  },{
    "name":"Provincia de Cocle",
    "cities":[{
      "name":"Aguadulce",
      "latitude":8.25,
      "longitude":-80.55
    },{
      "name":"Anton",
      "latitude":8.4,
      "longitude":-80.26667
    },{
      "name":"Nata",
      "latitude":8.33333,
      "longitude":-80.51667
    },{
      "name":"Penonome",
      "latitude":8.51667,
      "longitude":-80.36667
    },{
      "name":"Pocri",
      "latitude":8.26667,
      "longitude":-80.55
    }]
  },{
    "name":"Provincia de Colon",
    "cities":[{
      "name":"Cativa",
      "latitude":9.36056,
      "longitude":-79.84361
    },{
      "name":"Colon",
      "latitude":9.35917,
      "longitude":-79.90139
    },{
      "name":"Puerto Escondido",
      "latitude":9.19333,
      "longitude":-80.08833
    },{
      "name":"Puerto Pilon",
      "latitude":9.36444,
      "longitude":-79.79333
    },{
      "name":"Sabanitas",
      "latitude":9.34222,
      "longitude":-79.80111
    }]
  },{
    "name":"Provincia de Herrera",
    "cities":[{
      "name":"Chitre",
      "latitude":7.96667,
      "longitude":-80.43333
    }]
  },{
    "name":"Provincia de Los Santos",
    "cities":[{
      "name":"Las Tablas",
      "latitude":7.76667,
      "longitude":-80.28333
    },{
      "name":"Los Santos",
      "latitude":7.93333,
      "longitude":-80.41667
    }]
  },{
    "name":"Provincia de Panama",
    "cities":[{
      "name":"Alcaldediaz",
      "latitude":9.11667,
      "longitude":-79.55
    },{
      "name":"Ancon",
      "latitude":8.96667,
      "longitude":-79.55
    },{
      "name":"Arraijan",
      "latitude":8.95,
      "longitude":-79.65
    },{
      "name":"Chepo",
      "latitude":9.16667,
      "longitude":-79.1
    },{
      "name":"Chilibre",
      "latitude":9.15,
      "longitude":-79.61667
    },{
      "name":"El Coco",
      "latitude":8.87028,
      "longitude":-79.815
    },{
      "name":"Guadalupe",
      "latitude":8.85583,
      "longitude":-79.81333
    },{
      "name":"La Cabima",
      "latitude":9.13333,
      "longitude":-79.53333
    },{
      "name":"La Chorrera",
      "latitude":8.88028,
      "longitude":-79.78333
    },{
      "name":"Las Cumbres",
      "latitude":9.08333,
      "longitude":-79.53333
    },{
      "name":"Nuevo Arraijan",
      "latitude":8.91667,
      "longitude":-79.71667
    },{
      "name":"Pacora",
      "latitude":9.08333,
      "longitude":-79.28333
    },{
      "name":"Panama",
      "latitude":8.9936,
      "longitude":-79.51973
    },{
      "name":"San Miguelito",
      "latitude":9.03333,
      "longitude":-79.5
    },{
      "name":"Tocumen",
      "latitude":9.08333,
      "longitude":-79.38333
    },{
      "name":"Veracruz",
      "latitude":8.88333,
      "longitude":-79.63333
    },{
      "name":"Vista Alegre",
      "latitude":8.93333,
      "longitude":-79.7
    }]
  },{
    "name":"Provincia de Veraguas",
    "cities":[{
      "name":"Santiago de Veraguas",
      "latitude":8.1,
      "longitude":-80.98333
    },{
      "name":"Sona",
      "latitude":8.01667,
      "longitude":-81.31667
    }]
  },{
    "name":"Provincia del Darien",
    "cities":[{
      "name":"La Palma",
      "latitude":8.40278,
      "longitude":-78.14528
    }]
  }]
}
