{
  "name":"Papua New Guinea",
  "regions":[{
    "name":"Bougainville",
    "cities":[{
      "name":"Arawa",
      "latitude":-6.21319,
      "longitude":155.53674
    },{
      "name":"Boku",
      "latitude":-6.56664,
      "longitude":155.35523
    }]
  },{
    "name":"Central Province",
    "cities":[]
  },{
    "name":"Chimbu Province",
    "cities":[{
      "name":"Kundiawa",
      "latitude":-6.01667,
      "longitude":144.96667
    }]
  },{
    "name":"East New Britain Province",
    "cities":[{
      "name":"Kokopo",
      "latitude":-4.35202,
      "longitude":152.26327
    },{
      "name":"Rabaul",
      "latitude":-4.19671,
      "longitude":152.17215
    }]
  },{
    "name":"East Sepik Province",
    "cities":[{
      "name":"Wewak",
      "latitude":-3.55342,
      "longitude":143.62678
    }]
  },{
    "name":"Eastern Highlands Province",
    "cities":[{
      "name":"Goroka",
      "latitude":-6.08336,
      "longitude":145.38735
    },{
      "name":"Kainantu",
      "latitude":-6.28872,
      "longitude":145.86548
    }]
  },{
    "name":"Enga Province",
    "cities":[{
      "name":"Wabag",
      "latitude":-5.47808,
      "longitude":143.70215
    }]
  },{
    "name":"Gulf Province",
    "cities":[{
      "name":"Kerema",
      "latitude":-7.96309,
      "longitude":145.77851
    }]
  },{
    "name":"Hela",
    "cities":[{
      "name":"Tari",
      "latitude":-5.9022,
      "longitude":142.93511
    }]
  },{
    "name":"Jiwaka",
    "cities":[{
      "name":"Minj",
      "latitude":-5.90752,
      "longitude":144.69159
    }]
  },{
    "name":"Madang Province",
    "cities":[{
      "name":"Madang",
      "latitude":-5.22465,
      "longitude":145.79656
    }]
  },{
    "name":"Manus Province",
    "cities":[{
      "name":"Lorengau",
      "latitude":-2.02259,
      "longitude":147.27119
    }]
  },{
    "name":"Milne Bay Province",
    "cities":[{
      "name":"Alotau",
      "latitude":-10.31509,
      "longitude":150.45742
    }]
  },{
    "name":"Morobe Province",
    "cities":[{
      "name":"Bulolo",
      "latitude":-7.20718,
      "longitude":146.63572
    },{
      "name":"Lae",
      "latitude":-6.72208,
      "longitude":146.98469
    },{
      "name":"Wau",
      "latitude":-7.33514,
      "longitude":146.71798
    }]
  },{
    "name":"National Capital District",
    "cities":[{
      "name":"Port Moresby",
      "latitude":-9.44314,
      "longitude":147.17972
    }]
  },{
    "name":"New Ireland Province",
    "cities":[{
      "name":"Kavieng",
      "latitude":-2.57444,
      "longitude":150.79669
    }]
  },{
    "name":"Northern Province",
    "cities":[{
      "name":"Kokoda",
      "latitude":-8.87853,
      "longitude":147.74073
    },{
      "name":"Popondetta",
      "latitude":-8.75931,
      "longitude":148.24095
    }]
  },{
    "name":"Southern Highlands Province",
    "cities":[{
      "name":"Ialibu",
      "latitude":-6.28208,
      "longitude":143.99354
    },{
      "name":"Mendi",
      "latitude":-6.17608,
      "longitude":143.65134
    }]
  },{
    "name":"West New Britain Province",
    "cities":[{
      "name":"Kimbe",
      "latitude":-5.55021,
      "longitude":150.14285
    }]
  },{
    "name":"West Sepik Province",
    "cities":[{
      "name":"Aitape",
      "latitude":-3.15174,
      "longitude":142.36247
    },{
      "name":"Vanimo",
      "latitude":-2.67408,
      "longitude":141.30284
    },{
      "name":"Vanimo",
      "latitude":-2.66667,
      "longitude":141.26667
    }]
  },{
    "name":"Western Highlands Province",
    "cities":[{
      "name":"Mount Hagen",
      "latitude":-5.8581,
      "longitude":144.22744
    }]
  },{
    "name":"Western Province",
    "cities":[{
      "name":"Daru",
      "latitude":-9.07628,
      "longitude":143.20919
    },{
      "name":"Kiunga",
      "latitude":-6.12193,
      "longitude":141.29061
    }]
  }]
}
