{
  "name":"Puerto Rico",
  "regions":[{
    "name":"Adjuntas",
    "cities":[{
      "name":"Adjuntas",
      "latitude":18.15849,
      "longitude":-66.80177
    },{
      "name":"Adjuntas",
      "latitude":18.16379,
      "longitude":-66.72369
    }]
  },{
    "name":"Aguada",
    "cities":[{
      "name":"Aguada",
      "latitude":18.37939,
      "longitude":-67.18824
    }]
  },{
    "name":"Aguadilla",
    "cities":[{
      "name":"Aguadilla",
      "latitude":18.42745,
      "longitude":-67.15407
    }]
  },{
    "name":"Aguas Buenas",
    "cities":[{
      "name":"Aguas Buenas",
      "latitude":18.2569,
      "longitude":-66.10294
    }]
  },{
    "name":"Aibonito",
    "cities":[{
      "name":"Aibonito",
      "latitude":18.13996,
      "longitude":-66.266
    }]
  },{
    "name":"Anasco",
    "cities":[{
      "name":"Anasco",
      "latitude":18.28273,
      "longitude":-67.13962
    }]
  },{
    "name":"Arecibo",
    "cities":[{
      "name":"Arecibo",
      "latitude":18.47244,
      "longitude":-66.71573
    }]
  },{
    "name":"Arroyo",
    "cities":[{
      "name":"Arroyo",
      "latitude":17.9658,
      "longitude":-66.06128
    }]
  },{
    "name":"Barceloneta",
    "cities":[{
      "name":"Barceloneta",
      "latitude":18.4505,
      "longitude":-66.53851
    }]
  },{
    "name":"Barranquitas",
    "cities":[{
      "name":"Barranquitas",
      "latitude":18.18662,
      "longitude":-66.30628
    }]
  },{
    "name":"Bayamon Municipio",
    "cities":[{
      "name":"Bayamon",
      "latitude":18.39856,
      "longitude":-66.15572
    }]
  },{
    "name":"Cabo Rojo Municipio",
    "cities":[{
      "name":"Cabo Rojo",
      "latitude":18.08663,
      "longitude":-67.14573
    },{
      "name":"Puerto Real",
      "latitude":18.07496,
      "longitude":-67.18712
    }]
  },{
    "name":"Caguas Municipio",
    "cities":[{
      "name":"Caguas",
      "latitude":18.23412,
      "longitude":-66.0485
    }]
  },{
    "name":"Camuy Municipio",
    "cities":[{
      "name":"Camuy",
      "latitude":18.48383,
      "longitude":-66.8449
    }]
  },{
    "name":"Canovanas Municipio",
    "cities":[{
      "name":"Canovanas",
      "latitude":18.3751,
      "longitude":-65.89934
    },{
      "name":"San Isidro",
      "latitude":18.39217,
      "longitude":-65.88544
    },{
      "name":"Santa Barbara",
      "latitude":18.39356,
      "longitude":-65.91878
    }]
  },{
    "name":"Carolina Municipio",
    "cities":[{
      "name":"Carolina",
      "latitude":18.38078,
      "longitude":-65.95739
    }]
  },{
    "name":"Catano Municipio",
    "cities":[{
      "name":"Catano",
      "latitude":18.44134,
      "longitude":-66.11822
    }]
  },{
    "name":"Cayey Municipio",
    "cities":[{
      "name":"Cayey",
      "latitude":18.11191,
      "longitude":-66.166
    }]
  },{
    "name":"Ceiba Municipio",
    "cities":[{
      "name":"Ceiba",
      "latitude":18.26412,
      "longitude":-65.6485
    }]
  },{
    "name":"Ciales Municipio",
    "cities":[{
      "name":"Ciales",
      "latitude":18.33606,
      "longitude":-66.46878
    }]
  },{
    "name":"Cidra Municipio",
    "cities":[{
      "name":"Cidra",
      "latitude":18.17579,
      "longitude":-66.16128
    }]
  },{
    "name":"Coamo Municipio",
    "cities":[{
      "name":"Coamo",
      "latitude":18.07996,
      "longitude":-66.35795
    }]
  },{
    "name":"Comerio Municipio",
    "cities":[{
      "name":"Comerio",
      "latitude":18.21801,
      "longitude":-66.226
    }]
  },{
    "name":"Corozal Municipio",
    "cities":[{
      "name":"Corozal",
      "latitude":18.34106,
      "longitude":-66.31684
    }]
  },{
    "name":"Culebra Municipio",
    "cities":[{
      "name":"Culebra",
      "latitude":18.30301,
      "longitude":-65.30099
    }]
  },{
    "name":"Dorado Municipio",
    "cities":[{
      "name":"Dorado",
      "latitude":18.45883,
      "longitude":-66.26767
    },{
      "name":"San Antonio",
      "latitude":18.44884,
      "longitude":-66.30267
    }]
  },{
    "name":"Fajardo Municipio",
    "cities":[{
      "name":"Fajardo",
      "latitude":18.32579,
      "longitude":-65.65238
    }]
  },{
    "name":"Florida Municipio",
    "cities":[{
      "name":"Estancias de Florida",
      "latitude":18.36662,
      "longitude":-66.56962
    },{
      "name":"Florida",
      "latitude":18.36245,
      "longitude":-66.56128
    }]
  },{
    "name":"Guanica Municipio",
    "cities":[{
      "name":"Guanica",
      "latitude":17.97163,
      "longitude":-66.90795
    }]
  },{
    "name":"Guayama Municipio",
    "cities":[{
      "name":"Guayama",
      "latitude":17.98413,
      "longitude":-66.11378
    }]
  },{
    "name":"Guayanilla Municipio",
    "cities":[{
      "name":"Guayanilla",
      "latitude":18.01913,
      "longitude":-66.79184
    }]
  },{
    "name":"Guaynabo Municipio",
    "cities":[{
      "name":"Guaynabo",
      "latitude":18.35745,
      "longitude":-66.111
    }]
  },{
    "name":"Gurabo Municipio",
    "cities":[{
      "name":"Gurabo",
      "latitude":18.2544,
      "longitude":-65.97294
    }]
  },{
    "name":"Hatillo Municipio",
    "cities":[{
      "name":"Hatillo",
      "latitude":18.48633,
      "longitude":-66.82545
    }]
  },{
    "name":"Hormigueros Municipio",
    "cities":[{
      "name":"Hormigueros",
      "latitude":18.13968,
      "longitude":-67.1274
    }]
  },{
    "name":"Humacao Municipio",
    "cities":[{
      "name":"Humacao",
      "latitude":18.14968,
      "longitude":-65.82738
    },{
      "name":"Punta Santiago",
      "latitude":18.16635,
      "longitude":-65.74822
    }]
  },{
    "name":"Juana Diaz Municipio",
    "cities":[{
      "name":"Juana Diaz",
      "latitude":18.05246,
      "longitude":-66.50656
    }]
  },{
    "name":"Lajas Municipio",
    "cities":[{
      "name":"Lajas",
      "latitude":18.04996,
      "longitude":-67.05934
    }]
  },{
    "name":"Lares Municipio",
    "cities":[{
      "name":"Lares",
      "latitude":18.29467,
      "longitude":-66.87712
    }]
  },{
    "name":"Las Marias Municipio",
    "cities":[{
      "name":"Las Marias",
      "latitude":18.2519,
      "longitude":-66.99212
    }]
  },{
    "name":"Las Piedras Municipio",
    "cities":[{
      "name":"Las Piedras",
      "latitude":18.18301,
      "longitude":-65.86627
    }]
  },{
    "name":"Loiza Municipio",
    "cities":[{
      "name":"Loiza",
      "latitude":18.43134,
      "longitude":-65.88016
    }]
  },{
    "name":"Luquillo Municipio",
    "cities":[{
      "name":"Luquillo",
      "latitude":18.37245,
      "longitude":-65.71655
    }]
  },{
    "name":"Manati Municipio",
    "cities":[{
      "name":"Manati",
      "latitude":18.42745,
      "longitude":-66.49212
    }]
  },{
    "name":"Maricao Municipio",
    "cities":[{
      "name":"Maricao",
      "latitude":18.18079,
      "longitude":-66.9799
    }]
  },{
    "name":"Maunabo Municipio",
    "cities":[{
      "name":"Maunabo",
      "latitude":18.00719,
      "longitude":-65.89933
    }]
  },{
    "name":"Mayagueez Municipio",
    "cities":[{
      "name":"Mayagueez",
      "latitude":18.20107,
      "longitude":-67.13962
    }]
  },{
    "name":"Moca Municipio",
    "cities":[{
      "name":"Moca",
      "latitude":18.39467,
      "longitude":-67.11324
    }]
  },{
    "name":"Morovis Municipio",
    "cities":[{
      "name":"Morovis",
      "latitude":18.32578,
      "longitude":-66.40656
    }]
  },{
    "name":"Municipio de Isabela",
    "cities":[{
      "name":"Isabela",
      "latitude":18.50078,
      "longitude":-67.02435
    }]
  },{
    "name":"Municipio de Jayuya",
    "cities":[{
      "name":"Jayuya",
      "latitude":18.21857,
      "longitude":-66.59156
    }]
  },{
    "name":"Municipio de Juncos",
    "cities":[{
      "name":"Juncos",
      "latitude":18.22746,
      "longitude":-65.921
    }]
  },{
    "name":"Naguabo Municipio",
    "cities":[{
      "name":"Naguabo",
      "latitude":18.21162,
      "longitude":-65.73488
    }]
  },{
    "name":"Naranjito Municipio",
    "cities":[{
      "name":"Naranjito",
      "latitude":18.30079,
      "longitude":-66.24489
    }]
  },{
    "name":"Orocovis Municipio",
    "cities":[{
      "name":"Orocovis",
      "latitude":18.2269,
      "longitude":-66.391
    }]
  },{
    "name":"Patillas Municipio",
    "cities":[{
      "name":"Patillas",
      "latitude":18.00635,
      "longitude":-66.01572
    }]
  },{
    "name":"Penuelas Municipio",
    "cities":[{
      "name":"Penuelas",
      "latitude":18.05635,
      "longitude":-66.72156
    }]
  },{
    "name":"Ponce Municipio",
    "cities":[{
      "name":"Ponce",
      "latitude":18.01108,
      "longitude":-66.61406
    }]
  },{
    "name":"Quebradillas Municipio",
    "cities":[{
      "name":"Quebradillas",
      "latitude":18.47383,
      "longitude":-66.93851
    }]
  },{
    "name":"Rincon Municipio",
    "cities":[{
      "name":"Rincon",
      "latitude":18.34023,
      "longitude":-67.2499
    }]
  },{
    "name":"Rio Grande Municipio",
    "cities":[{
      "name":"Rio Grande",
      "latitude":18.38023,
      "longitude":-65.83127
    }]
  },{
    "name":"Sabana Grande Municipio",
    "cities":[{
      "name":"Sabana Grande",
      "latitude":18.07774,
      "longitude":-66.96045
    }]
  },{
    "name":"Salinas Municipio",
    "cities":[{
      "name":"Coco",
      "latitude":18.00719,
      "longitude":-66.25933
    },{
      "name":"Salinas",
      "latitude":17.97747,
      "longitude":-66.29795
    }]
  },{
    "name":"San German Municipio",
    "cities":[{
      "name":"San German",
      "latitude":18.08163,
      "longitude":-67.0449
    }]
  },{
    "name":"San Juan",
    "cities":[{
      "name":"San Juan",
      "latitude":18.46633,
      "longitude":-66.10572
    }]
  },{
    "name":"San Lorenzo Municipio",
    "cities":[{
      "name":"San Lorenzo",
      "latitude":18.1894,
      "longitude":-65.961
    }]
  },{
    "name":"San Sebastian Municipio",
    "cities":[{
      "name":"San Sebastian",
      "latitude":18.33662,
      "longitude":-66.99018
    }]
  },{
    "name":"Santa Isabel Municipio",
    "cities":[{
      "name":"Santa Isabel",
      "latitude":17.96608,
      "longitude":-66.40489
    }]
  },{
    "name":"Toa Alta Municipio",
    "cities":[{
      "name":"Pajaros",
      "latitude":18.36856,
      "longitude":-66.21683
    },{
      "name":"Toa Alta",
      "latitude":18.38828,
      "longitude":-66.24822
    }]
  },{
    "name":"Toa Baja Municipio",
    "cities":[{
      "name":"Campanilla",
      "latitude":18.42134,
      "longitude":-66.23683
    },{
      "name":"Candelaria",
      "latitude":18.40411,
      "longitude":-66.20878
    },{
      "name":"Candelaria Arenas",
      "latitude":18.41717,
      "longitude":-66.21739
    },{
      "name":"Ingenio",
      "latitude":18.44217,
      "longitude":-66.226
    },{
      "name":"Levittown",
      "latitude":18.44995,
      "longitude":-66.18156
    },{
      "name":"Sabana Seca",
      "latitude":18.42689,
      "longitude":-66.18461
    },{
      "name":"Toa Baja",
      "latitude":18.44384,
      "longitude":-66.25961
    }]
  },{
    "name":"Trujillo Alto Municipio",
    "cities":[{
      "name":"Trujillo Alto",
      "latitude":18.35467,
      "longitude":-66.00739
    }]
  },{
    "name":"Utuado Municipio",
    "cities":[{
      "name":"Utuado",
      "latitude":18.26551,
      "longitude":-66.70045
    }]
  },{
    "name":"Vega Alta Municipio",
    "cities":[{
      "name":"Ceiba",
      "latitude":18.44634,
      "longitude":-66.35073
    },{
      "name":"Vega Alta",
      "latitude":18.41217,
      "longitude":-66.33128
    }]
  },{
    "name":"Vega Baja Municipio",
    "cities":[{
      "name":"Vega Baja",
      "latitude":18.44439,
      "longitude":-66.38767
    }]
  },{
    "name":"Vieques Municipio",
    "cities":[{
      "name":"Isabel Segunda",
      "latitude":18.14913,
      "longitude":-65.44266
    }]
  },{
    "name":"Villalba Municipio",
    "cities":[{
      "name":"Villalba",
      "latitude":18.12718,
      "longitude":-66.49212
    }]
  },{
    "name":"Yabucoa Municipio",
    "cities":[{
      "name":"Yabucoa",
      "latitude":18.05052,
      "longitude":-65.87933
    }]
  },{
    "name":"Yauco Municipio",
    "cities":[{
      "name":"Yauco",
      "latitude":18.03496,
      "longitude":-66.8499
    }]
  }]
}
