{
  "name":"Saudi Arabia",
  "regions":[{
    "name":"Al Jawf",
    "cities":[{
      "name":"Al Qurayyat",
      "latitude":31.33176,
      "longitude":37.34282
    },{
      "name":"Sakaka",
      "latitude":29.96974,
      "longitude":40.20641
    },{
      "name":"Suwayr",
      "latitude":30.11713,
      "longitude":40.38925
    },{
      "name":"Tubarjal",
      "latitude":30.49987,
      "longitude":38.21603
    }]
  },{
    "name":"Al Mintaqah ash Sharqiyah",
    "cities":[{
      "name":"Abqaiq",
      "latitude":25.9371,
      "longitude":49.67761
    },{
      "name":"Al Awjam",
      "latitude":26.56324,
      "longitude":49.94331
    },{
      "name":"Al Battaliyah",
      "latitude":25.43333,
      "longitude":49.63333
    },{
      "name":"Al Hufuf",
      "latitude":25.36457,
      "longitude":49.56532
    },{
      "name":"Al Jafr",
      "latitude":25.37694,
      "longitude":49.72361
    },{
      "name":"Al Jubayl",
      "latitude":27.01122,
      "longitude":49.65826
    },{
      "name":"Al Jubayl",
      "latitude":25.4,
      "longitude":49.65
    },{
      "name":"Al Khafji",
      "latitude":28.43905,
      "longitude":48.49132
    },{
      "name":"Al Markaz",
      "latitude":25.4,
      "longitude":49.73333
    },{
      "name":"Al Mubarraz",
      "latitude":25.41,
      "longitude":49.58083
    },{
      "name":"Al Munayzilah",
      "latitude":25.38333,
      "longitude":49.66667
    },{
      "name":"Al Mutayrifi",
      "latitude":25.47879,
      "longitude":49.55763
    },{
      "name":"Al Qarah",
      "latitude":25.41667,
      "longitude":49.66667
    },{
      "name":"Al Qatif",
      "latitude":26.5208,
      "longitude":50.02452
    },{
      "name":"Al Qaysumah",
      "latitude":28.31117,
      "longitude":46.12729
    },{
      "name":"Al Qurayn",
      "latitude":25.48333,
      "longitude":49.6
    },{
      "name":"As Saffaniyah",
      "latitude":27.97083,
      "longitude":48.73
    },{
      "name":"At Taraf",
      "latitude":25.36276,
      "longitude":49.72504
    },{
      "name":"At Tubi",
      "latitude":26.55778,
      "longitude":49.99167
    },{
      "name":"Dammam",
      "latitude":26.43442,
      "longitude":50.10326
    },{
      "name":"Dhahran",
      "latitude":26.28864,
      "longitude":50.11396
    },{
      "name":"Julayjilah",
      "latitude":25.5,
      "longitude":49.6
    },{
      "name":"Khobar",
      "latitude":26.27944,
      "longitude":50.20833
    },{
      "name":"Mulayjah",
      "latitude":27.27103,
      "longitude":48.42419
    },{
      "name":"Rahimah",
      "latitude":26.70791,
      "longitude":50.06194
    },{
      "name":"Safwa",
      "latitude":26.64986,
      "longitude":49.95223
    },{
      "name":"Sayhat",
      "latitude":26.48522,
      "longitude":50.04046
    },{
      "name":"Tarut",
      "latitude":26.57332,
      "longitude":50.03694
    },{
      "name":"Umm as Sahik",
      "latitude":26.65361,
      "longitude":49.91639
    }]
  },{
    "name":"Al-Qassim Province",
    "cities":[{
      "name":"Al Bukayriyah",
      "latitude":26.14422,
      "longitude":43.65933
    },{
      "name":"Al Fuwayliq",
      "latitude":26.44322,
      "longitude":43.2534
    },{
      "name":"Al Mithnab",
      "latitude":25.86012,
      "longitude":44.22228
    },{
      "name":"Ar Rass",
      "latitude":25.86944,
      "longitude":43.4973
    },{
      "name":"Buraydah",
      "latitude":26.32599,
      "longitude":43.97497
    },{
      "name":"Tanumah",
      "latitude":27.1,
      "longitude":44.13333
    },{
      "name":"Unaizah",
      "latitude":26.08427,
      "longitude":43.99355
    }]
  },{
    "name":"Jizan Region",
    "cities":[{
      "name":"Abu `Arish",
      "latitude":16.96887,
      "longitude":42.83251
    },{
      "name":"Ad Darb",
      "latitude":17.72285,
      "longitude":42.25261
    },{
      "name":"Al Jaradiyah",
      "latitude":16.57946,
      "longitude":42.9124
    },{
      "name":"Farasan",
      "latitude":16.70222,
      "longitude":42.11833
    },{
      "name":"Jizan",
      "latitude":16.88917,
      "longitude":42.55111
    },{
      "name":"Misliyah",
      "latitude":17.45988,
      "longitude":42.5572
    },{
      "name":"Mizhirah",
      "latitude":16.82611,
      "longitude":42.73333
    },{
      "name":"Sabya",
      "latitude":17.1495,
      "longitude":42.62537
    },{
      "name":"Samitah",
      "latitude":16.59601,
      "longitude":42.94435
    }]
  },{
    "name":"Makkah Province",
    "cities":[{
      "name":"Al Hada",
      "latitude":21.36753,
      "longitude":40.28694
    },{
      "name":"Al Jumum",
      "latitude":21.61694,
      "longitude":39.69806
    },{
      "name":"Al Muwayh",
      "latitude":22.43333,
      "longitude":41.75829
    },{
      "name":"Ash Shafa",
      "latitude":21.0721,
      "longitude":40.31185
    },{
      "name":"Jeddah",
      "latitude":21.51694,
      "longitude":39.21917
    },{
      "name":"Mecca",
      "latitude":21.42667,
      "longitude":39.82611
    },{
      "name":"Rabigh",
      "latitude":22.79856,
      "longitude":39.03493
    },{
      "name":"Taif",
      "latitude":21.27028,
      "longitude":40.41583
    },{
      "name":"Turabah",
      "latitude":21.21406,
      "longitude":41.6331
    }]
  },{
    "name":"Mintaqat Hail",
    "cities":[{
      "name":"Hayil",
      "latitude":27.52188,
      "longitude":41.69073
    }]
  },{
    "name":"Mintaqat Najran",
    "cities":[{
      "name":"Najran",
      "latitude":17.4924,
      "longitude":44.12766
    }]
  },{
    "name":"Mintaqat Tabuk",
    "cities":[{
      "name":"Al Wajh",
      "latitude":26.24551,
      "longitude":36.45248
    },{
      "name":"Duba",
      "latitude":27.35134,
      "longitude":35.69014
    },{
      "name":"Tabuk",
      "latitude":28.38333,
      "longitude":36.58333
    },{
      "name":"Umm Lajj",
      "latitude":25.02126,
      "longitude":37.2685
    }]
  },{
    "name":"Mintaqat `Asir",
    "cities":[{
      "name":"Abha",
      "latitude":18.21639,
      "longitude":42.50528
    },{
      "name":"Al Majaridah",
      "latitude":19.12361,
      "longitude":41.91111
    },{
      "name":"An Nimas",
      "latitude":19.14547,
      "longitude":42.1201
    },{
      "name":"Khamis Mushait",
      "latitude":18.3,
      "longitude":42.73333
    },{
      "name":"Qal`at Bishah",
      "latitude":20.00054,
      "longitude":42.6052
    },{
      "name":"Tabalah",
      "latitude":19.95,
      "longitude":42.4
    }]
  },{
    "name":"Mintaqat al Bahah",
    "cities":[{
      "name":"Al Bahah",
      "latitude":20.01288,
      "longitude":41.46767
    },{
      "name":"Al Mindak",
      "latitude":20.1588,
      "longitude":41.28337
    }]
  },{
    "name":"Mintaqat al Hudud ash Shamaliyah",
    "cities":[{
      "name":"Arar",
      "latitude":30.97531,
      "longitude":41.03808
    },{
      "name":"Turayf",
      "latitude":31.67252,
      "longitude":38.66374
    }]
  },{
    "name":"Mintaqat al Madinah",
    "cities":[{
      "name":"Al Ula",
      "latitude":26.60853,
      "longitude":37.92316
    },{
      "name":"Badr Hunayn",
      "latitude":23.78292,
      "longitude":38.79047
    },{
      "name":"Medina",
      "latitude":24.46861,
      "longitude":39.61417
    },{
      "name":"Sultanah",
      "latitude":24.49258,
      "longitude":39.58572
    },{
      "name":"Yanbu` al Bahr",
      "latitude":24.08912,
      "longitude":38.06374
    }]
  },{
    "name":"Mintaqat ar Riyad",
    "cities":[{
      "name":"Ad Dawadimi",
      "latitude":24.50772,
      "longitude":44.39237
    },{
      "name":"Ad Dilam",
      "latitude":23.99146,
      "longitude":47.16266
    },{
      "name":"Al Artawiyah",
      "latitude":26.50526,
      "longitude":45.34437
    },{
      "name":"As Sulayyil",
      "latitude":20.46067,
      "longitude":45.57792
    },{
      "name":"Az Zulfi",
      "latitude":26.29945,
      "longitude":44.81542
    },{
      "name":"Marat",
      "latitude":25.07007,
      "longitude":45.46147
    },{
      "name":"Riyadh",
      "latitude":24.68773,
      "longitude":46.72185
    },{
      "name":"Sajir",
      "latitude":25.18251,
      "longitude":44.59964
    },{
      "name":"Tumayr",
      "latitude":25.70393,
      "longitude":45.86796
    },{
      "name":"`Afif",
      "latitude":23.9065,
      "longitude":42.91724
    }]
  }]
}
