{
  "name":"Sudan",
  "regions":[{
    "name":"Al Jazirah State",
    "cities":[{
      "name":"Al Hasaheisa",
      "latitude":14.75264,
      "longitude":33.29836
    },{
      "name":"Al Hilaliyya",
      "latitude":14.9398,
      "longitude":33.234
    },{
      "name":"Al Kiremit al `Arakiyyin",
      "latitude":14.3476,
      "longitude":32.9437
    },{
      "name":"Al Manaqil",
      "latitude":14.2459,
      "longitude":32.9891
    },{
      "name":"Al Masallamiyya",
      "latitude":14.5748,
      "longitude":33.3373
    },{
      "name":"Wad Medani",
      "latitude":14.40118,
      "longitude":33.51989
    },{
      "name":"Wad Rawah",
      "latitude":15.16028,
      "longitude":33.13972
    }]
  },{
    "name":"Al Qadarif State",
    "cities":[{
      "name":"Al Hawatah",
      "latitude":13.41667,
      "longitude":34.63333
    },{
      "name":"Al Qadarif",
      "latitude":14.03493,
      "longitude":35.38344
    },{
      "name":"Doka",
      "latitude":13.51667,
      "longitude":35.76667
    }]
  },{
    "name":"Blue Nile",
    "cities":[{
      "name":"Ad-Damazin",
      "latitude":11.7891,
      "longitude":34.3592
    },{
      "name":"Ar Ruseris",
      "latitude":11.8659,
      "longitude":34.3869
    },{
      "name":"Kurmuk",
      "latitude":10.55,
      "longitude":34.28333
    }]
  },{
    "name":"Central Darfur State",
    "cities":[{
      "name":"Zalingei",
      "latitude":12.9096,
      "longitude":23.47406
    }]
  },{
    "name":"Eastern Darfur State",
    "cities":[{
      "name":"El Daein",
      "latitude":11.46186,
      "longitude":26.12583
    }]
  },{
    "name":"Kassala State",
    "cities":[{
      "name":"Aroma",
      "latitude":15.81667,
      "longitude":36.13333
    },{
      "name":"Kassala",
      "latitude":15.45099,
      "longitude":36.39998
    },{
      "name":"Wagar",
      "latitude":16.1525,
      "longitude":36.2032
    }]
  },{
    "name":"Khartoum",
    "cities":[{
      "name":"Khartoum",
      "latitude":15.55177,
      "longitude":32.53241
    },{
      "name":"Omdurman",
      "latitude":15.64453,
      "longitude":32.47773
    }]
  },{
    "name":"Northern",
    "cities":[{
      "name":"Ad Dabbah",
      "latitude":18.05,
      "longitude":30.95
    },{
      "name":"Argo",
      "latitude":19.51667,
      "longitude":30.41667
    },{
      "name":"Dongola",
      "latitude":19.16667,
      "longitude":30.48333
    },{
      "name":"Kuraymah",
      "latitude":18.55,
      "longitude":31.85
    },{
      "name":"Marawi",
      "latitude":18.48333,
      "longitude":31.81667
    }]
  },{
    "name":"Northern Darfur",
    "cities":[{
      "name":"El Fasher",
      "latitude":13.62793,
      "longitude":25.34936
    },{
      "name":"Kutum",
      "latitude":14.2,
      "longitude":24.66667
    },{
      "name":"Umm Kaddadah",
      "latitude":13.60169,
      "longitude":26.68759
    }]
  },{
    "name":"Northern Kordofan",
    "cities":[{
      "name":"Abu Zabad",
      "latitude":12.35,
      "longitude":29.25
    },{
      "name":"An Nuhud",
      "latitude":12.7,
      "longitude":28.43333
    },{
      "name":"Ar Rahad",
      "latitude":12.71667,
      "longitude":30.65
    },{
      "name":"Barah",
      "latitude":13.7,
      "longitude":30.36667
    },{
      "name":"El Obeid",
      "latitude":13.18421,
      "longitude":30.21669
    },{
      "name":"Umm Ruwaba",
      "latitude":12.9061,
      "longitude":31.2158
    }]
  },{
    "name":"Red Sea",
    "cities":[{
      "name":"Gebeit",
      "latitude":21.06667,
      "longitude":36.31667
    },{
      "name":"Port Sudan",
      "latitude":19.61745,
      "longitude":37.21644
    },{
      "name":"Sawakin",
      "latitude":19.1059,
      "longitude":37.3321
    },{
      "name":"Tokar",
      "latitude":18.4254,
      "longitude":37.729
    }]
  },{
    "name":"River Nile",
    "cities":[{
      "name":"Atbara",
      "latitude":17.70217,
      "longitude":33.98638
    },{
      "name":"Berber",
      "latitude":18.02158,
      "longitude":33.98299
    },{
      "name":"Ed Damer",
      "latitude":17.59278,
      "longitude":33.95917
    },{
      "name":"El Bauga",
      "latitude":18.26196,
      "longitude":33.90812
    },{
      "name":"El Matama",
      "latitude":16.7095,
      "longitude":33.3565
    },{
      "name":"Shendi",
      "latitude":16.6915,
      "longitude":33.4341
    }]
  },{
    "name":"Sinnar State",
    "cities":[{
      "name":"Ad Dindar",
      "latitude":13.2,
      "longitude":34.16667
    },{
      "name":"As Suki",
      "latitude":13.31667,
      "longitude":33.88333
    },{
      "name":"Jalqani",
      "latitude":12.4486,
      "longitude":34.2186
    },{
      "name":"Kinana",
      "latitude":14.0361,
      "longitude":33.1712
    },{
      "name":"Maiurno",
      "latitude":13.41667,
      "longitude":33.66667
    },{
      "name":"Sinja",
      "latitude":13.15,
      "longitude":33.93333
    },{
      "name":"Sinnar",
      "latitude":13.56907,
      "longitude":33.56718
    }]
  },{
    "name":"Southern Darfur",
    "cities":[{
      "name":"Nyala",
      "latitude":12.05,
      "longitude":24.88333
    }]
  },{
    "name":"Southern Kordofan",
    "cities":[{
      "name":"Abu Jibeha",
      "latitude":11.4562,
      "longitude":31.2285
    },{
      "name":"Al Fulah",
      "latitude":11.73292,
      "longitude":28.35786
    },{
      "name":"Al Lagowa",
      "latitude":11.4,
      "longitude":29.13333
    },{
      "name":"Al Mijlad",
      "latitude":11.03333,
      "longitude":27.73333
    },{
      "name":"Dilling",
      "latitude":12.05,
      "longitude":29.65
    },{
      "name":"Kadugli",
      "latitude":11.01667,
      "longitude":29.71667
    },{
      "name":"Talodi",
      "latitude":10.63246,
      "longitude":30.3797
    }]
  },{
    "name":"Western Darfur",
    "cities":[{
      "name":"Geneina",
      "latitude":13.45262,
      "longitude":22.44725
    }]
  },{
    "name":"White Nile",
    "cities":[{
      "name":"Ad Douiem",
      "latitude":14.0012,
      "longitude":32.3116
    },{
      "name":"Al Kawa",
      "latitude":13.7463,
      "longitude":32.4996
    },{
      "name":"Al Qitena",
      "latitude":14.8648,
      "longitude":32.3668
    },{
      "name":"Kosti",
      "latitude":13.1629,
      "longitude":32.66347
    },{
      "name":"Marabba",
      "latitude":12.35,
      "longitude":32.18333
    },{
      "name":"Rabak",
      "latitude":13.18087,
      "longitude":32.73999
    },{
      "name":"Tandalti",
      "latitude":13.01667,
      "longitude":31.86667
    },{
      "name":"Um Jar Al Gharbiyya",
      "latitude":13.8013,
      "longitude":32.4078
    },{
      "name":"Wad az Zaki",
      "latitude":14.4619,
      "longitude":32.2065
    }]
  }]
}
