{
  "name":"Sierra Leone",
  "regions":[{
    "name":"Eastern Province",
    "cities":[{
      "name":"Barma",
      "latitude":8.35,
      "longitude":-11.33333
    },{
      "name":"Blama",
      "latitude":7.87361,
      "longitude":-11.34333
    },{
      "name":"Boajibu",
      "latitude":8.18333,
      "longitude":-11.33333
    },{
      "name":"Bunumbu",
      "latitude":8.16667,
      "longitude":-10.86667
    },{
      "name":"Bwedu",
      "latitude":8.28028,
      "longitude":-10.37194
    },{
      "name":"Daru",
      "latitude":7.99194,
      "longitude":-10.84056
    },{
      "name":"Hangha",
      "latitude":7.94111,
      "longitude":-11.14
    },{
      "name":"Kailahun",
      "latitude":8.28333,
      "longitude":-10.56667
    },{
      "name":"Kenema",
      "latitude":7.87667,
      "longitude":-11.1875
    },{
      "name":"Koidu",
      "latitude":8.63333,
      "longitude":-10.98333
    },{
      "name":"Motema",
      "latitude":8.6,
      "longitude":-11.03333
    },{
      "name":"Panguma",
      "latitude":8.18333,
      "longitude":-11.13333
    },{
      "name":"Pendembu",
      "latitude":8.1,
      "longitude":-10.7
    },{
      "name":"Segbwema",
      "latitude":8.0,
      "longitude":-10.95
    },{
      "name":"Tombodu",
      "latitude":8.13333,
      "longitude":-10.61667
    },{
      "name":"Yengema",
      "latitude":8.71667,
      "longitude":-11.16667
    }]
  },{
    "name":"Northern Province",
    "cities":[{
      "name":"Binkolo",
      "latitude":8.95,
      "longitude":-11.98333
    },{
      "name":"Kabala",
      "latitude":9.58333,
      "longitude":-11.55
    },{
      "name":"Kamakwie",
      "latitude":9.49689,
      "longitude":-12.24061
    },{
      "name":"Kambia",
      "latitude":9.11667,
      "longitude":-12.91667
    },{
      "name":"Kassiri",
      "latitude":8.93722,
      "longitude":-13.12444
    },{
      "name":"Kukuna",
      "latitude":9.4,
      "longitude":-12.66667
    },{
      "name":"Lunsar",
      "latitude":8.68333,
      "longitude":-12.53333
    },{
      "name":"Magburaka",
      "latitude":8.71667,
      "longitude":-11.95
    },{
      "name":"Makeni",
      "latitude":8.88333,
      "longitude":-12.05
    },{
      "name":"Mambolo",
      "latitude":8.92306,
      "longitude":-13.04444
    },{
      "name":"Masingbi",
      "latitude":8.78333,
      "longitude":-11.95
    },{
      "name":"Port Loko",
      "latitude":8.76667,
      "longitude":-12.78333
    },{
      "name":"Rokupr",
      "latitude":8.67167,
      "longitude":-12.395
    },{
      "name":"Tintafor",
      "latitude":8.62667,
      "longitude":-13.215
    }]
  },{
    "name":"Southern Province",
    "cities":[{
      "name":"Baoma",
      "latitude":8.0,
      "longitude":-11.71667
    },{
      "name":"Bo",
      "latitude":7.96472,
      "longitude":-11.73833
    },{
      "name":"Bomi",
      "latitude":7.24611,
      "longitude":-11.52583
    },{
      "name":"Bonthe",
      "latitude":7.52639,
      "longitude":-12.505
    },{
      "name":"Bumpe",
      "latitude":7.89194,
      "longitude":-11.9025
    },{
      "name":"Foindu",
      "latitude":7.41083,
      "longitude":-11.54222
    },{
      "name":"Gandorhun",
      "latitude":7.55639,
      "longitude":-11.6925
    },{
      "name":"Gandorhun",
      "latitude":7.5,
      "longitude":-11.83333
    },{
      "name":"Mamboma",
      "latitude":8.08333,
      "longitude":-11.68333
    },{
      "name":"Moyamba",
      "latitude":8.16667,
      "longitude":-12.43333
    },{
      "name":"Pujehun",
      "latitude":7.35806,
      "longitude":-11.72083
    },{
      "name":"Sumbuya",
      "latitude":7.64667,
      "longitude":-11.96111
    }]
  },{
    "name":"Western Area",
    "cities":[{
      "name":"Freetown",
      "latitude":8.43194,
      "longitude":-13.28972
    },{
      "name":"Freetown",
      "latitude":8.484,
      "longitude":-13.22994
    },{
      "name":"Hastings",
      "latitude":8.37972,
      "longitude":-13.13861
    },{
      "name":"Waterloo",
      "latitude":8.33833,
      "longitude":-13.07194
    }]
  }]
}
