{
  "name":"Senegal",
  "regions":[{
    "name":"Dakar",
    "cities":[{
      "name":"Dakar",
      "latitude":14.6937,
      "longitude":-17.44406
    },{
      "name":"Grand Dakar",
      "latitude":14.71331,
      "longitude":-17.45472
    },{
      "name":"Mermoz Boabab",
      "latitude":14.70649,
      "longitude":-17.47581
    },{
      "name":"Pikine",
      "latitude":14.76457,
      "longitude":-17.39071
    }]
  },{
    "name":"Diourbel",
    "cities":[{
      "name":"Diourbel",
      "latitude":14.66278,
      "longitude":-16.3925
    },{
      "name":"Mbake",
      "latitude":14.79032,
      "longitude":-15.90803
    },{
      "name":"Tiebo",
      "latitude":14.63333,
      "longitude":-16.23333
    },{
      "name":"Touba",
      "latitude":14.85,
      "longitude":-15.88333
    }]
  },{
    "name":"Fatick",
    "cities":[{
      "name":"Diofior",
      "latitude":14.18333,
      "longitude":-16.66667
    },{
      "name":"Fatick",
      "latitude":14.35806,
      "longitude":-16.58583
    },{
      "name":"Foundiougne",
      "latitude":14.13333,
      "longitude":-16.46667
    },{
      "name":"Guinguineo",
      "latitude":14.26667,
      "longitude":-15.95
    },{
      "name":"Passi",
      "latitude":13.98333,
      "longitude":-16.26667
    },{
      "name":"Pourham",
      "latitude":14.35,
      "longitude":-16.41667
    },{
      "name":"Sokone",
      "latitude":13.88333,
      "longitude":-16.36667
    }]
  },{
    "name":"Kaolack",
    "cities":[{
      "name":"Gandiaye",
      "latitude":14.23333,
      "longitude":-16.26667
    },{
      "name":"Kaolack",
      "latitude":14.1825,
      "longitude":-16.25333
    },{
      "name":"Ndofane",
      "latitude":13.91667,
      "longitude":-15.93333
    },{
      "name":"Nioro du Rip",
      "latitude":13.75,
      "longitude":-15.8
    }]
  },{
    "name":"Kolda",
    "cities":[{
      "name":"Kolda",
      "latitude":12.88333,
      "longitude":-14.95
    },{
      "name":"Marsassoum",
      "latitude":12.8275,
      "longitude":-15.98056
    },{
      "name":"Velingara",
      "latitude":13.15,
      "longitude":-14.11667
    }]
  },{
    "name":"Louga",
    "cities":[{
      "name":"Dara",
      "latitude":15.34844,
      "longitude":-15.47993
    },{
      "name":"Gueoul",
      "latitude":15.48333,
      "longitude":-16.35
    },{
      "name":"Louga",
      "latitude":15.61867,
      "longitude":-16.22436
    },{
      "name":"Ndibene Dahra",
      "latitude":15.3338,
      "longitude":-15.4766
    }]
  },{
    "name":"Matam",
    "cities":[{
      "name":"Diawara",
      "latitude":15.02196,
      "longitude":-12.54374
    },{
      "name":"Kanel",
      "latitude":15.4916,
      "longitude":-13.17627
    },{
      "name":"Matam",
      "latitude":15.65587,
      "longitude":-13.25544
    },{
      "name":"Ouro Sogui",
      "latitude":15.60588,
      "longitude":-13.3223
    },{
      "name":"Seme",
      "latitude":15.19422,
      "longitude":-12.94482
    },{
      "name":"Waounde",
      "latitude":15.26367,
      "longitude":-12.86821
    }]
  },{
    "name":"Region de Kaffrine",
    "cities":[{
      "name":"Kaffrine",
      "latitude":14.10594,
      "longitude":-15.5508
    },{
      "name":"Koungheul",
      "latitude":13.98333,
      "longitude":-14.8
    }]
  },{
    "name":"Region de Kedougou",
    "cities":[{
      "name":"Kedougou",
      "latitude":12.5579,
      "longitude":-12.1743
    }]
  },{
    "name":"Region de Sedhiou",
    "cities":[{
      "name":"Sedhiou",
      "latitude":12.70806,
      "longitude":-15.55694
    }]
  },{
    "name":"Region de Thies",
    "cities":[{
      "name":"Joal-Fadiout",
      "latitude":14.16667,
      "longitude":-16.83333
    },{
      "name":"Kayar",
      "latitude":14.91893,
      "longitude":-17.11978
    },{
      "name":"Khombole",
      "latitude":14.76667,
      "longitude":-16.7
    },{
      "name":"Mekhe",
      "latitude":15.1097,
      "longitude":-16.6218
    },{
      "name":"Nguekhokh",
      "latitude":14.51255,
      "longitude":-17.00447
    },{
      "name":"Pout",
      "latitude":14.77099,
      "longitude":-17.06107
    },{
      "name":"Thies",
      "latitude":14.83417,
      "longitude":-17.10611
    },{
      "name":"Thies Nones",
      "latitude":14.78333,
      "longitude":-16.96667
    },{
      "name":"Tiadiaye",
      "latitude":14.41667,
      "longitude":-16.7
    }]
  },{
    "name":"Saint-Louis",
    "cities":[{
      "name":"Golere",
      "latitude":16.25574,
      "longitude":-14.10165
    },{
      "name":"Ndioum",
      "latitude":16.51293,
      "longitude":-14.64706
    },{
      "name":"Richard-Toll",
      "latitude":16.4625,
      "longitude":-15.70083
    },{
      "name":"Rosso",
      "latitude":16.42028,
      "longitude":-15.79834
    },{
      "name":"Saint-Louis",
      "latitude":16.01793,
      "longitude":-16.48962
    }]
  },{
    "name":"Tambacounda",
    "cities":[{
      "name":"Tambacounda",
      "latitude":13.77073,
      "longitude":-13.66734
    }]
  },{
    "name":"Ziguinchor",
    "cities":[{
      "name":"Bignona",
      "latitude":12.81028,
      "longitude":-16.22639
    },{
      "name":"Tionk Essil",
      "latitude":12.78556,
      "longitude":-16.52167
    },{
      "name":"Ziguinchor",
      "latitude":12.58333,
      "longitude":-16.27194
    }]
  }]
}
