{
  "name":"Thailand",
  "regions":[{
    "name":"Bangkok",
    "cities":[{
      "name":"Bangkok",
      "latitude":13.75398,
      "longitude":100.50144
    }]
  },{
    "name":"Changwat Amnat Charoen",
    "cities":[{
      "name":"Amnat Charoen",
      "latitude":15.85851,
      "longitude":104.62883
    }]
  },{
    "name":"Changwat Ang Thong",
    "cities":[{
      "name":"Ang Thong",
      "latitude":14.58839,
      "longitude":100.45283
    },{
      "name":"Ban Thai Tan",
      "latitude":14.62161,
      "longitude":100.48739
    },{
      "name":"Chaiyo",
      "latitude":14.67639,
      "longitude":100.46861
    },{
      "name":"Pho Thong",
      "latitude":14.66731,
      "longitude":100.40878
    },{
      "name":"Wiset Chaichan",
      "latitude":14.5945,
      "longitude":100.33825
    }]
  },{
    "name":"Changwat Bueng Kan",
    "cities":[{
      "name":"Bueng Kan",
      "latitude":18.36304,
      "longitude":103.65194
    },{
      "name":"Seka",
      "latitude":17.92851,
      "longitude":103.95519
    }]
  },{
    "name":"Changwat Buriram",
    "cities":[{
      "name":"Buriram",
      "latitude":14.99433,
      "longitude":103.10392
    },{
      "name":"Nang Rong",
      "latitude":14.6377,
      "longitude":102.79138
    },{
      "name":"Nong Ki",
      "latitude":14.68679,
      "longitude":102.538
    },{
      "name":"Prakhon Chai",
      "latitude":14.60592,
      "longitude":103.12081
    },{
      "name":"Satuek",
      "latitude":15.29703,
      "longitude":103.29192
    }]
  },{
    "name":"Changwat Chachoengsao",
    "cities":[{
      "name":"Bang Khla",
      "latitude":13.72144,
      "longitude":101.20814
    },{
      "name":"Bang Nam Priao",
      "latitude":13.84739,
      "longitude":101.05306
    },{
      "name":"Bang Pakong",
      "latitude":13.54297,
      "longitude":100.99333
    },{
      "name":"Chachoengsao",
      "latitude":13.6882,
      "longitude":101.07156
    },{
      "name":"Phanom Sarakham",
      "latitude":13.74787,
      "longitude":101.3553
    }]
  },{
    "name":"Changwat Chai Nat",
    "cities":[{
      "name":"Chai Nat",
      "latitude":15.18636,
      "longitude":100.12353
    }]
  },{
    "name":"Changwat Chaiyaphum",
    "cities":[{
      "name":"Bamnet Narong",
      "latitude":15.50189,
      "longitude":101.68982
    },{
      "name":"Chaiyaphum",
      "latitude":15.81047,
      "longitude":102.02881
    },{
      "name":"Kaeng Khro",
      "latitude":16.10864,
      "longitude":102.25808
    },{
      "name":"Kaset Sombun",
      "latitude":16.28053,
      "longitude":101.95422
    },{
      "name":"Phu Khiao",
      "latitude":16.3765,
      "longitude":102.12853
    }]
  },{
    "name":"Changwat Chanthaburi",
    "cities":[{
      "name":"Chanthaburi",
      "latitude":12.60961,
      "longitude":102.10447
    },{
      "name":"Khlung",
      "latitude":12.45467,
      "longitude":102.22142
    },{
      "name":"Laem Sing",
      "latitude":12.48164,
      "longitude":102.07375
    },{
      "name":"Pong Nam Ron",
      "latitude":12.90575,
      "longitude":102.26225
    },{
      "name":"Tha Mai",
      "latitude":12.62137,
      "longitude":102.0048
    }]
  },{
    "name":"Changwat Chiang Rai",
    "cities":[{
      "name":"Chiang Khong",
      "latitude":20.26125,
      "longitude":100.40461
    },{
      "name":"Chiang Rai",
      "latitude":19.90858,
      "longitude":99.8325
    },{
      "name":"Mae Chan",
      "latitude":20.14675,
      "longitude":99.85256
    },{
      "name":"Mae Sai",
      "latitude":20.43353,
      "longitude":99.87617
    },{
      "name":"Pa Daet",
      "latitude":19.50489,
      "longitude":99.99242
    }]
  },{
    "name":"Changwat Chon Buri",
    "cities":[{
      "name":"Ban Bueng",
      "latitude":13.311,
      "longitude":101.11214
    },{
      "name":"Ban Talat Bueng",
      "latitude":13.07147,
      "longitude":101.00314
    },{
      "name":"Bang Lamung",
      "latitude":13.04704,
      "longitude":100.92891
    },{
      "name":"Chon Buri",
      "latitude":13.3622,
      "longitude":100.98345
    },{
      "name":"Phan Thong",
      "latitude":13.46804,
      "longitude":101.09532
    },{
      "name":"Phanat Nikhom",
      "latitude":13.44581,
      "longitude":101.18445
    },{
      "name":"Phatthaya",
      "latitude":12.93333,
      "longitude":100.88333
    },{
      "name":"Sattahip",
      "latitude":12.66644,
      "longitude":100.90073
    },{
      "name":"Si Racha",
      "latitude":13.17372,
      "longitude":100.93111
    }]
  },{
    "name":"Changwat Chumphon",
    "cities":[{
      "name":"Ban Nam Yuen",
      "latitude":9.87686,
      "longitude":98.86592
    },{
      "name":"Chumphon",
      "latitude":10.4957,
      "longitude":99.17971
    },{
      "name":"Lang Suan",
      "latitude":9.94561,
      "longitude":99.07847
    }]
  },{
    "name":"Changwat Kalasin",
    "cities":[{
      "name":"Huai Mek",
      "latitude":16.58975,
      "longitude":103.23547
    },{
      "name":"Kalasin",
      "latitude":16.43281,
      "longitude":103.50658
    },{
      "name":"Kamalasai",
      "latitude":16.33839,
      "longitude":103.57564
    },{
      "name":"Khao Wong",
      "latitude":16.70008,
      "longitude":104.0902
    },{
      "name":"Kuchinarai",
      "latitude":16.541,
      "longitude":104.05004
    },{
      "name":"Nong Kung Si",
      "latitude":16.65,
      "longitude":103.3
    },{
      "name":"Yang Talat",
      "latitude":16.39982,
      "longitude":103.36785
    }]
  },{
    "name":"Changwat Kamphaeng Phet",
    "cities":[{
      "name":"Kamphaeng Phet",
      "latitude":16.48344,
      "longitude":99.52153
    },{
      "name":"Khanu Woralaksaburi",
      "latitude":16.0617,
      "longitude":99.86058
    },{
      "name":"Lan Krabue",
      "latitude":16.60003,
      "longitude":99.84889
    }]
  },{
    "name":"Changwat Kanchanaburi",
    "cities":[{
      "name":"Bo Phloi",
      "latitude":14.32517,
      "longitude":99.51467
    },{
      "name":"Kanchanaburi",
      "latitude":14.00412,
      "longitude":99.54832
    },{
      "name":"Phanom Thuan",
      "latitude":14.13031,
      "longitude":99.69858
    },{
      "name":"Sangkhla Buri",
      "latitude":15.15553,
      "longitude":98.45361
    },{
      "name":"Tha Maka",
      "latitude":13.9,
      "longitude":99.76667
    },{
      "name":"Tha Muang",
      "latitude":13.96118,
      "longitude":99.64122
    }]
  },{
    "name":"Changwat Khon Kaen",
    "cities":[{
      "name":"Ban Phai",
      "latitude":16.05997,
      "longitude":102.73097
    },{
      "name":"Chum Phae",
      "latitude":16.5443,
      "longitude":102.09924
    },{
      "name":"Khon Kaen",
      "latitude":16.44671,
      "longitude":102.833
    },{
      "name":"Kranuan",
      "latitude":16.70672,
      "longitude":103.07878
    },{
      "name":"Phon",
      "latitude":15.816,
      "longitude":102.59981
    }]
  },{
    "name":"Changwat Krabi",
    "cities":[{
      "name":"Ao Luek",
      "latitude":8.37803,
      "longitude":98.72117
    },{
      "name":"Ko Lanta",
      "latitude":7.53362,
      "longitude":99.08647
    },{
      "name":"Krabi",
      "latitude":8.07257,
      "longitude":98.91052
    },{
      "name":"Nuea Khlong",
      "latitude":8.07144,
      "longitude":98.99933
    },{
      "name":"Saladan",
      "latitude":7.61342,
      "longitude":99.03651
    }]
  },{
    "name":"Changwat Lampang",
    "cities":[{
      "name":"Lampang",
      "latitude":18.29232,
      "longitude":99.49277
    },{
      "name":"Thoen",
      "latitude":17.61289,
      "longitude":99.21612
    }]
  },{
    "name":"Changwat Lamphun",
    "cities":[{
      "name":"Lamphun",
      "latitude":18.58054,
      "longitude":99.00745
    },{
      "name":"Mae Tha",
      "latitude":18.46456,
      "longitude":99.14026
    },{
      "name":"Pa Sang",
      "latitude":18.52617,
      "longitude":98.93936
    }]
  },{
    "name":"Changwat Loei",
    "cities":[{
      "name":"Loei",
      "latitude":17.49052,
      "longitude":101.72749
    },{
      "name":"Phu Kradueng",
      "latitude":16.88425,
      "longitude":101.88467
    },{
      "name":"Wang Saphung",
      "latitude":17.30097,
      "longitude":101.7685
    }]
  },{
    "name":"Changwat Lop Buri",
    "cities":[{
      "name":"Chai Badan",
      "latitude":15.2,
      "longitude":101.13333
    },{
      "name":"Lop Buri",
      "latitude":14.79808,
      "longitude":100.65397
    }]
  },{
    "name":"Changwat Mae Hong Son",
    "cities":[{
      "name":"Mae Hong Son",
      "latitude":19.30029,
      "longitude":97.96852
    },{
      "name":"Pa Pae",
      "latitude":18.2569,
      "longitude":98.04903
    }]
  },{
    "name":"Changwat Maha Sarakham",
    "cities":[{
      "name":"Kosum Phisai",
      "latitude":16.24858,
      "longitude":103.06739
    },{
      "name":"Maha Sarakham",
      "latitude":16.18483,
      "longitude":103.30067
    },{
      "name":"Phayakkhaphum Phisai",
      "latitude":15.51631,
      "longitude":103.19367
    },{
      "name":"Wapi Pathum",
      "latitude":15.84523,
      "longitude":103.37678
    }]
  },{
    "name":"Changwat Mukdahan",
    "cities":[{
      "name":"Mukdahan",
      "latitude":16.54531,
      "longitude":104.72351
    }]
  },{
    "name":"Changwat Nakhon Nayok",
    "cities":[{
      "name":"Nakhon Nayok",
      "latitude":14.20463,
      "longitude":101.21295
    }]
  },{
    "name":"Changwat Nakhon Pathom",
    "cities":[{
      "name":"Bang Len",
      "latitude":14.02188,
      "longitude":100.17183
    },{
      "name":"Nakhon Pathom",
      "latitude":13.8196,
      "longitude":100.04427
    },{
      "name":"Sam Phran",
      "latitude":13.72698,
      "longitude":100.21526
    }]
  },{
    "name":"Changwat Nakhon Phanom",
    "cities":[{
      "name":"Na Wa",
      "latitude":17.4897,
      "longitude":104.10056
    },{
      "name":"Nakhon Phanom",
      "latitude":17.41081,
      "longitude":104.77856
    },{
      "name":"That Phanom",
      "latitude":16.93636,
      "longitude":104.71039
    }]
  },{
    "name":"Changwat Nakhon Ratchasima",
    "cities":[{
      "name":"Amphoe Sikhiu",
      "latitude":14.89944,
      "longitude":101.70833
    },{
      "name":"Ban Huai Thalaeng",
      "latitude":14.98333,
      "longitude":102.65
    },{
      "name":"Bua Yai",
      "latitude":15.58552,
      "longitude":102.42587
    },{
      "name":"Chok Chai",
      "latitude":14.72844,
      "longitude":102.16524
    },{
      "name":"Dan Khun Thot",
      "latitude":15.2085,
      "longitude":101.77138
    },{
      "name":"Kham Sakae Saeng",
      "latitude":15.33221,
      "longitude":102.17278
    },{
      "name":"Khon Buri",
      "latitude":14.52541,
      "longitude":102.24591
    },{
      "name":"Nakhon Ratchasima",
      "latitude":14.97066,
      "longitude":102.10196
    },{
      "name":"Non Sung",
      "latitude":15.18014,
      "longitude":102.25694
    },{
      "name":"Non Thai",
      "latitude":15.1958,
      "longitude":102.07145
    },{
      "name":"Pak Chong",
      "latitude":14.70802,
      "longitude":101.41614
    },{
      "name":"Phimai",
      "latitude":15.22324,
      "longitude":102.49472
    },{
      "name":"Soeng Sang",
      "latitude":14.42642,
      "longitude":102.46058
    },{
      "name":"Sung Noen",
      "latitude":14.8992,
      "longitude":101.82075
    }]
  },{
    "name":"Changwat Nakhon Sawan",
    "cities":[{
      "name":"Lat Yao",
      "latitude":15.751,
      "longitude":99.78925
    },{
      "name":"Nakhon Sawan",
      "latitude":15.70472,
      "longitude":100.13717
    },{
      "name":"Nong Bua",
      "latitude":15.86458,
      "longitude":100.58581
    },{
      "name":"Phai Sali",
      "latitude":15.60002,
      "longitude":100.64937
    },{
      "name":"Phayuha Khiri",
      "latitude":15.45525,
      "longitude":100.13533
    }]
  },{
    "name":"Changwat Nakhon Si Thammarat",
    "cities":[{
      "name":"Chawang",
      "latitude":8.42614,
      "longitude":99.50472
    },{
      "name":"Ko Pha Ngan",
      "latitude":9.75778,
      "longitude":100.02914
    },{
      "name":"Nakhon Si Thammarat",
      "latitude":8.43333,
      "longitude":99.96667
    },{
      "name":"Pak Phanang",
      "latitude":8.35109,
      "longitude":100.20195
    },{
      "name":"Ron Phibun",
      "latitude":8.17911,
      "longitude":99.85425
    },{
      "name":"Tham Phannara",
      "latitude":8.42044,
      "longitude":99.39517
    },{
      "name":"Thung Song",
      "latitude":8.16453,
      "longitude":99.68039
    }]
  },{
    "name":"Changwat Nan",
    "cities":[{
      "name":"Chiang Klang",
      "latitude":19.29378,
      "longitude":100.8617
    },{
      "name":"Nan",
      "latitude":18.78378,
      "longitude":100.77899
    }]
  },{
    "name":"Changwat Narathiwat",
    "cities":[{
      "name":"Ban Su-ngai Pa Di",
      "latitude":6.07239,
      "longitude":101.87172
    },{
      "name":"Narathiwat",
      "latitude":6.42639,
      "longitude":101.82308
    },{
      "name":"Ra-ngae",
      "latitude":6.29678,
      "longitude":101.72844
    },{
      "name":"Su-ngai Kolok",
      "latitude":6.02977,
      "longitude":101.96586
    },{
      "name":"Tak Bai",
      "latitude":6.25947,
      "longitude":102.05461
    }]
  },{
    "name":"Changwat Nong Bua Lamphu",
    "cities":[{
      "name":"Na Klang",
      "latitude":17.3072,
      "longitude":102.18886
    },{
      "name":"Non Sang",
      "latitude":16.8687,
      "longitude":102.56642
    },{
      "name":"Nong Bua Lamphu",
      "latitude":17.20406,
      "longitude":102.44068
    },{
      "name":"Si Bun Rueang",
      "latitude":16.96705,
      "longitude":102.27607
    }]
  },{
    "name":"Changwat Nong Khai",
    "cities":[{
      "name":"Nong Khai",
      "latitude":17.87847,
      "longitude":102.742
    },{
      "name":"Phon Charoen",
      "latitude":18.03333,
      "longitude":103.16667
    },{
      "name":"Si Chiang Mai",
      "latitude":17.95639,
      "longitude":102.58667
    },{
      "name":"Tha Bo",
      "latitude":17.85003,
      "longitude":102.58139
    }]
  },{
    "name":"Changwat Nonthaburi",
    "cities":[{
      "name":"Bang Bua Thong",
      "latitude":13.91783,
      "longitude":100.42403
    },{
      "name":"Bang Kruai",
      "latitude":13.805,
      "longitude":100.47283
    },{
      "name":"Bang Yai",
      "latitude":13.84341,
      "longitude":100.36251
    },{
      "name":"Mueang Nonthaburi",
      "latitude":13.86075,
      "longitude":100.51477
    },{
      "name":"Pak Kret",
      "latitude":13.91301,
      "longitude":100.49883
    }]
  },{
    "name":"Changwat Pathum Thani",
    "cities":[{
      "name":"Ban Lam Luk Ka",
      "latitude":13.97738,
      "longitude":100.77776
    },{
      "name":"Ban Rangsit",
      "latitude":14.02775,
      "longitude":100.75603
    },{
      "name":"Khlong Luang",
      "latitude":14.06467,
      "longitude":100.64578
    },{
      "name":"Pathum Thani",
      "latitude":14.01346,
      "longitude":100.53049
    }]
  },{
    "name":"Changwat Pattani",
    "cities":[{
      "name":"Nong Chik",
      "latitude":6.84356,
      "longitude":101.17803
    },{
      "name":"Pattani",
      "latitude":6.86814,
      "longitude":101.25009
    },{
      "name":"Sai Buri",
      "latitude":6.70131,
      "longitude":101.61675
    },{
      "name":"Yaring",
      "latitude":6.86617,
      "longitude":101.36894
    }]
  },{
    "name":"Changwat Phangnga",
    "cities":[{
      "name":"Ban Ao Nang",
      "latitude":8.0458,
      "longitude":98.81035
    },{
      "name":"Ban Phru Nai",
      "latitude":7.95458,
      "longitude":98.58989
    },{
      "name":"Phang Nga",
      "latitude":8.4509,
      "longitude":98.52985
    }]
  },{
    "name":"Changwat Phatthalung",
    "cities":[{
      "name":"Phatthalung",
      "latitude":7.61786,
      "longitude":100.07792
    }]
  },{
    "name":"Changwat Phayao",
    "cities":[{
      "name":"Chiang Kham",
      "latitude":19.52331,
      "longitude":100.3
    },{
      "name":"Dok Kham Tai",
      "latitude":19.16242,
      "longitude":99.99342
    },{
      "name":"Mae Chai",
      "latitude":19.34597,
      "longitude":99.814
    },{
      "name":"Phayao",
      "latitude":19.19203,
      "longitude":99.87883
    },{
      "name":"Pong",
      "latitude":19.14931,
      "longitude":100.27522
    }]
  },{
    "name":"Changwat Phetchabun",
    "cities":[{
      "name":"Chon Daen",
      "latitude":16.18953,
      "longitude":100.85958
    },{
      "name":"Lom Sak",
      "latitude":16.77983,
      "longitude":101.24225
    },{
      "name":"Nong Phai",
      "latitude":15.99025,
      "longitude":101.06183
    },{
      "name":"Phetchabun",
      "latitude":16.41904,
      "longitude":101.16056
    },{
      "name":"Wichian Buri",
      "latitude":15.65778,
      "longitude":101.10603
    }]
  },{
    "name":"Changwat Phetchaburi",
    "cities":[{
      "name":"Cha-am",
      "latitude":12.8,
      "longitude":99.96667
    },{
      "name":"Khao Yoi",
      "latitude":13.24025,
      "longitude":99.82428
    },{
      "name":"Phetchaburi",
      "latitude":13.11189,
      "longitude":99.94467
    },{
      "name":"Tha Yang",
      "latitude":12.95772,
      "longitude":99.90555
    }]
  },{
    "name":"Changwat Phichit",
    "cities":[{
      "name":"Bang Mun Nak",
      "latitude":16.02781,
      "longitude":100.37917
    },{
      "name":"Phichit",
      "latitude":16.44184,
      "longitude":100.34879
    },{
      "name":"Taphan Hin",
      "latitude":16.22094,
      "longitude":100.41978
    },{
      "name":"Thap Khlo",
      "latitude":16.16003,
      "longitude":100.59656
    },{
      "name":"Wang Sai Phun",
      "latitude":16.3885,
      "longitude":100.53801
    }]
  },{
    "name":"Changwat Phitsanulok",
    "cities":[{
      "name":"Bang Krathum",
      "latitude":16.57831,
      "longitude":100.30034
    },{
      "name":"Bang Rakam",
      "latitude":16.75847,
      "longitude":100.11742
    },{
      "name":"Nakhon Thai",
      "latitude":17.10056,
      "longitude":100.83739
    },{
      "name":"Phitsanulok",
      "latitude":16.82481,
      "longitude":100.25858
    }]
  },{
    "name":"Changwat Phra Nakhon Si Ayutthaya",
    "cities":[{
      "name":"Ban Bang Kadi Pathum Thani",
      "latitude":13.99904,
      "longitude":100.54962
    },{
      "name":"Bang Ban",
      "latitude":14.37394,
      "longitude":100.48528
    },{
      "name":"Bang Pa-in",
      "latitude":14.22783,
      "longitude":100.57589
    },{
      "name":"Nakhon Luang",
      "latitude":14.46281,
      "longitude":100.60832
    },{
      "name":"Phak Hai",
      "latitude":14.45736,
      "longitude":100.36989
    },{
      "name":"Phra Nakhon Si Ayutthaya",
      "latitude":14.35167,
      "longitude":100.57739
    },{
      "name":"Tha Ruea",
      "latitude":14.56739,
      "longitude":100.72598
    },{
      "name":"Wang Noi",
      "latitude":14.22689,
      "longitude":100.7155
    }]
  },{
    "name":"Changwat Phrae",
    "cities":[{
      "name":"Den Chai",
      "latitude":17.98372,
      "longitude":100.05217
    },{
      "name":"Long",
      "latitude":18.07422,
      "longitude":99.83073
    },{
      "name":"Phrae",
      "latitude":18.14589,
      "longitude":100.14103
    },{
      "name":"Rong Kwang",
      "latitude":18.33903,
      "longitude":100.31736
    }]
  },{
    "name":"Changwat Prachin Buri",
    "cities":[{
      "name":"Kabin Buri",
      "latitude":13.95114,
      "longitude":101.71769
    },{
      "name":"Prachin Buri",
      "latitude":14.04992,
      "longitude":101.36864
    }]
  },{
    "name":"Changwat Prachuap Khiri Khan",
    "cities":[{
      "name":"Bang Saphan",
      "latitude":11.21259,
      "longitude":99.51167
    },{
      "name":"Hua Hin",
      "latitude":12.57065,
      "longitude":99.95876
    },{
      "name":"Kui Buri",
      "latitude":12.08283,
      "longitude":99.85431
    },{
      "name":"Prachuap Khiri Khan",
      "latitude":11.82098,
      "longitude":99.7841
    },{
      "name":"Pran Buri",
      "latitude":12.38487,
      "longitude":99.90158
    },{
      "name":"Sam Roi Yot",
      "latitude":12.27081,
      "longitude":99.87203
    }]
  },{
    "name":"Changwat Ranong",
    "cities":[{
      "name":"Ranong",
      "latitude":9.96583,
      "longitude":98.63476
    }]
  },{
    "name":"Changwat Ratchaburi",
    "cities":[{
      "name":"Ban Pong",
      "latitude":13.81629,
      "longitude":99.87739
    },{
      "name":"Bang Phae",
      "latitude":13.69157,
      "longitude":99.92982
    },{
      "name":"Chom Bueng",
      "latitude":13.62,
      "longitude":99.59169
    },{
      "name":"Damnoen Saduak",
      "latitude":13.51824,
      "longitude":99.95469
    },{
      "name":"Photharam",
      "latitude":13.69234,
      "longitude":99.84969
    },{
      "name":"Ratchaburi",
      "latitude":13.53671,
      "longitude":99.81712
    }]
  },{
    "name":"Changwat Rayong",
    "cities":[{
      "name":"Ban Chang",
      "latitude":12.72543,
      "longitude":101.0553
    },{
      "name":"Klaeng",
      "latitude":12.77972,
      "longitude":101.64831
    },{
      "name":"Rayong",
      "latitude":12.68095,
      "longitude":101.25798
    }]
  },{
    "name":"Changwat Roi Et",
    "cities":[{
      "name":"Ban Selaphum",
      "latitude":16.01667,
      "longitude":103.95
    },{
      "name":"Kaset Wisai",
      "latitude":15.65558,
      "longitude":103.58361
    },{
      "name":"Moeiwadi",
      "latitude":16.38944,
      "longitude":104.1572
    },{
      "name":"Pho Chai",
      "latitude":16.32827,
      "longitude":103.77033
    },{
      "name":"Roi Et",
      "latitude":16.0567,
      "longitude":103.65309
    },{
      "name":"Suwannaphum",
      "latitude":15.60348,
      "longitude":103.80207
    },{
      "name":"Waeng",
      "latitude":16.30006,
      "longitude":103.97786
    }]
  },{
    "name":"Changwat Sa Kaeo",
    "cities":[{
      "name":"Aranyaprathet",
      "latitude":13.69276,
      "longitude":102.50128
    },{
      "name":"Sa Kaeo",
      "latitude":13.81411,
      "longitude":102.07222
    },{
      "name":"Wang Nam Yen",
      "latitude":13.50325,
      "longitude":102.18115
    }]
  },{
    "name":"Changwat Sakon Nakhon",
    "cities":[{
      "name":"Sakon Nakhon",
      "latitude":17.16116,
      "longitude":104.14725
    },{
      "name":"Sawang Daen Din",
      "latitude":17.47531,
      "longitude":103.45753
    }]
  },{
    "name":"Changwat Samut Prakan",
    "cities":[{
      "name":"Ban Khlong Bang Sao Thong",
      "latitude":13.64172,
      "longitude":100.83272
    },{
      "name":"Bang Bo District",
      "latitude":13.58333,
      "longitude":100.81667
    },{
      "name":"Phra Pradaeng",
      "latitude":13.65854,
      "longitude":100.53362
    },{
      "name":"Samut Prakan",
      "latitude":13.59934,
      "longitude":100.59675
    }]
  },{
    "name":"Changwat Samut Sakhon",
    "cities":[{
      "name":"Ban Phaeo",
      "latitude":13.59072,
      "longitude":100.10748
    },{
      "name":"Krathum Baen",
      "latitude":13.6533,
      "longitude":100.25972
    },{
      "name":"Samut Sakhon",
      "latitude":13.54753,
      "longitude":100.27362
    }]
  },{
    "name":"Changwat Samut Songkhram",
    "cities":[{
      "name":"Samut Songkhram",
      "latitude":13.41456,
      "longitude":100.00264
    }]
  },{
    "name":"Changwat Sara Buri",
    "cities":[{
      "name":"Ban Mo",
      "latitude":14.61544,
      "longitude":100.72731
    },{
      "name":"Kaeng Khoi",
      "latitude":14.58617,
      "longitude":100.99758
    },{
      "name":"Nong Khae",
      "latitude":14.34062,
      "longitude":100.86733
    },{
      "name":"Phra Phutthabat",
      "latitude":14.72526,
      "longitude":100.79536
    },{
      "name":"Saraburi",
      "latitude":14.53333,
      "longitude":100.91667
    }]
  },{
    "name":"Changwat Satun",
    "cities":[{
      "name":"Satun",
      "latitude":6.62314,
      "longitude":100.06676
    }]
  },{
    "name":"Changwat Sing Buri",
    "cities":[{
      "name":"Bang Racham",
      "latitude":14.892,
      "longitude":100.31728
    },{
      "name":"Sing Buri",
      "latitude":14.88786,
      "longitude":100.40464
    }]
  },{
    "name":"Changwat Sisaket",
    "cities":[{
      "name":"Kantharalak",
      "latitude":14.64056,
      "longitude":104.64992
    },{
      "name":"Phrai Bueng",
      "latitude":14.74833,
      "longitude":104.36261
    },{
      "name":"Si Sa Ket",
      "latitude":15.11481,
      "longitude":104.32938
    }]
  },{
    "name":"Changwat Songkhla",
    "cities":[{
      "name":"Ban Mai",
      "latitude":7.20411,
      "longitude":100.54508
    },{
      "name":"Hat Yai",
      "latitude":7.00836,
      "longitude":100.47668
    },{
      "name":"Na Mom",
      "latitude":6.95856,
      "longitude":100.55683
    },{
      "name":"Ranot",
      "latitude":7.77768,
      "longitude":100.32134
    },{
      "name":"Sadao",
      "latitude":6.63883,
      "longitude":100.42342
    },{
      "name":"Songkhla",
      "latitude":7.19882,
      "longitude":100.5951
    }]
  },{
    "name":"Changwat Sukhothai",
    "cities":[{
      "name":"Ban Dan Lan Hoi",
      "latitude":17.00683,
      "longitude":99.57497
    },{
      "name":"Ban Na",
      "latitude":17.01717,
      "longitude":99.73283
    },{
      "name":"Khiri Mat",
      "latitude":16.83333,
      "longitude":99.8
    },{
      "name":"Sawankhalok",
      "latitude":17.31597,
      "longitude":99.83186
    },{
      "name":"Si Satchanalai",
      "latitude":17.51692,
      "longitude":99.75978
    },{
      "name":"Sukhothai",
      "latitude":17.00778,
      "longitude":99.823
    }]
  },{
    "name":"Changwat Suphan Buri",
    "cities":[{
      "name":"Ban Sam Chuk",
      "latitude":14.74219,
      "longitude":100.09531
    },{
      "name":"Doembang Nangbuat",
      "latitude":14.83333,
      "longitude":100.1
    },{
      "name":"Suphan Buri",
      "latitude":14.47418,
      "longitude":100.12218
    }]
  },{
    "name":"Changwat Surat Thani",
    "cities":[{
      "name":"Ban Na San",
      "latitude":8.80036,
      "longitude":99.36372
    },{
      "name":"Chai Buri",
      "latitude":8.46222,
      "longitude":99.07631
    },{
      "name":"Chaiya",
      "latitude":9.38624,
      "longitude":99.19861
    },{
      "name":"Don Sak",
      "latitude":9.31676,
      "longitude":99.69184
    },{
      "name":"Ko Samui",
      "latitude":9.53567,
      "longitude":99.93567
    },{
      "name":"Phunphin",
      "latitude":9.11072,
      "longitude":99.23208
    },{
      "name":"Surat Thani",
      "latitude":9.14011,
      "longitude":99.33311
    },{
      "name":"Wiang Sa",
      "latitude":8.63585,
      "longitude":99.3666
    }]
  },{
    "name":"Changwat Surin",
    "cities":[{
      "name":"Surin",
      "latitude":14.88181,
      "longitude":103.49364
    }]
  },{
    "name":"Changwat Tak",
    "cities":[{
      "name":"Ban Tak",
      "latitude":17.04325,
      "longitude":99.08128
    },{
      "name":"Mae Ramat",
      "latitude":16.98403,
      "longitude":98.51665
    },{
      "name":"Mae Sot",
      "latitude":16.71667,
      "longitude":98.56667
    },{
      "name":"Tak",
      "latitude":16.86968,
      "longitude":99.12898
    }]
  },{
    "name":"Changwat Trang",
    "cities":[{
      "name":"Huai Yot",
      "latitude":7.78937,
      "longitude":99.63469
    },{
      "name":"Kantang",
      "latitude":7.40542,
      "longitude":99.51561
    },{
      "name":"Trang",
      "latitude":7.55633,
      "longitude":99.61141
    }]
  },{
    "name":"Changwat Trat",
    "cities":[{
      "name":"Bo Rai",
      "latitude":12.57283,
      "longitude":102.53714
    },{
      "name":"Trat",
      "latitude":12.24364,
      "longitude":102.51514
    }]
  },{
    "name":"Changwat Ubon Ratchathani",
    "cities":[{
      "name":"Det Udom",
      "latitude":14.90598,
      "longitude":105.07836
    },{
      "name":"Phibun Mangsahan",
      "latitude":15.24467,
      "longitude":105.22908
    },{
      "name":"Sawang Wirawong",
      "latitude":15.24158,
      "longitude":105.0922
    },{
      "name":"Ubon Ratchathani",
      "latitude":15.23844,
      "longitude":104.84866
    },{
      "name":"Warin Chamrap",
      "latitude":15.19319,
      "longitude":104.8628
    }]
  },{
    "name":"Changwat Udon Thani",
    "cities":[{
      "name":"Ban Dung",
      "latitude":17.699,
      "longitude":103.25957
    },{
      "name":"Ban Nong Wua So",
      "latitude":17.2675,
      "longitude":103.22472
    },{
      "name":"Ban Phan Don",
      "latitude":17.14272,
      "longitude":102.97261
    },{
      "name":"Kut Chap",
      "latitude":17.4257,
      "longitude":102.56692
    },{
      "name":"Nam Som",
      "latitude":17.77036,
      "longitude":102.18947
    },{
      "name":"Nong Wua So",
      "latitude":17.16261,
      "longitude":102.57272
    },{
      "name":"Udon Thani",
      "latitude":17.41567,
      "longitude":102.78589
    }]
  },{
    "name":"Changwat Uthai Thani",
    "cities":[{
      "name":"Huai Khot",
      "latitude":15.29094,
      "longitude":99.61661
    },{
      "name":"Lan Sak",
      "latitude":15.45289,
      "longitude":99.57606
    },{
      "name":"Thap Than",
      "latitude":15.46063,
      "longitude":99.89166
    },{
      "name":"Uthai Thani",
      "latitude":15.37939,
      "longitude":100.0245
    }]
  },{
    "name":"Changwat Uttaradit",
    "cities":[{
      "name":"Uttaradit",
      "latitude":17.62557,
      "longitude":100.09421
    }]
  },{
    "name":"Changwat Yala",
    "cities":[{
      "name":"Betong",
      "latitude":5.77434,
      "longitude":101.07231
    },{
      "name":"Yala",
      "latitude":6.53995,
      "longitude":101.28128
    }]
  },{
    "name":"Changwat Yasothon",
    "cities":[{
      "name":"Yasothon",
      "latitude":15.79408,
      "longitude":104.1451
    }]
  },{
    "name":"Chiang Mai Province",
    "cities":[{
      "name":"Chiang Mai",
      "latitude":18.79038,
      "longitude":98.98468
    },{
      "name":"Chom Thong",
      "latitude":18.41742,
      "longitude":98.67428
    },{
      "name":"Hang Dong",
      "latitude":18.68703,
      "longitude":98.91939
    },{
      "name":"San Kamphaeng",
      "latitude":18.74486,
      "longitude":99.11953
    },{
      "name":"San Pa Tong",
      "latitude":18.62828,
      "longitude":98.89572
    }]
  },{
    "name":"Phuket Province",
    "cities":[{
      "name":"Ban Chalong",
      "latitude":7.84468,
      "longitude":98.33897
    },{
      "name":"Ban Karon",
      "latitude":7.84769,
      "longitude":98.2985
    },{
      "name":"Ban Ko Kaeo",
      "latitude":7.93599,
      "longitude":98.39664
    },{
      "name":"Ban Ratsada",
      "latitude":7.90963,
      "longitude":98.40248
    },{
      "name":"Ban Talat Nua",
      "latitude":7.88489,
      "longitude":98.38557
    },{
      "name":"Ban Talat Yai",
      "latitude":7.88481,
      "longitude":98.40008
    },{
      "name":"Kathu",
      "latitude":7.91779,
      "longitude":98.33322
    },{
      "name":"Patong Beach",
      "latitude":7.89607,
      "longitude":98.29661
    },{
      "name":"Phuket",
      "latitude":7.89059,
      "longitude":98.3981
    },{
      "name":"Rawai",
      "latitude":7.77965,
      "longitude":98.32532
    },{
      "name":"Wichit",
      "latitude":7.8894,
      "longitude":98.38523
    }]
  }]
}
