{
  "name":"Ukraine",
  "regions":[{
    "name":"Avtonomna Respublika Krym",
    "cities":[{
      "name":"Alupka",
      "latitude":44.41886,
      "longitude":34.0448
    },{
      "name":"Alushta",
      "latitude":44.67631,
      "longitude":34.40778
    },{
      "name":"Armyansk",
      "latitude":46.10919,
      "longitude":33.69206
    },{
      "name":"Bakhchysaray",
      "latitude":44.75525,
      "longitude":33.85782
    },{
      "name":"Bilohirsk",
      "latitude":45.05462,
      "longitude":34.60185
    },{
      "name":"Chornomorske",
      "latitude":45.50657,
      "longitude":32.69776
    },{
      "name":"Dzhankoy",
      "latitude":45.71168,
      "longitude":34.39274
    },{
      "name":"Feodosiya",
      "latitude":45.03677,
      "longitude":35.37789
    },{
      "name":"Gaspra",
      "latitude":44.43364,
      "longitude":34.10297
    },{
      "name":"Hurzuf",
      "latitude":44.54624,
      "longitude":34.27841
    },{
      "name":"Kerch",
      "latitude":45.3607,
      "longitude":36.4706
    },{
      "name":"Koreiz",
      "latitude":44.43374,
      "longitude":34.08516
    },{
      "name":"Krasnoperekopsk",
      "latitude":45.95716,
      "longitude":33.7965
    },{
      "name":"Lenine",
      "latitude":45.29857,
      "longitude":35.77708
    },{
      "name":"Massandra",
      "latitude":44.51892,
      "longitude":34.18593
    },{
      "name":"Miskhor",
      "latitude":44.43333,
      "longitude":34.08333
    },{
      "name":"Mysove",
      "latitude":45.44863,
      "longitude":35.83655
    },{
      "name":"Nyzhnohirskyy",
      "latitude":45.44789,
      "longitude":34.73839
    },{
      "name":"Partenit",
      "latitude":44.578,
      "longitude":34.34464
    },{
      "name":"Pervomayske",
      "latitude":45.71744,
      "longitude":33.85596
    },{
      "name":"Rozdolne",
      "latitude":45.77083,
      "longitude":33.48777
    },{
      "name":"Saky",
      "latitude":45.13424,
      "longitude":33.59996
    },{
      "name":"Scholkine",
      "latitude":45.42761,
      "longitude":35.8247
    },{
      "name":"Simferopol",
      "latitude":44.95719,
      "longitude":34.11079
    },{
      "name":"Staryy Krym",
      "latitude":45.02887,
      "longitude":35.09174
    },{
      "name":"Sudak",
      "latitude":44.84924,
      "longitude":34.97471
    },{
      "name":"Viline",
      "latitude":44.8456,
      "longitude":33.67161
    },{
      "name":"Voskhod",
      "latitude":45.3392,
      "longitude":36.4141
    },{
      "name":"Yalta",
      "latitude":44.50013,
      "longitude":34.16148
    },{
      "name":"Yevpatoriya",
      "latitude":45.20091,
      "longitude":33.36655
    },{
      "name":"Zuya",
      "latitude":45.0531,
      "longitude":34.31542
    }]
  },{
    "name":"Cherkaska Oblast",
    "cities":[{
      "name":"Cherkasy",
      "latitude":49.42854,
      "longitude":32.06207
    },{
      "name":"Chervonaya Sloboda",
      "latitude":49.3789,
      "longitude":32.14643
    },{
      "name":"Chornobay",
      "latitude":49.67079,
      "longitude":32.32387
    },{
      "name":"Chyhyryn",
      "latitude":49.08376,
      "longitude":32.65549
    },{
      "name":"Drabiv",
      "latitude":49.96302,
      "longitude":32.15291
    },{
      "name":"Horodyshche",
      "latitude":49.28489,
      "longitude":31.44513
    },{
      "name":"Kamianka",
      "latitude":49.0318,
      "longitude":32.10396
    },{
      "name":"Kaniv",
      "latitude":49.75182,
      "longitude":31.46004
    },{
      "name":"Khrystynivka",
      "latitude":48.82488,
      "longitude":29.96806
    },{
      "name":"Korsun-Shevchenkivskyy",
      "latitude":49.41894,
      "longitude":31.25865
    },{
      "name":"Lysyanka",
      "latitude":49.25229,
      "longitude":30.82946
    },{
      "name":"Mankivka",
      "latitude":48.96349,
      "longitude":30.33366
    },{
      "name":"Monastyryshche",
      "latitude":48.9909,
      "longitude":29.8047
    },{
      "name":"Russkaya Polyana",
      "latitude":49.417,
      "longitude":31.92009
    },{
      "name":"Shpola",
      "latitude":49.00687,
      "longitude":31.39471
    },{
      "name":"Smila",
      "latitude":49.22242,
      "longitude":31.88714
    },{
      "name":"Talne",
      "latitude":48.88877,
      "longitude":30.69482
    },{
      "name":"Uman",
      "latitude":48.74838,
      "longitude":30.22184
    },{
      "name":"Vatutine",
      "latitude":49.01502,
      "longitude":31.06211
    },{
      "name":"Zhashkiv",
      "latitude":49.24545,
      "longitude":30.1102
    },{
      "name":"Zolotonosha",
      "latitude":49.66886,
      "longitude":32.03773
    },{
      "name":"Zvenyhorodka",
      "latitude":49.07866,
      "longitude":30.96754
    }]
  },{
    "name":"Chernihivska Oblast",
    "cities":[{
      "name":"Bakhmach",
      "latitude":51.18144,
      "longitude":32.83463
    },{
      "name":"Berezna",
      "latitude":51.5716,
      "longitude":31.78456
    },{
      "name":"Bobrovytsya",
      "latitude":50.74693,
      "longitude":31.3948
    },{
      "name":"Borzna",
      "latitude":51.25464,
      "longitude":32.4269
    },{
      "name":"Chernihiv",
      "latitude":51.50551,
      "longitude":31.28488
    },{
      "name":"Desna",
      "latitude":50.92731,
      "longitude":30.76048
    },{
      "name":"Horodnya",
      "latitude":51.89085,
      "longitude":31.59741
    },{
      "name":"Ichnya",
      "latitude":50.86258,
      "longitude":32.39425
    },{
      "name":"Korop",
      "latitude":51.56638,
      "longitude":32.95861
    },{
      "name":"Koryukivka",
      "latitude":51.76877,
      "longitude":32.24813
    },{
      "name":"Kozelets",
      "latitude":50.91334,
      "longitude":31.1214
    },{
      "name":"Kulykivka",
      "latitude":51.37345,
      "longitude":31.64661
    },{
      "name":"Ladan",
      "latitude":50.51959,
      "longitude":32.58178
    },{
      "name":"Mena",
      "latitude":51.5217,
      "longitude":32.21568
    },{
      "name":"Nizhyn",
      "latitude":51.04801,
      "longitude":31.88688
    },{
      "name":"Nosivka",
      "latitude":50.93152,
      "longitude":31.58282
    },{
      "name":"Novhorod-Siverskyy",
      "latitude":52.00577,
      "longitude":33.2615
    },{
      "name":"Oster",
      "latitude":50.9506,
      "longitude":30.88229
    },{
      "name":"Pryluky",
      "latitude":50.59324,
      "longitude":32.38761
    },{
      "name":"Ripky",
      "latitude":51.80105,
      "longitude":31.08383
    },{
      "name":"Semenivka",
      "latitude":52.17827,
      "longitude":32.58183
    },{
      "name":"Shchors",
      "latitude":51.81865,
      "longitude":31.94504
    },{
      "name":"Sosnytsya",
      "latitude":51.52387,
      "longitude":32.49985
    },{
      "name":"Talalayivka",
      "latitude":50.95783,
      "longitude":31.92085
    },{
      "name":"Varva",
      "latitude":50.49503,
      "longitude":32.71968
    }]
  },{
    "name":"Chernivetska Oblast",
    "cities":[{
      "name":"Berehomet",
      "latitude":48.17882,
      "longitude":25.34855
    },{
      "name":"Chernivtsi",
      "latitude":48.29149,
      "longitude":25.94034
    },{
      "name":"Chudey",
      "latitude":48.05247,
      "longitude":25.62208
    },{
      "name":"Hlyboka",
      "latitude":48.08971,
      "longitude":25.92933
    },{
      "name":"Khotyn",
      "latitude":48.50693,
      "longitude":26.49121
    },{
      "name":"Klishkivtsi",
      "latitude":48.43161,
      "longitude":26.26231
    },{
      "name":"Marshintsy",
      "latitude":48.21751,
      "longitude":26.29133
    },{
      "name":"Novodnistrovsk",
      "latitude":48.58641,
      "longitude":27.38152
    },{
      "name":"Novoselytsya",
      "latitude":48.21931,
      "longitude":26.26531
    },{
      "name":"Sokyryany",
      "latitude":48.44747,
      "longitude":27.41678
    },{
      "name":"Vashkivtsi",
      "latitude":48.38492,
      "longitude":25.51023
    },{
      "name":"Zastavna",
      "latitude":48.52307,
      "longitude":25.84369
    }]
  },{
    "name":"Dnipropetrovska Oblast",
    "cities":[{
      "name":"Apostolove",
      "latitude":47.66003,
      "longitude":33.71369
    },{
      "name":"Chervonohryhorivka",
      "latitude":47.62298,
      "longitude":34.53887
    },{
      "name":"Dniprodzerzhynsk",
      "latitude":48.51134,
      "longitude":34.6021
    },{
      "name":"Dnipropetrovsk",
      "latitude":48.45,
      "longitude":34.98333
    },{
      "name":"Gubinikha",
      "latitude":48.81083,
      "longitude":35.25472
    },{
      "name":"Kryvyy Rih",
      "latitude":47.90966,
      "longitude":33.38044
    },{
      "name":"Mahdalynivka",
      "latitude":48.92102,
      "longitude":34.91558
    },{
      "name":"Marhanets",
      "latitude":47.63543,
      "longitude":34.62769
    },{
      "name":"Mezhova",
      "latitude":48.25318,
      "longitude":36.73468
    },{
      "name":"Nikopol",
      "latitude":47.57119,
      "longitude":34.39637
    },{
      "name":"Novomoskovsk",
      "latitude":48.63798,
      "longitude":35.24548
    },{
      "name":"Pavlohrad",
      "latitude":48.53341,
      "longitude":35.8705
    },{
      "name":"Petropavlivka",
      "latitude":48.45643,
      "longitude":36.4367
    },{
      "name":"Piatykhatky",
      "latitude":48.41333,
      "longitude":33.71056
    },{
      "name":"Pidhorodne",
      "latitude":48.57528,
      "longitude":35.1068
    },{
      "name":"Shyroke",
      "latitude":47.69173,
      "longitude":33.25714
    },{
      "name":"Sofiyivka",
      "latitude":48.04927,
      "longitude":33.87462
    },{
      "name":"Solone",
      "latitude":48.20805,
      "longitude":34.87208
    },{
      "name":"Synelnykove",
      "latitude":48.32044,
      "longitude":35.51792
    },{
      "name":"Tomakivka",
      "latitude":47.81569,
      "longitude":34.74137
    },{
      "name":"Tsarychanka",
      "latitude":48.93697,
      "longitude":34.4786
    },{
      "name":"Volnoye",
      "latitude":47.63646,
      "longitude":34.81387
    },{
      "name":"Zhovti Vody",
      "latitude":48.34731,
      "longitude":33.50034
    }]
  },{
    "name":"Donetska Oblast",
    "cities":[{
      "name":"Amvrosiyivka",
      "latitude":47.79348,
      "longitude":38.47768
    },{
      "name":"Artemivsk",
      "latitude":48.59559,
      "longitude":37.99987
    },{
      "name":"Avdeyevka",
      "latitude":48.13989,
      "longitude":37.74255
    },{
      "name":"Belitskoye",
      "latitude":48.40642,
      "longitude":37.18111
    },{
      "name":"Chasov Yar",
      "latitude":48.59348,
      "longitude":37.85724
    },{
      "name":"Debaltsevo",
      "latitude":48.34072,
      "longitude":38.4049
    },{
      "name":"Dobropolye",
      "latitude":48.46147,
      "longitude":37.08524
    },{
      "name":"Dokuchayevsk",
      "latitude":47.74773,
      "longitude":37.67384
    },{
      "name":"Donetsk",
      "latitude":48.023,
      "longitude":37.80224
    },{
      "name":"Druzhkovka",
      "latitude":48.63013,
      "longitude":37.55259
    },{
      "name":"Dzerzhynsk",
      "latitude":48.39869,
      "longitude":37.84787
    },{
      "name":"Horlivka",
      "latitude":48.34698,
      "longitude":38.05419
    },{
      "name":"Ilovaysk",
      "latitude":47.92498,
      "longitude":38.20236
    },{
      "name":"Khartsyzsk",
      "latitude":48.04243,
      "longitude":38.14728
    },{
      "name":"Kostyantynivka",
      "latitude":48.5277,
      "longitude":37.7069
    },{
      "name":"Kramatorsk",
      "latitude":48.72305,
      "longitude":37.55629
    },{
      "name":"Krasnoarmiysk",
      "latitude":48.28198,
      "longitude":37.17585
    },{
      "name":"Krasnyy Liman",
      "latitude":48.98836,
      "longitude":37.80225
    },{
      "name":"Kurakhovo",
      "latitude":47.98522,
      "longitude":37.2821
    },{
      "name":"Makiyivka",
      "latitude":48.04782,
      "longitude":37.92576
    },{
      "name":"Manhush",
      "latitude":47.05582,
      "longitude":37.31068
    },{
      "name":"Mariupol",
      "latitude":47.09514,
      "longitude":37.54131
    },{
      "name":"Mospyne",
      "latitude":47.89081,
      "longitude":38.06395
    },{
      "name":"Nizhnyaya Krynka",
      "latitude":48.1135,
      "longitude":38.16064
    },{
      "name":"Novoazovsk",
      "latitude":47.11389,
      "longitude":38.08599
    },{
      "name":"Novyy Svit",
      "latitude":47.80591,
      "longitude":38.02112
    },{
      "name":"Primorskoye",
      "latitude":47.17436,
      "longitude":37.69266
    },{
      "name":"Rodinskoye",
      "latitude":48.35199,
      "longitude":37.20602
    },{
      "name":"Selidovo",
      "latitude":48.14708,
      "longitude":37.30032
    },{
      "name":"Seversk",
      "latitude":48.86699,
      "longitude":38.10007
    },{
      "name":"Shakhtersk",
      "latitude":48.06252,
      "longitude":38.51665
    },{
      "name":"Sloviansk",
      "latitude":48.86667,
      "longitude":37.61667
    },{
      "name":"Snizhne",
      "latitude":48.02612,
      "longitude":38.77225
    },{
      "name":"Soledar",
      "latitude":48.67935,
      "longitude":38.08902
    },{
      "name":"Starobesheve",
      "latitude":47.75038,
      "longitude":38.03051
    },{
      "name":"Staryy Krym",
      "latitude":47.16146,
      "longitude":37.48934
    },{
      "name":"Svetlodarsk",
      "latitude":48.43374,
      "longitude":38.22331
    },{
      "name":"Torez",
      "latitude":48.03876,
      "longitude":38.59685
    },{
      "name":"Uglegorsk",
      "latitude":48.31474,
      "longitude":38.27423
    },{
      "name":"Volnovakha",
      "latitude":47.60103,
      "longitude":37.49674
    },{
      "name":"Yalta",
      "latitude":46.96279,
      "longitude":37.27365
    },{
      "name":"Yasinovataya",
      "latitude":48.1298,
      "longitude":37.8594
    },{
      "name":"Yenakiyeve",
      "latitude":48.23331,
      "longitude":38.21137
    },{
      "name":"Zuhres",
      "latitude":48.0114,
      "longitude":38.26444
    }]
  },{
    "name":"Ivano-Frankivska Oblast",
    "cities":[{
      "name":"Bohorodchany",
      "latitude":48.807,
      "longitude":24.53834
    },{
      "name":"Bolekhiv",
      "latitude":49.06607,
      "longitude":23.86435
    },{
      "name":"Broshniv-Osada",
      "latitude":48.9962,
      "longitude":24.19748
    },{
      "name":"Burshtyn",
      "latitude":49.25866,
      "longitude":24.62776
    },{
      "name":"Delyatyn",
      "latitude":48.52354,
      "longitude":24.62466
    },{
      "name":"Dolyna",
      "latitude":48.9733,
      "longitude":24.00944
    },{
      "name":"Horodenka",
      "latitude":48.67274,
      "longitude":25.50163
    },{
      "name":"Ivano-Frankivsk",
      "latitude":48.9215,
      "longitude":24.70972
    },{
      "name":"Kalush",
      "latitude":49.01187,
      "longitude":24.37308
    },{
      "name":"Kolomyya",
      "latitude":48.53115,
      "longitude":25.03649
    },{
      "name":"Kosiv",
      "latitude":48.31071,
      "longitude":25.09575
    },{
      "name":"Kosmach",
      "latitude":48.75089,
      "longitude":24.36731
    },{
      "name":"Kosmach",
      "latitude":48.32991,
      "longitude":24.82052
    },{
      "name":"Lanchyn",
      "latitude":48.55781,
      "longitude":24.75622
    },{
      "name":"Nadvirna",
      "latitude":48.6348,
      "longitude":24.56936
    },{
      "name":"Otyniya",
      "latitude":48.73767,
      "longitude":24.86111
    },{
      "name":"Pechenizhyn",
      "latitude":48.51551,
      "longitude":24.89423
    },{
      "name":"Rohatyn",
      "latitude":49.409,
      "longitude":24.60926
    },{
      "name":"Rozhniv",
      "latitude":48.36597,
      "longitude":25.2258
    },{
      "name":"Snyatyn",
      "latitude":48.44692,
      "longitude":25.56937
    },{
      "name":"Stari Kuty",
      "latitude":48.27093,
      "longitude":25.17293
    },{
      "name":"Tysmenytsya",
      "latitude":48.90219,
      "longitude":24.84482
    },{
      "name":"Verkhovyna",
      "latitude":48.15571,
      "longitude":24.79112
    },{
      "name":"Yaremche",
      "latitude":48.45157,
      "longitude":24.55436
    }]
  },{
    "name":"Kharkivska Oblast",
    "cities":[{
      "name":"Balakliya",
      "latitude":49.4627,
      "longitude":36.85951
    },{
      "name":"Barvinkove",
      "latitude":48.9097,
      "longitude":37.02051
    },{
      "name":"Bezlyudivka",
      "latitude":49.87547,
      "longitude":36.26539
    },{
      "name":"Bohodukhiv",
      "latitude":50.16466,
      "longitude":35.52765
    },{
      "name":"Borova",
      "latitude":49.3777,
      "longitude":37.62136
    },{
      "name":"Budy",
      "latitude":49.89134,
      "longitude":36.02096
    },{
      "name":"Chuhuyiv",
      "latitude":49.83588,
      "longitude":36.68803
    },{
      "name":"Derhachi",
      "latitude":50.10659,
      "longitude":36.12112
    },{
      "name":"Eskhar",
      "latitude":49.79614,
      "longitude":36.59047
    },{
      "name":"Izyum",
      "latitude":49.20875,
      "longitude":37.24848
    },{
      "name":"Kehychivka",
      "latitude":49.28656,
      "longitude":35.76153
    },{
      "name":"Kharkiv",
      "latitude":49.98081,
      "longitude":36.25272
    },{
      "name":"Kivsharivka",
      "latitude":49.63096,
      "longitude":37.68821
    },{
      "name":"Komsomolske",
      "latitude":49.59701,
      "longitude":36.52618
    },{
      "name":"Krasnohrad",
      "latitude":49.3814,
      "longitude":35.44021
    },{
      "name":"Krasnokutsk",
      "latitude":50.06602,
      "longitude":35.16275
    },{
      "name":"Krasnopavlivka",
      "latitude":49.13643,
      "longitude":36.31911
    },{
      "name":"Kupjansk",
      "latitude":49.71054,
      "longitude":37.61517
    },{
      "name":"Lozova",
      "latitude":48.88937,
      "longitude":36.31755
    },{
      "name":"Lyubotyn",
      "latitude":49.94691,
      "longitude":35.92907
    },{
      "name":"Mala Danylivka",
      "latitude":50.06354,
      "longitude":36.16564
    },{
      "name":"Malynivka",
      "latitude":49.81667,
      "longitude":36.73333
    },{
      "name":"Merefa",
      "latitude":49.82302,
      "longitude":36.05069
    },{
      "name":"Nova Vodolaha",
      "latitude":49.71901,
      "longitude":35.86578
    },{
      "name":"Panyutyne",
      "latitude":48.93692,
      "longitude":36.27563
    },{
      "name":"Peresichna",
      "latitude":50.02452,
      "longitude":35.97871
    },{
      "name":"Pivdenne",
      "latitude":49.88315,
      "longitude":36.06785
    },{
      "name":"Pokotylivka",
      "latitude":49.91343,
      "longitude":36.17511
    },{
      "name":"Sakhnovshchyna",
      "latitude":49.15166,
      "longitude":35.87198
    },{
      "name":"Savyntsi",
      "latitude":49.40257,
      "longitude":37.06266
    },{
      "name":"Shevchenkove",
      "latitude":49.69585,
      "longitude":37.17348
    },{
      "name":"Slatyne",
      "latitude":50.21041,
      "longitude":36.15376
    },{
      "name":"Solonytsivka",
      "latitude":49.99682,
      "longitude":36.03464
    },{
      "name":"Valky",
      "latitude":49.83597,
      "longitude":35.61223
    },{
      "name":"Vasyshcheve",
      "latitude":49.82852,
      "longitude":36.32691
    },{
      "name":"Vovchansk",
      "latitude":50.29078,
      "longitude":36.94108
    },{
      "name":"Vysokyy",
      "latitude":49.89156,
      "longitude":36.12175
    },{
      "name":"Zmiyiv",
      "latitude":49.67453,
      "longitude":36.34775
    },{
      "name":"Zolochiv",
      "latitude":50.27985,
      "longitude":35.98178
    }]
  },{
    "name":"Khersonska Oblast",
    "cities":[{
      "name":"Beryslav",
      "latitude":46.84152,
      "longitude":33.42838
    },{
      "name":"Bilozerka",
      "latitude":46.6248,
      "longitude":32.44251
    },{
      "name":"Chaplynka",
      "latitude":46.36507,
      "longitude":33.54027
    },{
      "name":"Chornobayivka",
      "latitude":46.69412,
      "longitude":32.55371
    },{
      "name":"Henichesk",
      "latitude":46.17592,
      "longitude":34.8034
    },{
      "name":"Hola Prystan",
      "latitude":46.5272,
      "longitude":32.52417
    },{
      "name":"Hornostayivka",
      "latitude":47.00777,
      "longitude":33.72899
    },{
      "name":"Ivanivka",
      "latitude":46.72082,
      "longitude":34.55298
    },{
      "name":"Kakhovka",
      "latitude":46.81371,
      "longitude":33.48698
    },{
      "name":"Kalanchak",
      "latitude":46.25623,
      "longitude":33.2907
    },{
      "name":"Kherson",
      "latitude":46.65581,
      "longitude":32.6178
    },{
      "name":"Komyshany",
      "latitude":46.63716,
      "longitude":32.50719
    },{
      "name":"Lyubymivka",
      "latitude":46.81063,
      "longitude":33.56862
    },{
      "name":"Nova Kakhovka",
      "latitude":46.75451,
      "longitude":33.34864
    },{
      "name":"Nova Mayachka",
      "latitude":46.59996,
      "longitude":33.22707
    },{
      "name":"Novofedorovka",
      "latitude":46.17128,
      "longitude":32.31781
    },{
      "name":"Novooleksiyivka",
      "latitude":46.22472,
      "longitude":34.64031
    },{
      "name":"Novovorontsovka",
      "latitude":47.50035,
      "longitude":33.91748
    },{
      "name":"Nyzhni Sirohozy",
      "latitude":46.84842,
      "longitude":34.38044
    },{
      "name":"Skadovsk",
      "latitude":46.1161,
      "longitude":32.91124
    },{
      "name":"Tsyurupynsk",
      "latitude":46.61842,
      "longitude":32.7189
    },{
      "name":"Velyka Lepetykha",
      "latitude":47.17572,
      "longitude":33.94362
    },{
      "name":"Velyka Oleksandrivka",
      "latitude":47.31969,
      "longitude":33.30373
    },{
      "name":"Velyki Kopany",
      "latitude":46.48684,
      "longitude":32.97498
    },{
      "name":"Verkhniy Rohachyk",
      "latitude":47.25054,
      "longitude":34.33797
    }]
  },{
    "name":"Khmelnytska Oblast",
    "cities":[{
      "name":"Derazhnya",
      "latitude":49.2692,
      "longitude":27.43382
    },{
      "name":"Dunaivtsi",
      "latitude":48.88909,
      "longitude":26.85636
    },{
      "name":"Horodok",
      "latitude":49.16374,
      "longitude":26.58394
    },{
      "name":"Izyaslav",
      "latitude":50.11947,
      "longitude":26.82125
    },{
      "name":"Kamieniec Podolski",
      "latitude":48.6845,
      "longitude":26.58559
    },{
      "name":"Khmelnytskyy",
      "latitude":49.42161,
      "longitude":26.99653
    },{
      "name":"Krasyliv",
      "latitude":49.65186,
      "longitude":26.97252
    },{
      "name":"Letychiv",
      "latitude":49.38263,
      "longitude":27.63051
    },{
      "name":"Makiv",
      "latitude":48.79487,
      "longitude":26.69188
    },{
      "name":"Netishyn",
      "latitude":50.34004,
      "longitude":26.64171
    },{
      "name":"Polonne",
      "latitude":50.12424,
      "longitude":27.51087
    },{
      "name":"Poninka",
      "latitude":50.18492,
      "longitude":27.53629
    },{
      "name":"Shepetivka",
      "latitude":50.18545,
      "longitude":27.06365
    },{
      "name":"Slavuta",
      "latitude":50.30155,
      "longitude":26.86506
    },{
      "name":"Stara Synyava",
      "latitude":49.60318,
      "longitude":27.61909
    },{
      "name":"Starokostyantyniv",
      "latitude":49.75764,
      "longitude":27.20342
    },{
      "name":"Yarmolyntsi",
      "latitude":49.19236,
      "longitude":26.83725
    }]
  },{
    "name":"Kirovohradska Oblast",
    "cities":[{
      "name":"Dolynska",
      "latitude":48.11041,
      "longitude":32.76449
    },{
      "name":"Dymytrove",
      "latitude":48.60767,
      "longitude":32.98347
    },{
      "name":"Hayvoron",
      "latitude":48.33958,
      "longitude":29.86791
    },{
      "name":"Kirovohrad",
      "latitude":48.5132,
      "longitude":32.2597
    },{
      "name":"Lozuvatka",
      "latitude":48.0571,
      "longitude":33.28581
    },{
      "name":"Mala Vyska",
      "latitude":48.64308,
      "longitude":31.63657
    },{
      "name":"Nova Praha",
      "latitude":48.56821,
      "longitude":32.90273
    },{
      "name":"Novhorodka",
      "latitude":48.36506,
      "longitude":32.65785
    },{
      "name":"Novoarkhanhelsk",
      "latitude":48.65803,
      "longitude":30.81821
    },{
      "name":"Novomyrhorod",
      "latitude":48.78105,
      "longitude":31.64204
    },{
      "name":"Novoukrayinka",
      "latitude":48.32635,
      "longitude":31.52852
    },{
      "name":"Oleksandrivka",
      "latitude":48.96336,
      "longitude":32.23492
    },{
      "name":"Oleksandriya",
      "latitude":48.66961,
      "longitude":33.11593
    },{
      "name":"Petrove",
      "latitude":48.32467,
      "longitude":33.25617
    },{
      "name":"Pobugskoye",
      "latitude":48.16579,
      "longitude":30.59274
    },{
      "name":"Pomichna",
      "latitude":48.24222,
      "longitude":31.41583
    },{
      "name":"Rivne",
      "latitude":48.24742,
      "longitude":31.75432
    },{
      "name":"Svitlovodsk",
      "latitude":49.04894,
      "longitude":33.24106
    },{
      "name":"Zavallya",
      "latitude":48.21354,
      "longitude":30.01558
    },{
      "name":"Znomenka",
      "latitude":48.71278,
      "longitude":32.66472
    }]
  },{
    "name":"Kyiv Oblast",
    "cities":[{
      "name":"Baryshivka",
      "latitude":50.36098,
      "longitude":31.32173
    },{
      "name":"Bila Tserkva",
      "latitude":49.80939,
      "longitude":30.11209
    },{
      "name":"Bohuslav",
      "latitude":49.54939,
      "longitude":30.8744
    },{
      "name":"Borodyanka",
      "latitude":50.64484,
      "longitude":29.9201
    },{
      "name":"Borova",
      "latitude":50.17625,
      "longitude":30.10429
    },{
      "name":"Boryspil",
      "latitude":50.35269,
      "longitude":30.95501
    },{
      "name":"Boyarka",
      "latitude":50.3191,
      "longitude":30.29728
    },{
      "name":"Brovary",
      "latitude":50.51809,
      "longitude":30.80671
    },{
      "name":"Bucha",
      "latitude":50.54345,
      "longitude":30.21201
    },{
      "name":"Chabany",
      "latitude":50.34071,
      "longitude":30.42356
    },{
      "name":"Dymer",
      "latitude":50.78647,
      "longitude":30.3026
    },{
      "name":"Fastiv",
      "latitude":50.0767,
      "longitude":29.9177
    },{
      "name":"Hlevakha",
      "latitude":50.27423,
      "longitude":30.32706
    },{
      "name":"Hnidyn",
      "latitude":50.329,
      "longitude":30.71059
    },{
      "name":"Hostomel",
      "latitude":50.56841,
      "longitude":30.2651
    },{
      "name":"Irpin",
      "latitude":50.52175,
      "longitude":30.25055
    },{
      "name":"Ivankiv",
      "latitude":50.93864,
      "longitude":29.89426
    },{
      "name":"Kaharlyk",
      "latitude":49.86233,
      "longitude":30.82815
    },{
      "name":"Knyazhichi",
      "latitude":50.46275,
      "longitude":30.78369
    },{
      "name":"Makariv",
      "latitude":50.46408,
      "longitude":29.81128
    },{
      "name":"Myronivka",
      "latitude":49.66007,
      "longitude":30.98225
    },{
      "name":"Obukhiv",
      "latitude":50.10997,
      "longitude":30.62272
    },{
      "name":"Pereyaslav-Khmelnytskyy",
      "latitude":50.08768,
      "longitude":31.4795
    },{
      "name":"Piskivka",
      "latitude":50.69378,
      "longitude":29.61934
    },{
      "name":"Rzhyshchiv",
      "latitude":49.96886,
      "longitude":31.04628
    },{
      "name":"Skvyra",
      "latitude":49.73177,
      "longitude":29.66569
    },{
      "name":"Slavutich",
      "latitude":51.51964,
      "longitude":30.73434
    },{
      "name":"Sofiyivska Borschagivka",
      "latitude":50.41005,
      "longitude":30.36724
    },{
      "name":"Stavyshche",
      "latitude":50.40051,
      "longitude":29.52796
    },{
      "name":"Tarashcha",
      "latitude":49.55832,
      "longitude":30.49259
    },{
      "name":"Tetiyiv",
      "latitude":49.3767,
      "longitude":29.66474
    },{
      "name":"Trebukhiv",
      "latitude":50.48432,
      "longitude":30.90304
    },{
      "name":"Ukrainka",
      "latitude":50.14317,
      "longitude":30.74612
    },{
      "name":"Uzyn",
      "latitude":49.82619,
      "longitude":30.41487
    },{
      "name":"Vasylkiv",
      "latitude":50.18692,
      "longitude":30.31346
    },{
      "name":"Volodarka",
      "latitude":49.52484,
      "longitude":29.91222
    },{
      "name":"Vorzel",
      "latitude":50.5444,
      "longitude":30.15305
    },{
      "name":"Vyshhorod",
      "latitude":50.58476,
      "longitude":30.4898
    },{
      "name":"Vyshneve",
      "latitude":50.38913,
      "longitude":30.3705
    },{
      "name":"Yahotyn",
      "latitude":50.27975,
      "longitude":31.76246
    },{
      "name":"Zhurivka",
      "latitude":50.50276,
      "longitude":31.78492
    }]
  },{
    "name":"Luhanska Oblast",
    "cities":[{
      "name":"Alchevsk",
      "latitude":48.46893,
      "longitude":38.81669
    },{
      "name":"Antratsit",
      "latitude":48.11503,
      "longitude":39.09128
    },{
      "name":"Artemovsk",
      "latitude":48.44061,
      "longitude":38.732
    },{
      "name":"Beloye",
      "latitude":48.49523,
      "longitude":39.05051
    },{
      "name":"Bilokurakyne",
      "latitude":49.5341,
      "longitude":38.73067
    },{
      "name":"Bilovodsk",
      "latitude":49.20846,
      "longitude":39.58975
    },{
      "name":"Bryanka",
      "latitude":48.511,
      "longitude":38.67222
    },{
      "name":"Chernukhino",
      "latitude":48.3234,
      "longitude":38.52272
    },{
      "name":"Chervonopartizansk",
      "latitude":48.07613,
      "longitude":39.79618
    },{
      "name":"Gorskoye",
      "latitude":48.73468,
      "longitude":38.49541
    },{
      "name":"Kirovsk",
      "latitude":48.63751,
      "longitude":38.6428
    },{
      "name":"Krasnodon",
      "latitude":48.30856,
      "longitude":39.57374
    },{
      "name":"Krasnodon",
      "latitude":48.29229,
      "longitude":39.73729
    },{
      "name":"Krasnyy Luch",
      "latitude":48.13954,
      "longitude":38.93715
    },{
      "name":"Kreminna",
      "latitude":49.0495,
      "longitude":38.21792
    },{
      "name":"Krepenskiy",
      "latitude":48.0771,
      "longitude":39.058
    },{
      "name":"Lisichansk",
      "latitude":48.90485,
      "longitude":38.44207
    },{
      "name":"Luhansk",
      "latitude":48.56705,
      "longitude":39.31706
    },{
      "name":"Lutugino",
      "latitude":48.40507,
      "longitude":39.22675
    },{
      "name":"Markivka",
      "latitude":49.5229,
      "longitude":39.57055
    },{
      "name":"Milove",
      "latitude":49.37872,
      "longitude":40.13016
    },{
      "name":"Miusinsk",
      "latitude":48.0775,
      "longitude":38.90364
    },{
      "name":"Molodogvardeysk",
      "latitude":48.34578,
      "longitude":39.65824
    },{
      "name":"Novopskov",
      "latitude":49.5464,
      "longitude":39.08987
    },{
      "name":"Perevalsk",
      "latitude":48.43779,
      "longitude":38.84384
    },{
      "name":"Pervomaysk",
      "latitude":48.62988,
      "longitude":38.54806
    },{
      "name":"Popasnaya",
      "latitude":48.63328,
      "longitude":38.37804
    },{
      "name":"Pryvillya",
      "latitude":49.01501,
      "longitude":38.30458
    },{
      "name":"Roskoshnoye",
      "latitude":48.50743,
      "longitude":39.30036
    },{
      "name":"Rovenki",
      "latitude":48.08332,
      "longitude":39.37764
    },{
      "name":"Rubizhne",
      "latitude":49.01229,
      "longitude":38.37967
    },{
      "name":"Schastye",
      "latitude":48.73963,
      "longitude":39.2323
    },{
      "name":"Slov`yanoserbsk",
      "latitude":48.69779,
      "longitude":38.98133
    },{
      "name":"Stakhanov",
      "latitude":48.56818,
      "longitude":38.64352
    },{
      "name":"Starobilsk",
      "latitude":49.27832,
      "longitude":38.91069
    },{
      "name":"Svatove",
      "latitude":49.41029,
      "longitude":38.15035
    },{
      "name":"Sverdlovsk",
      "latitude":48.08964,
      "longitude":39.65243
    },{
      "name":"Syeverodonetsk",
      "latitude":48.94832,
      "longitude":38.49166
    },{
      "name":"Uspenka",
      "latitude":48.39028,
      "longitude":39.16194
    },{
      "name":"Zorinsk",
      "latitude":48.41194,
      "longitude":38.62361
    }]
  },{
    "name":"Lvivska Oblast",
    "cities":[{
      "name":"Boryslav",
      "latitude":49.28672,
      "longitude":23.43238
    },{
      "name":"Brody",
      "latitude":50.08791,
      "longitude":25.15027
    },{
      "name":"Bryukhovychi",
      "latitude":49.90467,
      "longitude":23.9597
    },{
      "name":"Chervonohrad",
      "latitude":50.39105,
      "longitude":24.23514
    },{
      "name":"Drohobych",
      "latitude":49.34991,
      "longitude":23.50561
    },{
      "name":"Dublyany",
      "latitude":49.90411,
      "longitude":24.08637
    },{
      "name":"Horodok",
      "latitude":49.78465,
      "longitude":23.64806
    },{
      "name":"Ivano-Frankove",
      "latitude":49.91978,
      "longitude":23.72913
    },{
      "name":"Khodoriv",
      "latitude":49.40663,
      "longitude":24.3136
    },{
      "name":"Krasne",
      "latitude":49.91447,
      "longitude":24.6134
    },{
      "name":"Lviv",
      "latitude":49.83826,
      "longitude":24.02324
    },{
      "name":"Morshyn",
      "latitude":49.15652,
      "longitude":23.87232
    },{
      "name":"Mostyska",
      "latitude":49.79467,
      "longitude":23.15077
    },{
      "name":"Mykolayiv",
      "latitude":49.52372,
      "longitude":23.98522
    },{
      "name":"Novoyavorivsk",
      "latitude":49.93023,
      "longitude":23.57357
    },{
      "name":"Peremyshlyany",
      "latitude":49.66523,
      "longitude":24.55846
    },{
      "name":"Pustomyty",
      "latitude":49.71532,
      "longitude":23.91295
    },{
      "name":"Rava-Ruska",
      "latitude":50.23079,
      "longitude":23.62826
    },{
      "name":"Rudne",
      "latitude":49.83333,
      "longitude":23.9
    },{
      "name":"Sambir",
      "latitude":49.5183,
      "longitude":23.19752
    },{
      "name":"Shchyrets",
      "latitude":49.65096,
      "longitude":23.87426
    },{
      "name":"Shklo",
      "latitude":49.95675,
      "longitude":23.54408
    },{
      "name":"Skole",
      "latitude":49.03717,
      "longitude":23.51346
    },{
      "name":"Slavske",
      "latitude":48.84734,
      "longitude":23.44587
    },{
      "name":"Sokal",
      "latitude":50.47438,
      "longitude":24.28288
    },{
      "name":"Staryy Dobrotvir",
      "latitude":50.23154,
      "longitude":24.377
    },{
      "name":"Staryy Sambor",
      "latitude":49.43856,
      "longitude":23.00056
    },{
      "name":"Stebnyk",
      "latitude":49.29416,
      "longitude":23.56357
    },{
      "name":"Stryi",
      "latitude":49.26223,
      "longitude":23.85609
    },{
      "name":"Sudova Vyshnya",
      "latitude":49.78892,
      "longitude":23.37218
    },{
      "name":"Truskavets",
      "latitude":49.27837,
      "longitude":23.50618
    },{
      "name":"Turka",
      "latitude":49.15411,
      "longitude":23.02967
    },{
      "name":"Yavoriv",
      "latitude":49.93864,
      "longitude":23.38254
    },{
      "name":"Zhovkva",
      "latitude":50.05825,
      "longitude":23.9726
    },{
      "name":"Zolochiv",
      "latitude":49.80597,
      "longitude":24.89436
    }]
  },{
    "name":"Misto Kyyiv",
    "cities":[{
      "name":"Kiev",
      "latitude":50.45466,
      "longitude":30.5238
    },{
      "name":"Kotsyubynske",
      "latitude":50.48836,
      "longitude":30.32957
    }]
  },{
    "name":"Misto Sevastopol",
    "cities":[{
      "name":"Balaklava",
      "latitude":44.51428,
      "longitude":33.60013
    },{
      "name":"Inkerman",
      "latitude":44.6139,
      "longitude":33.6098
    },{
      "name":"Sevastopol",
      "latitude":44.58883,
      "longitude":33.5224
    }]
  },{
    "name":"Mykolayivska Oblast",
    "cities":[{
      "name":"Aleksandrovka",
      "latitude":46.83826,
      "longitude":32.76116
    },{
      "name":"Arbuzynka",
      "latitude":47.90972,
      "longitude":31.31963
    },{
      "name":"Bashtanka",
      "latitude":47.40719,
      "longitude":32.43868
    },{
      "name":"Bereznehuvate",
      "latitude":47.30783,
      "longitude":32.84993
    },{
      "name":"Domanivka",
      "latitude":47.63192,
      "longitude":30.98852
    },{
      "name":"Kazanka",
      "latitude":47.84625,
      "longitude":32.82177
    },{
      "name":"Kryve Ozero",
      "latitude":47.95242,
      "longitude":30.34928
    },{
      "name":"Mykolayiv",
      "latitude":46.96591,
      "longitude":31.9974
    },{
      "name":"Nova Odesa",
      "latitude":47.30778,
      "longitude":31.78506
    },{
      "name":"Novyy Buh",
      "latitude":47.69308,
      "longitude":32.5216
    },{
      "name":"Ochakiv",
      "latitude":46.61283,
      "longitude":31.54982
    },{
      "name":"Pervomaysk",
      "latitude":48.04433,
      "longitude":30.85073
    },{
      "name":"Snihurivka",
      "latitude":47.07579,
      "longitude":32.80516
    },{
      "name":"Veselynove",
      "latitude":47.35666,
      "longitude":31.23488
    },{
      "name":"Voznesensk",
      "latitude":47.56494,
      "longitude":31.33078
    },{
      "name":"Vradiyivka",
      "latitude":47.86195,
      "longitude":30.59195
    },{
      "name":"Yuzhnoukrainsk",
      "latitude":47.81777,
      "longitude":31.18263
    }]
  },{
    "name":"Odeska Oblast",
    "cities":[{
      "name":"Artsyz",
      "latitude":45.99194,
      "longitude":29.41824
    },{
      "name":"Balta",
      "latitude":47.93548,
      "longitude":29.61982
    },{
      "name":"Berezivka",
      "latitude":47.20429,
      "longitude":30.9078
    },{
      "name":"Bilhorod-Dnistrovskyy",
      "latitude":46.1952,
      "longitude":30.34938
    },{
      "name":"Bilyayivka",
      "latitude":46.48319,
      "longitude":30.21678
    },{
      "name":"Bolhrad",
      "latitude":45.68262,
      "longitude":28.61487
    },{
      "name":"Fontanka",
      "latitude":46.56255,
      "longitude":30.86071
    },{
      "name":"Frunzivka",
      "latitude":47.33232,
      "longitude":29.75903
    },{
      "name":"Illichivsk",
      "latitude":46.30495,
      "longitude":30.65478
    },{
      "name":"Izmayil",
      "latitude":45.34929,
      "longitude":28.84079
    },{
      "name":"Kiliya",
      "latitude":45.45518,
      "longitude":29.26367
    },{
      "name":"Kodyma",
      "latitude":48.09875,
      "longitude":29.12463
    },{
      "name":"Kotovsk",
      "latitude":47.75305,
      "longitude":29.53205
    },{
      "name":"Krasni Okny",
      "latitude":47.54044,
      "longitude":29.46001
    },{
      "name":"Lymanske",
      "latitude":46.6557,
      "longitude":29.96722
    },{
      "name":"Lyubashivka",
      "latitude":47.83716,
      "longitude":30.25976
    },{
      "name":"Mayaky",
      "latitude":47.44083,
      "longitude":29.55986
    },{
      "name":"Odessa",
      "latitude":46.47747,
      "longitude":30.73262
    },{
      "name":"Ovidiopol",
      "latitude":46.24998,
      "longitude":30.44127
    },{
      "name":"Ozerne",
      "latitude":45.403,
      "longitude":28.67546
    },{
      "name":"Plakhtiyivka",
      "latitude":46.1006,
      "longitude":29.72169
    },{
      "name":"Reni",
      "latitude":45.45727,
      "longitude":28.29317
    },{
      "name":"Rozdilna",
      "latitude":46.84334,
      "longitude":30.07919
    },{
      "name":"Sarata",
      "latitude":46.01966,
      "longitude":29.66567
    },{
      "name":"Savran",
      "latitude":48.13219,
      "longitude":30.08247
    },{
      "name":"Sergeyevka",
      "latitude":46.0272,
      "longitude":30.37682
    },{
      "name":"Shabo",
      "latitude":46.13262,
      "longitude":30.38595
    },{
      "name":"Shevchenkove",
      "latitude":45.55604,
      "longitude":29.33357
    },{
      "name":"Shyryayeve",
      "latitude":47.38052,
      "longitude":30.19638
    },{
      "name":"Starokozache",
      "latitude":46.33722,
      "longitude":29.98528
    },{
      "name":"Tarutyne",
      "latitude":46.18636,
      "longitude":29.15203
    },{
      "name":"Tatarbunary",
      "latitude":45.83731,
      "longitude":29.61424
    },{
      "name":"Teplodar",
      "latitude":46.50585,
      "longitude":30.3252
    },{
      "name":"Usatove",
      "latitude":46.53296,
      "longitude":30.6596
    },{
      "name":"Velyka Mykhaylivka",
      "latitude":47.07971,
      "longitude":29.85753
    },{
      "name":"Vylkove",
      "latitude":45.40214,
      "longitude":29.58595
    },{
      "name":"Yuzhne",
      "latitude":46.62211,
      "longitude":31.10131
    },{
      "name":"Zarya",
      "latitude":45.9908,
      "longitude":29.69672
    }]
  },{
    "name":"Poltavska Oblast",
    "cities":[{
      "name":"Chutove",
      "latitude":49.71043,
      "longitude":35.16571
    },{
      "name":"Dykanka",
      "latitude":49.82501,
      "longitude":34.52787
    },{
      "name":"Gradizhsk",
      "latitude":49.23458,
      "longitude":33.13613
    },{
      "name":"Hadyach",
      "latitude":50.37112,
      "longitude":33.99099
    },{
      "name":"Hlobyne",
      "latitude":49.38784,
      "longitude":33.25959
    },{
      "name":"Hrebinka",
      "latitude":50.11712,
      "longitude":32.4361
    },{
      "name":"Karlivka",
      "latitude":49.45668,
      "longitude":35.12947
    },{
      "name":"Khorol",
      "latitude":49.78367,
      "longitude":33.27833
    },{
      "name":"Kobelyaky",
      "latitude":49.14892,
      "longitude":34.19653
    },{
      "name":"Komsomolsk",
      "latitude":49.01018,
      "longitude":33.63567
    },{
      "name":"Kotelva",
      "latitude":50.06864,
      "longitude":34.75862
    },{
      "name":"Kremenchuk",
      "latitude":49.06802,
      "longitude":33.42041
    },{
      "name":"Lokhvytsya",
      "latitude":50.36776,
      "longitude":33.26024
    },{
      "name":"Lubny",
      "latitude":50.01625,
      "longitude":32.99694
    },{
      "name":"Myrhorod",
      "latitude":49.96854,
      "longitude":33.60886
    },{
      "name":"Novi Sanzhary",
      "latitude":49.34395,
      "longitude":34.31084
    },{
      "name":"Oposhnya",
      "latitude":49.95652,
      "longitude":34.61226
    },{
      "name":"Poltava",
      "latitude":49.59373,
      "longitude":34.54073
    },{
      "name":"Pyryatyn",
      "latitude":50.2445,
      "longitude":32.51073
    },{
      "name":"Reshetylivka",
      "latitude":49.56501,
      "longitude":34.07815
    },{
      "name":"Semenivka",
      "latitude":49.59031,
      "longitude":33.18049
    },{
      "name":"Shyshaky",
      "latitude":49.88175,
      "longitude":34.01118
    },{
      "name":"Velyka Bahachka",
      "latitude":49.79116,
      "longitude":33.72258
    },{
      "name":"Zinkiv",
      "latitude":50.20806,
      "longitude":34.36376
    }]
  },{
    "name":"Rivnenska Oblast",
    "cities":[{
      "name":"Dubno",
      "latitude":50.41694,
      "longitude":25.73432
    },{
      "name":"Dubrovytsya",
      "latitude":51.57438,
      "longitude":26.56503
    },{
      "name":"Hoshcha",
      "latitude":50.6003,
      "longitude":26.67435
    },{
      "name":"Korets",
      "latitude":50.61654,
      "longitude":27.16055
    },{
      "name":"Kostopil",
      "latitude":50.87841,
      "longitude":26.45192
    },{
      "name":"Kuznetsovsk",
      "latitude":51.68333,
      "longitude":25.86667
    },{
      "name":"Mlyniv",
      "latitude":50.509,
      "longitude":25.61675
    },{
      "name":"Ostroh",
      "latitude":50.32942,
      "longitude":26.51425
    },{
      "name":"Radyvyliv",
      "latitude":50.12994,
      "longitude":25.25576
    },{
      "name":"Rivne",
      "latitude":50.62308,
      "longitude":26.22743
    },{
      "name":"Rokytne",
      "latitude":51.2796,
      "longitude":27.214
    },{
      "name":"Sarny",
      "latitude":51.33795,
      "longitude":26.60191
    },{
      "name":"Volodymyrets",
      "latitude":51.4213,
      "longitude":26.14469
    },{
      "name":"Zarichne",
      "latitude":51.8126,
      "longitude":26.12902
    },{
      "name":"Zdolbuniv",
      "latitude":50.5206,
      "longitude":26.24251
    }]
  },{
    "name":"Sumska Oblast",
    "cities":[{
      "name":"Bilopillya",
      "latitude":51.15016,
      "longitude":34.31287
    },{
      "name":"Buryn",
      "latitude":51.19912,
      "longitude":33.83523
    },{
      "name":"Druzhba",
      "latitude":52.04545,
      "longitude":33.94517
    },{
      "name":"Hlukhiv",
      "latitude":51.67822,
      "longitude":33.9162
    },{
      "name":"Konotop",
      "latitude":51.24032,
      "longitude":33.20263
    },{
      "name":"Krasnopillya",
      "latitude":50.77458,
      "longitude":35.25965
    },{
      "name":"Krolevets",
      "latitude":51.54775,
      "longitude":33.38475
    },{
      "name":"Lebedyn",
      "latitude":50.58518,
      "longitude":34.4849
    },{
      "name":"Lypova Dolyna",
      "latitude":50.56428,
      "longitude":33.79793
    },{
      "name":"Nedryhayliv",
      "latitude":50.83398,
      "longitude":33.87626
    },{
      "name":"Okhtyrka",
      "latitude":50.31036,
      "longitude":34.89879
    },{
      "name":"Putyvl",
      "latitude":51.33745,
      "longitude":33.87066
    },{
      "name":"Romny",
      "latitude":50.75104,
      "longitude":33.47471
    },{
      "name":"Seredyna-Buda",
      "latitude":52.18902,
      "longitude":34.03639
    },{
      "name":"Shostka",
      "latitude":51.86296,
      "longitude":33.4698
    },{
      "name":"Sumy",
      "latitude":50.9216,
      "longitude":34.80029
    },{
      "name":"Trostyanets",
      "latitude":50.48478,
      "longitude":34.96567
    },{
      "name":"Velyka Pysarivka",
      "latitude":50.4243,
      "longitude":35.47989
    },{
      "name":"Vorozhba",
      "latitude":51.17334,
      "longitude":34.21917
    },{
      "name":"Yampil",
      "latitude":51.94765,
      "longitude":33.78759
    }]
  },{
    "name":"Ternopilska Oblast",
    "cities":[{
      "name":"Berezhani",
      "latitude":49.45,
      "longitude":24.93333
    },{
      "name":"Borshchiv",
      "latitude":48.80332,
      "longitude":26.04347
    },{
      "name":"Buchach",
      "latitude":49.06254,
      "longitude":25.38798
    },{
      "name":"Chortkiv",
      "latitude":49.01709,
      "longitude":25.79804
    },{
      "name":"Husyatyn",
      "latitude":49.07263,
      "longitude":26.2141
    },{
      "name":"Khorostkiv",
      "latitude":49.21114,
      "longitude":25.92165
    },{
      "name":"Kopychyntsi",
      "latitude":49.10441,
      "longitude":25.91026
    },{
      "name":"Kozova",
      "latitude":49.43544,
      "longitude":25.15086
    },{
      "name":"Kremenets",
      "latitude":50.09693,
      "longitude":25.72459
    },{
      "name":"Lanivtsi",
      "latitude":49.86328,
      "longitude":26.09082
    },{
      "name":"Pochayiv",
      "latitude":50.00508,
      "longitude":25.51183
    },{
      "name":"Terebovlya",
      "latitude":49.30187,
      "longitude":25.70997
    },{
      "name":"Ternopil",
      "latitude":49.55589,
      "longitude":25.60556
    },{
      "name":"Zalishchyky",
      "latitude":48.64331,
      "longitude":25.73794
    },{
      "name":"Zbarazh",
      "latitude":49.66357,
      "longitude":25.77616
    },{
      "name":"Zboriv",
      "latitude":49.66484,
      "longitude":25.14096
    }]
  },{
    "name":"Vinnytska Oblast",
    "cities":[{
      "name":"Bar",
      "latitude":49.07717,
      "longitude":27.68256
    },{
      "name":"Bratslav",
      "latitude":48.82257,
      "longitude":28.9407
    },{
      "name":"Chechelnyk",
      "latitude":48.21509,
      "longitude":29.36728
    },{
      "name":"Haysyn",
      "latitude":48.81143,
      "longitude":29.38977
    },{
      "name":"Illintsi",
      "latitude":49.10479,
      "longitude":29.21773
    },{
      "name":"Kalynivka",
      "latitude":49.45389,
      "longitude":28.52608
    },{
      "name":"Khmilnyk",
      "latitude":49.55979,
      "longitude":27.95754
    },{
      "name":"Kozyatyn",
      "latitude":49.71431,
      "longitude":28.83385
    },{
      "name":"Ladyzhyn",
      "latitude":48.68496,
      "longitude":29.23678
    },{
      "name":"Lityn",
      "latitude":49.32509,
      "longitude":28.08094
    },{
      "name":"Mohyliv-Podilskyy",
      "latitude":48.44598,
      "longitude":27.7982
    },{
      "name":"Murovani Kurylivtsi",
      "latitude":48.72348,
      "longitude":27.51892
    },{
      "name":"Nemyriv",
      "latitude":48.97076,
      "longitude":28.83779
    },{
      "name":"Pohrebyshche",
      "latitude":49.48639,
      "longitude":29.26361
    },{
      "name":"Sharhorod",
      "latitude":48.73835,
      "longitude":28.08497
    },{
      "name":"Sutysky",
      "latitude":49.04245,
      "longitude":28.41732
    },{
      "name":"Teplyk",
      "latitude":48.66566,
      "longitude":29.74504
    },{
      "name":"Tulchyn",
      "latitude":48.67448,
      "longitude":28.84641
    },{
      "name":"Turbiv",
      "latitude":49.34788,
      "longitude":28.72117
    },{
      "name":"Vapnyarka",
      "latitude":48.53479,
      "longitude":28.74358
    },{
      "name":"Vinnytsya",
      "latitude":49.23278,
      "longitude":28.48097
    },{
      "name":"Voronovytsya",
      "latitude":49.10954,
      "longitude":28.68078
    },{
      "name":"Zhmerynka",
      "latitude":49.03705,
      "longitude":28.11201
    }]
  },{
    "name":"Volynska Oblast",
    "cities":[{
      "name":"Kamin-Kashyrskyy",
      "latitude":51.62412,
      "longitude":24.95864
    },{
      "name":"Kivertsi",
      "latitude":50.83425,
      "longitude":25.45821
    },{
      "name":"Kovel",
      "latitude":51.21526,
      "longitude":24.70867
    },{
      "name":"Lutsk",
      "latitude":50.75932,
      "longitude":25.34244
    },{
      "name":"Lyuboml",
      "latitude":51.22601,
      "longitude":24.03727
    },{
      "name":"Novovolynsk",
      "latitude":50.72576,
      "longitude":24.16265
    },{
      "name":"Ratne",
      "latitude":51.6683,
      "longitude":24.5303
    },{
      "name":"Rozhyshche",
      "latitude":50.91542,
      "longitude":25.26906
    },{
      "name":"Shatsk",
      "latitude":51.50208,
      "longitude":23.93806
    },{
      "name":"Stara Vyzhivka",
      "latitude":51.43762,
      "longitude":24.43997
    },{
      "name":"Volodymyr-Volynskyy",
      "latitude":50.85253,
      "longitude":24.32364
    }]
  },{
    "name":"Zakarpattia Oblast",
    "cities":[{
      "name":"Berehove",
      "latitude":48.20555,
      "longitude":22.64418
    },{
      "name":"Bilky",
      "latitude":48.31503,
      "longitude":23.13248
    },{
      "name":"Bushtyno",
      "latitude":48.05121,
      "longitude":23.48579
    },{
      "name":"Chop",
      "latitude":48.43198,
      "longitude":22.20555
    },{
      "name":"Chynadiyovo",
      "latitude":48.48179,
      "longitude":22.8217
    },{
      "name":"Dovhe",
      "latitude":48.36527,
      "longitude":23.27904
    },{
      "name":"Dubove",
      "latitude":48.17205,
      "longitude":23.88954
    },{
      "name":"Irshava",
      "latitude":48.31667,
      "longitude":23.03846
    },{
      "name":"Iza",
      "latitude":48.21525,
      "longitude":23.32866
    },{
      "name":"Kalyny",
      "latitude":48.14078,
      "longitude":23.8738
    },{
      "name":"Khust",
      "latitude":48.1793,
      "longitude":23.29909
    },{
      "name":"Korolevo",
      "latitude":48.15247,
      "longitude":23.13659
    },{
      "name":"Mizhhirya",
      "latitude":48.51876,
      "longitude":23.50233
    },{
      "name":"Mukacheve",
      "latitude":48.43919,
      "longitude":22.71779
    },{
      "name":"Perechyn",
      "latitude":48.73616,
      "longitude":22.482
    },{
      "name":"Rakhiv",
      "latitude":48.0526,
      "longitude":24.20089
    },{
      "name":"Serednye Vodyane",
      "latitude":47.98159,
      "longitude":23.91041
    },{
      "name":"Solotvyno",
      "latitude":47.94604,
      "longitude":23.87035
    },{
      "name":"Svalyava",
      "latitude":48.54853,
      "longitude":22.99578
    },{
      "name":"Tyachiv",
      "latitude":48.0118,
      "longitude":23.57061
    },{
      "name":"Uzhhorod",
      "latitude":48.61667,
      "longitude":22.3
    },{
      "name":"Velykyi Bereznyi",
      "latitude":48.88831,
      "longitude":22.46052
    },{
      "name":"Volovets",
      "latitude":48.7109,
      "longitude":23.1851
    },{
      "name":"Volovo",
      "latitude":48.52458,
      "longitude":23.50563
    },{
      "name":"Vynohradiv",
      "latitude":48.14135,
      "longitude":23.02666
    },{
      "name":"Vyshkovo",
      "latitude":48.04911,
      "longitude":23.42113
    },{
      "name":"Yasinya",
      "latitude":48.27937,
      "longitude":24.36042
    }]
  },{
    "name":"Zaporizka Oblast",
    "cities":[{
      "name":"Balky",
      "latitude":47.38336,
      "longitude":34.94396
    },{
      "name":"Berdyansk",
      "latitude":46.7663,
      "longitude":36.79882
    },{
      "name":"Dniprorudne",
      "latitude":47.38169,
      "longitude":34.97652
    },{
      "name":"Energodar",
      "latitude":47.49865,
      "longitude":34.6574
    },{
      "name":"Hulyaypole",
      "latitude":47.66389,
      "longitude":36.25633
    },{
      "name":"Komyshuvakha",
      "latitude":47.71758,
      "longitude":35.52882
    },{
      "name":"Kostyantynivka",
      "latitude":46.81673,
      "longitude":35.42287
    },{
      "name":"Kushuhum",
      "latitude":47.71278,
      "longitude":35.20917
    },{
      "name":"Kuybysheve",
      "latitude":47.358,
      "longitude":36.64908
    },{
      "name":"Mala Bilozerka",
      "latitude":47.24737,
      "longitude":34.93457
    },{
      "name":"Melitopol",
      "latitude":46.84891,
      "longitude":35.36533
    },{
      "name":"Mykhaylivka",
      "latitude":47.27235,
      "longitude":35.22235
    },{
      "name":"Novomykolayivka",
      "latitude":47.9781,
      "longitude":35.9102
    },{
      "name":"Orikhiv",
      "latitude":47.56731,
      "longitude":35.78575
    },{
      "name":"Polohy",
      "latitude":47.48444,
      "longitude":36.25361
    },{
      "name":"Prymorsk",
      "latitude":46.73479,
      "longitude":36.34425
    },{
      "name":"Tokmak",
      "latitude":47.25522,
      "longitude":35.71238
    },{
      "name":"Vasylivka",
      "latitude":47.43694,
      "longitude":35.27417
    },{
      "name":"Vesele",
      "latitude":47.01479,
      "longitude":34.91504
    },{
      "name":"Vodyane",
      "latitude":47.48746,
      "longitude":34.49235
    },{
      "name":"Yakymivka",
      "latitude":46.69972,
      "longitude":35.15916
    },{
      "name":"Zaporizhzhya",
      "latitude":47.82289,
      "longitude":35.19031
    }]
  },{
    "name":"Zhytomyrska Oblast",
    "cities":[{
      "name":"Andrushivka",
      "latitude":50.02288,
      "longitude":29.02023
    },{
      "name":"Baranovka",
      "latitude":50.29691,
      "longitude":27.6622
    },{
      "name":"Berdychiv",
      "latitude":49.89928,
      "longitude":28.60235
    },{
      "name":"Brusyliv",
      "latitude":50.28449,
      "longitude":29.52626
    },{
      "name":"Chernyakhiv",
      "latitude":50.45652,
      "longitude":28.67018
    },{
      "name":"Chudniv",
      "latitude":50.05204,
      "longitude":28.11745
    },{
      "name":"Horodnytsya",
      "latitude":50.80697,
      "longitude":27.31676
    },{
      "name":"Korosten",
      "latitude":50.95937,
      "longitude":28.63855
    },{
      "name":"Korostyshiv",
      "latitude":50.31723,
      "longitude":29.0563
    },{
      "name":"Malyn",
      "latitude":50.77233,
      "longitude":29.23833
    },{
      "name":"Nova Borova",
      "latitude":50.69296,
      "longitude":28.63446
    },{
      "name":"Novohrad-Volynskyy",
      "latitude":50.59412,
      "longitude":27.6165
    },{
      "name":"Ovruch",
      "latitude":51.3246,
      "longitude":28.80351
    },{
      "name":"Ozerne",
      "latitude":50.17816,
      "longitude":28.73384
    },{
      "name":"Popilnya",
      "latitude":49.96652,
      "longitude":29.44353
    },{
      "name":"Radomyshl",
      "latitude":50.49613,
      "longitude":29.22911
    },{
      "name":"Zhytomyr",
      "latitude":50.26487,
      "longitude":28.67669
    }]
  }]
}
