{
  "name":"Zambia",
  "regions":[{
    "name":"Central Province",
    "cities":[{
      "name":"Kabwe",
      "latitude":-14.4469,
      "longitude":28.44644
    },{
      "name":"Kapiri Mposhi",
      "latitude":-13.97147,
      "longitude":28.66985
    },{
      "name":"Mkushi",
      "latitude":-13.62015,
      "longitude":29.3939
    },{
      "name":"Mumbwa",
      "latitude":-14.98293,
      "longitude":27.0619
    },{
      "name":"Serenje",
      "latitude":-13.23251,
      "longitude":30.23522
    }]
  },{
    "name":"Copperbelt Province",
    "cities":[{
      "name":"Chambishi",
      "latitude":-12.63247,
      "longitude":28.05367
    },{
      "name":"Chililabombwe",
      "latitude":-12.36475,
      "longitude":27.82286
    },{
      "name":"Chingola",
      "latitude":-12.52897,
      "longitude":27.88382
    },{
      "name":"Kalulushi",
      "latitude":-12.84151,
      "longitude":28.09479
    },{
      "name":"Kataba",
      "latitude":-11.88333,
      "longitude":29.78333
    },{
      "name":"Kitwe",
      "latitude":-12.80243,
      "longitude":28.21323
    },{
      "name":"Luanshya",
      "latitude":-13.13667,
      "longitude":28.41661
    },{
      "name":"Mpongwe",
      "latitude":-13.50914,
      "longitude":28.15504
    },{
      "name":"Mufulira",
      "latitude":-12.54982,
      "longitude":28.24071
    },{
      "name":"Ndola",
      "latitude":-12.95867,
      "longitude":28.63659
    }]
  },{
    "name":"Eastern Province",
    "cities":[{
      "name":"Chipata",
      "latitude":-13.63333,
      "longitude":32.65
    },{
      "name":"Lundazi",
      "latitude":-12.29292,
      "longitude":33.1782
    },{
      "name":"Petauke",
      "latitude":-14.24264,
      "longitude":31.3253
    }]
  },{
    "name":"Luapula Province",
    "cities":[{
      "name":"Kawambwa",
      "latitude":-9.7915,
      "longitude":29.07913
    },{
      "name":"Mansa",
      "latitude":-11.19976,
      "longitude":28.89431
    },{
      "name":"Nchelenge",
      "latitude":-9.34506,
      "longitude":28.73396
    },{
      "name":"Samfya",
      "latitude":-11.36491,
      "longitude":29.55652
    }]
  },{
    "name":"Lusaka Province",
    "cities":[{
      "name":"Chongwe",
      "latitude":-15.32916,
      "longitude":28.68204
    },{
      "name":"Kafue",
      "latitude":-15.76911,
      "longitude":28.18136
    },{
      "name":"Lusaka",
      "latitude":-15.40669,
      "longitude":28.28713
    }]
  },{
    "name":"North-Western Province",
    "cities":[{
      "name":"Kabompo",
      "latitude":-13.59268,
      "longitude":24.20081
    },{
      "name":"Kalengwa",
      "latitude":-13.46586,
      "longitude":25.00271
    },{
      "name":"Kansanshi",
      "latitude":-12.09514,
      "longitude":26.42727
    },{
      "name":"Kasempa",
      "latitude":-13.45836,
      "longitude":25.8338
    },{
      "name":"Mufumbwe",
      "latitude":-13.68333,
      "longitude":24.8
    },{
      "name":"Mwinilunga",
      "latitude":-11.73584,
      "longitude":24.42926
    },{
      "name":"Solwezi",
      "latitude":-12.1688,
      "longitude":26.38938
    },{
      "name":"Zambezi",
      "latitude":-13.54323,
      "longitude":23.10466
    }]
  },{
    "name":"Northern Province",
    "cities":[{
      "name":"Chinsali",
      "latitude":-10.54142,
      "longitude":32.08162
    },{
      "name":"Isoka",
      "latitude":-10.16062,
      "longitude":32.63353
    },{
      "name":"Kasama",
      "latitude":-10.21289,
      "longitude":31.18084
    },{
      "name":"Luwingu",
      "latitude":-10.2621,
      "longitude":29.92712
    },{
      "name":"Mbala",
      "latitude":-8.84024,
      "longitude":31.36587
    },{
      "name":"Mpika",
      "latitude":-11.83431,
      "longitude":31.45287
    },{
      "name":"Mpulungu",
      "latitude":-8.76234,
      "longitude":31.11405
    },{
      "name":"Mungwi",
      "latitude":-10.1732,
      "longitude":31.36942
    },{
      "name":"Nakonde",
      "latitude":-9.34213,
      "longitude":32.745
    }]
  },{
    "name":"Southern Province",
    "cities":[{
      "name":"Choma",
      "latitude":-16.80648,
      "longitude":26.95306
    },{
      "name":"Livingstone",
      "latitude":-17.84194,
      "longitude":25.85425
    },{
      "name":"Maamba",
      "latitude":-17.36667,
      "longitude":27.15
    },{
      "name":"Mazabuka",
      "latitude":-15.85601,
      "longitude":27.748
    },{
      "name":"Monze",
      "latitude":-16.28333,
      "longitude":27.48333
    },{
      "name":"Nakambala",
      "latitude":-15.83244,
      "longitude":27.77994
    },{
      "name":"Siavonga",
      "latitude":-16.53818,
      "longitude":28.70876
    },{
      "name":"Sinazongwe",
      "latitude":-17.2614,
      "longitude":27.46179
    }]
  },{
    "name":"Western Province",
    "cities":[{
      "name":"Kalabo",
      "latitude":-14.97004,
      "longitude":22.68138
    },{
      "name":"Kaoma",
      "latitude":-14.78333,
      "longitude":24.8
    },{
      "name":"Limulunga",
      "latitude":-15.09691,
      "longitude":23.13758
    },{
      "name":"Mongu",
      "latitude":-15.24835,
      "longitude":23.12741
    },{
      "name":"Senanga",
      "latitude":-16.11667,
      "longitude":23.26667
    },{
      "name":"Sesheke",
      "latitude":-17.47593,
      "longitude":24.29684
    }]
  }]
}
