{
  "name":"Zimbabwe",
  "regions":[{
    "name":"Bulawayo Province",
    "cities":[{
      "name":"Bulawayo",
      "latitude":-20.15,
      "longitude":28.58333
    }]
  },{
    "name":"Harare Province",
    "cities":[{
      "name":"Chitungwiza",
      "latitude":-18.01274,
      "longitude":31.07555
    },{
      "name":"Epworth",
      "latitude":-17.89,
      "longitude":31.1475
    },{
      "name":"Harare",
      "latitude":-17.82772,
      "longitude":31.05337
    }]
  },{
    "name":"Manicaland Province",
    "cities":[{
      "name":"Chipinge",
      "latitude":-20.18833,
      "longitude":32.62364
    },{
      "name":"Mutare",
      "latitude":-18.9707,
      "longitude":32.67086
    },{
      "name":"Penhalonga",
      "latitude":-18.89112,
      "longitude":32.69781
    },{
      "name":"Rusape",
      "latitude":-18.52785,
      "longitude":32.12843
    }]
  },{
    "name":"Mashonaland Central Province",
    "cities":[{
      "name":"Bindura",
      "latitude":-17.30192,
      "longitude":31.33056
    },{
      "name":"Glendale",
      "latitude":-17.35514,
      "longitude":31.06718
    },{
      "name":"Mazoe",
      "latitude":-17.50404,
      "longitude":30.97388
    },{
      "name":"Mount Darwin",
      "latitude":-16.77251,
      "longitude":31.58381
    },{
      "name":"Mvurwi",
      "latitude":-17.03333,
      "longitude":30.85
    },{
      "name":"Shamva",
      "latitude":-17.31159,
      "longitude":31.57561
    }]
  },{
    "name":"Mashonaland East Province",
    "cities":[{
      "name":"Chivhu",
      "latitude":-19.02112,
      "longitude":30.89218
    },{
      "name":"Marondera",
      "latitude":-18.18527,
      "longitude":31.55193
    },{
      "name":"Murehwa",
      "latitude":-17.64322,
      "longitude":31.784
    },{
      "name":"Mutoko",
      "latitude":-17.39699,
      "longitude":32.22677
    }]
  },{
    "name":"Mashonaland West Province",
    "cities":[{
      "name":"Banket",
      "latitude":-17.38333,
      "longitude":30.4
    },{
      "name":"Chakari",
      "latitude":-18.06294,
      "longitude":29.89246
    },{
      "name":"Chegutu",
      "latitude":-18.13021,
      "longitude":30.14074
    },{
      "name":"Chinhoyi",
      "latitude":-17.36667,
      "longitude":30.2
    },{
      "name":"Kadoma",
      "latitude":-18.33328,
      "longitude":29.91534
    },{
      "name":"Kariba",
      "latitude":-16.51667,
      "longitude":28.8
    },{
      "name":"Karoi",
      "latitude":-16.80993,
      "longitude":29.69247
    },{
      "name":"Mhangura",
      "latitude":-16.89386,
      "longitude":30.16828
    },{
      "name":"Norton",
      "latitude":-17.88333,
      "longitude":30.7
    }]
  },{
    "name":"Masvingo Province",
    "cities":[{
      "name":"Chiredzi",
      "latitude":-21.05,
      "longitude":31.66667
    },{
      "name":"Mashava",
      "latitude":-20.03665,
      "longitude":30.48225
    },{
      "name":"Masvingo",
      "latitude":-20.06373,
      "longitude":30.82766
    },{
      "name":"Zvishavane",
      "latitude":-20.32674,
      "longitude":30.06648
    }]
  },{
    "name":"Matabeleland North Province",
    "cities":[{
      "name":"Hwange",
      "latitude":-18.36927,
      "longitude":26.50194
    },{
      "name":"Inyathi",
      "latitude":-19.67563,
      "longitude":28.84687
    },{
      "name":"Lupane",
      "latitude":-18.93149,
      "longitude":27.80696
    },{
      "name":"Victoria Falls",
      "latitude":-17.92353,
      "longitude":25.84299
    }]
  },{
    "name":"Matabeleland South Province",
    "cities":[{
      "name":"Beitbridge",
      "latitude":-22.21667,
      "longitude":30.0
    },{
      "name":"Gwanda",
      "latitude":-20.93333,
      "longitude":29.0
    }]
  },{
    "name":"Midlands Province",
    "cities":[{
      "name":"Gokwe",
      "latitude":-18.20476,
      "longitude":28.9349
    },{
      "name":"Gweru",
      "latitude":-19.45,
      "longitude":29.81667
    },{
      "name":"Kwekwe",
      "latitude":-18.9281,
      "longitude":29.81486
    },{
      "name":"Redcliff",
      "latitude":-19.03333,
      "longitude":29.78333
    },{
      "name":"Shurugwi",
      "latitude":-19.67016,
      "longitude":30.00589
    }]
  }]
}
