{
  "name":"Aland Islands",
  "regions":[{
    "name":"Braendoe",
    "cities":[{
      "name":"Braendoe",
      "latitude":60.41165,
      "longitude":21.04534
    }]
  },{
    "name":"Eckeroe",
    "cities":[{
      "name":"Eckeroe",
      "latitude":60.21249,
      "longitude":19.61442
    }]
  },{
    "name":"Finstroem",
    "cities":[{
      "name":"Finstroem",
      "latitude":60.26667,
      "longitude":19.93333
    }]
  },{
    "name":"Foegloe",
    "cities":[{
      "name":"Foegloe",
      "latitude":60.01667,
      "longitude":20.41667
    }]
  },{
    "name":"Geta",
    "cities":[{
      "name":"Geta",
      "latitude":60.37453,
      "longitude":19.84455
    }]
  },{
    "name":"Hammarland",
    "cities":[{
      "name":"Hammarland",
      "latitude":60.21667,
      "longitude":19.75
    }]
  },{
    "name":"Jomala",
    "cities":[{
      "name":"Jomala",
      "latitude":60.14902,
      "longitude":19.951
    }]
  },{
    "name":"Koekar",
    "cities":[{
      "name":"Koekar",
      "latitude":59.92051,
      "longitude":20.90883
    }]
  },{
    "name":"Kumlinge",
    "cities":[{
      "name":"Kumlinge",
      "latitude":60.26013,
      "longitude":20.77892
    }]
  },{
    "name":"Lemland",
    "cities":[{
      "name":"Lemland",
      "latitude":60.07178,
      "longitude":20.08472
    }]
  },{
    "name":"Lumparland",
    "cities":[{
      "name":"Lumparland",
      "latitude":60.11695,
      "longitude":20.25819
    }]
  },{
    "name":"Mariehamn",
    "cities":[{
      "name":"Mariehamn",
      "latitude":60.09726,
      "longitude":19.93481
    }]
  },{
    "name":"Saltvik",
    "cities":[{
      "name":"Saltvik",
      "latitude":60.28333,
      "longitude":20.05
    }]
  },{
    "name":"Sottunga",
    "cities":[{
      "name":"Sottunga",
      "latitude":60.13023,
      "longitude":20.66683
    }]
  },{
    "name":"Sund",
    "cities":[{
      "name":"Sund",
      "latitude":60.25,
      "longitude":20.11667
    }]
  },{
    "name":"Vardoe",
    "cities":[{
      "name":"Vardoe",
      "latitude":60.25,
      "longitude":20.38333
    }]
  }]
}
