{
  "name":"Bosnia and Herzegovina",
  "regions":[{
    "name":"Bosnia and Herzegovina",
    "cities":[{
      "name":"Banovici",
      "latitude":44.40596,
      "longitude":18.52648
    }]
  },{
    "name":"Brcko",
    "cities":[{
      "name":"Brcko",
      "latitude":44.87278,
      "longitude":18.80833
    }]
  },{
    "name":"Federation of Bosnia and Herzegovina",
    "cities":[{
      "name":"Bihac",
      "latitude":44.81694,
      "longitude":15.87083
    },{
      "name":"Bosanska Krupa",
      "latitude":44.8825,
      "longitude":16.15139
    },{
      "name":"Bosansko Grahovo",
      "latitude":44.17944,
      "longitude":16.36389
    },{
      "name":"Bugojno",
      "latitude":44.05722,
      "longitude":17.45083
    },{
      "name":"Buzim",
      "latitude":45.05361,
      "longitude":16.03254
    },{
      "name":"Capljina",
      "latitude":43.12139,
      "longitude":17.68444
    },{
      "name":"Cazin",
      "latitude":44.96694,
      "longitude":15.94306
    },{
      "name":"Citluk",
      "latitude":43.22861,
      "longitude":17.70083
    },{
      "name":"Coralici",
      "latitude":45.00694,
      "longitude":15.87194
    },{
      "name":"Crnici",
      "latitude":43.13156,
      "longitude":17.86452
    },{
      "name":"Divicani",
      "latitude":44.36682,
      "longitude":17.32678
    },{
      "name":"Donja Mahala",
      "latitude":45.04327,
      "longitude":18.66996
    },{
      "name":"Donji Vakuf",
      "latitude":44.14361,
      "longitude":17.4
    },{
      "name":"Fojnica",
      "latitude":43.95952,
      "longitude":17.90288
    },{
      "name":"Gorazde",
      "latitude":43.66795,
      "longitude":18.97564
    },{
      "name":"Gornji Vakuf",
      "latitude":43.93806,
      "longitude":17.58833
    },{
      "name":"Gostovici",
      "latitude":44.41124,
      "longitude":18.17029
    },{
      "name":"Gracanica",
      "latitude":44.70307,
      "longitude":18.3101
    },{
      "name":"Gradacac",
      "latitude":44.87851,
      "longitude":18.42764
    },{
      "name":"Gromiljak",
      "latitude":43.96668,
      "longitude":18.05504
    },{
      "name":"Hadzici",
      "latitude":43.82222,
      "longitude":18.20667
    },{
      "name":"Ilijas",
      "latitude":43.95128,
      "longitude":18.27128
    },{
      "name":"Jablanica",
      "latitude":43.66028,
      "longitude":17.76167
    },{
      "name":"Jajce",
      "latitude":44.34203,
      "longitude":17.27059
    },{
      "name":"Jelah",
      "latitude":44.654,
      "longitude":17.95897
    },{
      "name":"Kacuni",
      "latitude":44.06433,
      "longitude":17.93894
    },{
      "name":"Kakanj",
      "latitude":44.13311,
      "longitude":18.12292
    },{
      "name":"Kiseljak",
      "latitude":43.94295,
      "longitude":18.08132
    },{
      "name":"Kladanj",
      "latitude":44.22669,
      "longitude":18.69274
    },{
      "name":"Kljuc",
      "latitude":44.53251,
      "longitude":16.77682
    },{
      "name":"Konjic",
      "latitude":43.65126,
      "longitude":17.96082
    },{
      "name":"Kovaci",
      "latitude":44.44874,
      "longitude":18.20521
    },{
      "name":"Livno",
      "latitude":43.82695,
      "longitude":17.00746
    },{
      "name":"Ljubuski",
      "latitude":43.19694,
      "longitude":17.545
    },{
      "name":"Maglaj",
      "latitude":44.54771,
      "longitude":18.10003
    },{
      "name":"Mahala",
      "latitude":44.01194,
      "longitude":18.25528
    },{
      "name":"Mala Kladusa",
      "latitude":45.13443,
      "longitude":15.85217
    },{
      "name":"Mionica",
      "latitude":44.86646,
      "longitude":18.46603
    },{
      "name":"Mostar",
      "latitude":43.34333,
      "longitude":17.80806
    },{
      "name":"Novi Travnik",
      "latitude":44.17133,
      "longitude":17.65816
    },{
      "name":"Odzak",
      "latitude":45.01038,
      "longitude":18.3272
    },{
      "name":"Orahovica Donja",
      "latitude":44.65345,
      "longitude":18.36951
    },{
      "name":"Ostrozac",
      "latitude":44.90866,
      "longitude":15.94044
    },{
      "name":"Otoka",
      "latitude":44.96,
      "longitude":16.17917
    },{
      "name":"Pecigrad",
      "latitude":45.05444,
      "longitude":15.89694
    },{
      "name":"Podhum",
      "latitude":43.72295,
      "longitude":16.99887
    },{
      "name":"Podzvizd",
      "latitude":45.17417,
      "longitude":15.87361
    },{
      "name":"Potoci",
      "latitude":43.40953,
      "longitude":17.87855
    },{
      "name":"Prozor",
      "latitude":43.82222,
      "longitude":17.60917
    },{
      "name":"Rodoc",
      "latitude":43.31453,
      "longitude":17.8029
    },{
      "name":"Sanica",
      "latitude":44.61354,
      "longitude":16.64062
    },{
      "name":"Sanski Most",
      "latitude":44.7667,
      "longitude":16.667
    },{
      "name":"Sarajevo",
      "latitude":43.84864,
      "longitude":18.35644
    },{
      "name":"Siroki Brijeg",
      "latitude":43.3829,
      "longitude":17.59416
    },{
      "name":"Srebrenik",
      "latitude":44.70819,
      "longitude":18.48834
    },{
      "name":"Stijena",
      "latitude":44.9363,
      "longitude":16.02224
    },{
      "name":"Stolac",
      "latitude":43.084,
      "longitude":17.95995
    },{
      "name":"Sturlic",
      "latitude":45.06389,
      "longitude":15.77806
    },{
      "name":"Tesanj",
      "latitude":44.61191,
      "longitude":17.98552
    },{
      "name":"Tesanjka",
      "latitude":44.67228,
      "longitude":18.01109
    },{
      "name":"Todorovo",
      "latitude":45.08833,
      "longitude":15.93083
    },{
      "name":"Tojsici",
      "latitude":44.50133,
      "longitude":18.78523
    },{
      "name":"Tomislavgrad",
      "latitude":43.71848,
      "longitude":17.22515
    },{
      "name":"Travnik",
      "latitude":44.22637,
      "longitude":17.66582
    },{
      "name":"Trzacka Rastela",
      "latitude":44.97597,
      "longitude":15.78489
    },{
      "name":"Tuzla",
      "latitude":44.53842,
      "longitude":18.66709
    },{
      "name":"Vares",
      "latitude":44.16444,
      "longitude":18.32833
    },{
      "name":"Varoska Rijeka",
      "latitude":45.08936,
      "longitude":16.01906
    },{
      "name":"Velika Kladusa",
      "latitude":45.18497,
      "longitude":15.80579
    },{
      "name":"Visoko",
      "latitude":43.98889,
      "longitude":18.17806
    },{
      "name":"Vitez",
      "latitude":44.15424,
      "longitude":17.79008
    },{
      "name":"Vogosca",
      "latitude":43.90225,
      "longitude":18.34438
    },{
      "name":"Vrnograc",
      "latitude":45.16369,
      "longitude":15.95444
    },{
      "name":"Zavidovici",
      "latitude":44.44583,
      "longitude":18.14972
    },{
      "name":"Zeljezno Polje",
      "latitude":44.39875,
      "longitude":17.94103
    },{
      "name":"Zenica",
      "latitude":44.20169,
      "longitude":17.90397
    },{
      "name":"Zepce",
      "latitude":44.42667,
      "longitude":18.03778
    },{
      "name":"Zivinice",
      "latitude":44.44929,
      "longitude":18.64978
    }]
  },{
    "name":"Republika Srpska",
    "cities":[{
      "name":"Banja Luka",
      "latitude":44.77583,
      "longitude":17.18556
    },{
      "name":"Bijeljina",
      "latitude":44.75874,
      "longitude":19.21437
    },{
      "name":"Bileca",
      "latitude":42.87645,
      "longitude":18.42967
    },{
      "name":"Blatnica",
      "latitude":44.48677,
      "longitude":17.82278
    },{
      "name":"Bosanska Dubica",
      "latitude":45.17667,
      "longitude":16.80944
    },{
      "name":"Bosanska Gradiska",
      "latitude":45.14484,
      "longitude":17.25453
    },{
      "name":"Bosanski Brod",
      "latitude":45.13747,
      "longitude":17.98722
    },{
      "name":"Bosanski Novi",
      "latitude":45.04643,
      "longitude":16.37782
    },{
      "name":"Celinac",
      "latitude":44.72453,
      "longitude":17.32431
    },{
      "name":"Derventa",
      "latitude":44.97839,
      "longitude":17.90779
    },{
      "name":"Doboj",
      "latitude":44.73179,
      "longitude":18.08698
    },{
      "name":"Foca",
      "latitude":43.50646,
      "longitude":18.77854
    },{
      "name":"Janja",
      "latitude":44.66554,
      "longitude":19.24691
    },{
      "name":"Kalenderovci Donji",
      "latitude":44.94672,
      "longitude":17.83785
    },{
      "name":"Kotor-Varos",
      "latitude":44.61831,
      "longitude":17.37204
    },{
      "name":"Laktasi",
      "latitude":44.90857,
      "longitude":17.30135
    },{
      "name":"Mejdan-Obilicevo",
      "latitude":44.76324,
      "longitude":17.19012
    },{
      "name":"Milici",
      "latitude":44.17016,
      "longitude":19.09195
    },{
      "name":"Mrkonjic Grad",
      "latitude":44.41729,
      "longitude":17.08288
    },{
      "name":"Nevesinje",
      "latitude":43.25861,
      "longitude":18.11333
    },{
      "name":"Omarska",
      "latitude":44.8917,
      "longitude":16.89814
    },{
      "name":"Pale",
      "latitude":43.81664,
      "longitude":18.56949
    },{
      "name":"Prijedor",
      "latitude":44.97991,
      "longitude":16.71401
    },{
      "name":"Prnjavor",
      "latitude":44.87021,
      "longitude":17.66256
    },{
      "name":"Sekovici",
      "latitude":44.29896,
      "longitude":18.85532
    },{
      "name":"Sipovo",
      "latitude":44.28237,
      "longitude":17.08597
    },{
      "name":"Skender Vakuf",
      "latitude":44.49071,
      "longitude":17.38161
    },{
      "name":"Sokolac",
      "latitude":43.93817,
      "longitude":18.80079
    },{
      "name":"Srbac",
      "latitude":45.0973,
      "longitude":17.52331
    },{
      "name":"Teslic",
      "latitude":44.60639,
      "longitude":17.85972
    },{
      "name":"Trebinje",
      "latitude":42.71197,
      "longitude":18.34362
    },{
      "name":"Trn",
      "latitude":44.85829,
      "longitude":17.23583
    },{
      "name":"Velika Obarska",
      "latitude":44.80461,
      "longitude":19.16183
    },{
      "name":"Visegrad",
      "latitude":43.7826,
      "longitude":19.29256
    },{
      "name":"Zvornik",
      "latitude":44.38605,
      "longitude":19.10247
    }]
  }]
}
