{
  "name":"Republic of the Congo",
  "regions":[{
    "name":"Commune de Brazzaville",
    "cities":[{
      "name":"Brazzaville",
      "latitude":-4.26613,
      "longitude":15.28318
    }]
  },{
    "name":"Cuvette",
    "cities":[{
      "name":"Makoua",
      "latitude":0.00694,
      "longitude":15.63333
    },{
      "name":"Owando",
      "latitude":-0.48193,
      "longitude":15.89988
    }]
  },{
    "name":"Cuvette-Ouest",
    "cities":[{
      "name":"Ewo",
      "latitude":-0.8725,
      "longitude":14.82056
    }]
  },{
    "name":"Likouala",
    "cities":[{
      "name":"Impfondo",
      "latitude":1.61804,
      "longitude":18.05981
    }]
  },{
    "name":"Plateaux",
    "cities":[{
      "name":"Djambala",
      "latitude":-2.54472,
      "longitude":14.75333
    },{
      "name":"Gamboma",
      "latitude":-1.87639,
      "longitude":15.86444
    }]
  },{
    "name":"Pointe-Noire",
    "cities":[{
      "name":"Pointe-Noire",
      "latitude":-4.77609,
      "longitude":11.86352
    }]
  },{
    "name":"Pool",
    "cities":[{
      "name":"Kinkala",
      "latitude":-4.36139,
      "longitude":14.76444
    }]
  },{
    "name":"Region de la Bouenza",
    "cities":[{
      "name":"Kayes",
      "latitude":-4.20493,
      "longitude":13.28608
    },{
      "name":"Madingou",
      "latitude":-4.15361,
      "longitude":13.55
    }]
  },{
    "name":"Region de la Lekoumou",
    "cities":[{
      "name":"Sibiti",
      "latitude":-3.68192,
      "longitude":13.34985
    }]
  },{
    "name":"Region du Kouilou",
    "cities":[{
      "name":"Loandjili",
      "latitude":-4.75611,
      "longitude":11.85778
    }]
  },{
    "name":"Region du Niari",
    "cities":[{
      "name":"Dolisie",
      "latitude":-4.19834,
      "longitude":12.66664
    },{
      "name":"Mossendjo",
      "latitude":-2.94968,
      "longitude":12.70423
    }]
  },{
    "name":"Sangha",
    "cities":[{
      "name":"Ouesso",
      "latitude":1.61361,
      "longitude":16.05167
    }]
  }]
}
