{
  "name":"Colombia",
  "regions":[{
    "name":"Departamento de Antioquia",
    "cities":[{
      "name":"Abejorral",
      "latitude":5.78928,
      "longitude":-75.42725
    },{
      "name":"Amaga",
      "latitude":6.04001,
      "longitude":-75.70315
    },{
      "name":"Amalfi",
      "latitude":6.91016,
      "longitude":-75.07764
    },{
      "name":"Antioquia",
      "latitude":6.55687,
      "longitude":-75.82806
    },{
      "name":"Apartado",
      "latitude":7.88299,
      "longitude":-76.62587
    },{
      "name":"Arboletes",
      "latitude":8.85051,
      "longitude":-76.42694
    },{
      "name":"Barbosa",
      "latitude":6.43809,
      "longitude":-75.33136
    },{
      "name":"Bello",
      "latitude":6.33732,
      "longitude":-75.55795
    },{
      "name":"Betulia",
      "latitude":6.11284,
      "longitude":-75.98378
    },{
      "name":"Caldas",
      "latitude":6.09106,
      "longitude":-75.63569
    },{
      "name":"Canasgordas",
      "latitude":6.74989,
      "longitude":-76.02539
    },{
      "name":"Carepa",
      "latitude":7.75849,
      "longitude":-76.65254
    },{
      "name":"Carmen de Viboral",
      "latitude":6.08236,
      "longitude":-75.33509
    },{
      "name":"Caucasia",
      "latitude":7.98654,
      "longitude":-75.19349
    },{
      "name":"Chigorodo",
      "latitude":7.66638,
      "longitude":-76.68106
    },{
      "name":"Cisneros",
      "latitude":6.53833,
      "longitude":-75.08861
    },{
      "name":"Ciudad Bolivar",
      "latitude":5.85389,
      "longitude":-76.02528
    },{
      "name":"Cocorna",
      "latitude":6.0573,
      "longitude":-75.18524
    },{
      "name":"Concordia",
      "latitude":6.04639,
      "longitude":-75.90706
    },{
      "name":"Dabeiba",
      "latitude":7.00172,
      "longitude":-76.26722
    },{
      "name":"Don Matias",
      "latitude":6.48568,
      "longitude":-75.39496
    },{
      "name":"El Bagre",
      "latitude":7.60347,
      "longitude":-74.80951
    },{
      "name":"El Retiro",
      "latitude":6.05861,
      "longitude":-75.50306
    },{
      "name":"Envigado",
      "latitude":6.17591,
      "longitude":-75.59174
    },{
      "name":"Fredonia",
      "latitude":5.92583,
      "longitude":-75.67056
    },{
      "name":"Frontino",
      "latitude":6.78005,
      "longitude":-76.1288
    },{
      "name":"Granada",
      "latitude":6.14353,
      "longitude":-75.18532
    },{
      "name":"Guarne",
      "latitude":6.28046,
      "longitude":-75.44354
    },{
      "name":"Guatape",
      "latitude":6.23274,
      "longitude":-75.15864
    },{
      "name":"Itagui",
      "latitude":6.18461,
      "longitude":-75.59913
    },{
      "name":"Ituango",
      "latitude":7.17117,
      "longitude":-75.76404
    },{
      "name":"Jardin",
      "latitude":5.59902,
      "longitude":-75.81976
    },{
      "name":"Jerico",
      "latitude":5.79211,
      "longitude":-75.78601
    },{
      "name":"La Ceja",
      "latitude":6.03082,
      "longitude":-75.4315
    },{
      "name":"La Estrella",
      "latitude":6.15769,
      "longitude":-75.64317
    },{
      "name":"La Pintada",
      "latitude":5.74867,
      "longitude":-75.60626
    },{
      "name":"La Union",
      "latitude":5.97431,
      "longitude":-75.36195
    },{
      "name":"Los Andes",
      "latitude":5.6561,
      "longitude":-75.87877
    },{
      "name":"Marinilla",
      "latitude":6.17358,
      "longitude":-75.33621
    },{
      "name":"Medellin",
      "latitude":6.25184,
      "longitude":-75.56359
    },{
      "name":"Municipio de Copacabana",
      "latitude":6.34633,
      "longitude":-75.50888
    },{
      "name":"Nechi",
      "latitude":8.09419,
      "longitude":-74.77573
    },{
      "name":"Necocli",
      "latitude":8.42342,
      "longitude":-76.78597
    },{
      "name":"Pueblorrico",
      "latitude":5.79176,
      "longitude":-75.84101
    },{
      "name":"Puerto Berrio",
      "latitude":6.49156,
      "longitude":-74.40326
    },{
      "name":"Remedios",
      "latitude":7.03083,
      "longitude":-74.53333
    },{
      "name":"Rionegro",
      "latitude":6.15515,
      "longitude":-75.37371
    },{
      "name":"Sabaneta",
      "latitude":6.15154,
      "longitude":-75.61658
    },{
      "name":"Salgar",
      "latitude":5.96502,
      "longitude":-75.96541
    },{
      "name":"San Carlos",
      "latitude":7.79177,
      "longitude":-74.77316
    },{
      "name":"San Carlos",
      "latitude":6.18789,
      "longitude":-74.99315
    },{
      "name":"San Juan de Uraba",
      "latitude":8.75924,
      "longitude":-76.52969
    },{
      "name":"San Luis",
      "latitude":6.04167,
      "longitude":-74.99278
    },{
      "name":"San Pedro",
      "latitude":6.46451,
      "longitude":-75.56002
    },{
      "name":"San Pedro de Uraba",
      "latitude":8.27515,
      "longitude":-76.37641
    },{
      "name":"San Rafael",
      "latitude":6.29436,
      "longitude":-75.02589
    },{
      "name":"San Roque",
      "latitude":6.48511,
      "longitude":-75.0196
    },{
      "name":"San Vicente",
      "latitude":6.23278,
      "longitude":-75.33611
    },{
      "name":"Santa Barbara",
      "latitude":5.87458,
      "longitude":-75.56706
    },{
      "name":"Santa Rosa de Osos",
      "latitude":6.64738,
      "longitude":-75.4603
    },{
      "name":"Santuario",
      "latitude":6.13833,
      "longitude":-75.26417
    },{
      "name":"Segovia",
      "latitude":7.07993,
      "longitude":-74.6989
    },{
      "name":"Sonson",
      "latitude":5.71062,
      "longitude":-75.31068
    },{
      "name":"Tamesis",
      "latitude":5.66462,
      "longitude":-75.71339
    },{
      "name":"Turbo",
      "latitude":8.09368,
      "longitude":-76.72691
    },{
      "name":"Urrao",
      "latitude":6.3152,
      "longitude":-76.1342
    },{
      "name":"Vegachi",
      "latitude":6.76141,
      "longitude":-74.79473
    },{
      "name":"Venecia",
      "latitude":5.96278,
      "longitude":-75.73806
    },{
      "name":"Yarumal",
      "latitude":6.96321,
      "longitude":-75.41738
    },{
      "name":"Yolombo",
      "latitude":6.59841,
      "longitude":-75.0114
    },{
      "name":"Yondo",
      "latitude":7.00621,
      "longitude":-73.90972
    },{
      "name":"Zaragoza",
      "latitude":7.48971,
      "longitude":-74.86919
    }]
  },{
    "name":"Departamento de Arauca",
    "cities":[{
      "name":"Arauca",
      "latitude":7.08471,
      "longitude":-70.75908
    },{
      "name":"Arauquita",
      "latitude":7.02917,
      "longitude":-71.42806
    },{
      "name":"Tame",
      "latitude":6.461,
      "longitude":-71.73004
    }]
  },{
    "name":"Departamento de Bolivar",
    "cities":[{
      "name":"Achi",
      "latitude":8.56818,
      "longitude":-74.55405
    },{
      "name":"Altos del Rosario",
      "latitude":8.79444,
      "longitude":-74.16583
    },{
      "name":"Arenal",
      "latitude":8.45928,
      "longitude":-73.94331
    },{
      "name":"Arjona",
      "latitude":10.25444,
      "longitude":-75.34389
    },{
      "name":"Barranco de Loba",
      "latitude":8.94597,
      "longitude":-74.10647
    },{
      "name":"Cartagena",
      "latitude":10.39972,
      "longitude":-75.51444
    },{
      "name":"Cicuco",
      "latitude":9.26306,
      "longitude":-74.65694
    },{
      "name":"Clemencia",
      "latitude":10.56646,
      "longitude":-75.32499
    },{
      "name":"Cordoba",
      "latitude":9.58612,
      "longitude":-74.82705
    },{
      "name":"El Carmen de Bolivar",
      "latitude":9.7174,
      "longitude":-75.12023
    },{
      "name":"Magangue",
      "latitude":9.24202,
      "longitude":-74.75467
    },{
      "name":"Mahates",
      "latitude":10.23293,
      "longitude":-75.18985
    },{
      "name":"Maria la Baja",
      "latitude":9.9832,
      "longitude":-75.30155
    },{
      "name":"Mompos",
      "latitude":9.24194,
      "longitude":-74.42667
    },{
      "name":"Montecristo",
      "latitude":8.2971,
      "longitude":-74.4733
    },{
      "name":"Morales",
      "latitude":8.2752,
      "longitude":-73.86884
    },{
      "name":"Pinillos",
      "latitude":8.91925,
      "longitude":-74.46771
    },{
      "name":"Rio Viejo",
      "latitude":8.5874,
      "longitude":-73.83901
    },{
      "name":"San Estanislao",
      "latitude":10.39833,
      "longitude":-75.15111
    },{
      "name":"San Jacinto",
      "latitude":9.82767,
      "longitude":-75.1217
    },{
      "name":"San Juan Nepomuceno",
      "latitude":9.95156,
      "longitude":-75.08198
    },{
      "name":"San Pablo",
      "latitude":10.05154,
      "longitude":-75.26775
    },{
      "name":"San Zenon",
      "latitude":9.24217,
      "longitude":-74.50037
    },{
      "name":"Santa Catalina",
      "latitude":10.60361,
      "longitude":-75.28824
    },{
      "name":"Santa Rosa",
      "latitude":10.44472,
      "longitude":-75.36972
    },{
      "name":"Santa Rosa del Sur",
      "latitude":7.96444,
      "longitude":-74.05444
    },{
      "name":"Simiti",
      "latitude":7.9579,
      "longitude":-73.9436
    },{
      "name":"Soplaviento",
      "latitude":10.39306,
      "longitude":-75.14083
    },{
      "name":"Talaigua Viejo",
      "latitude":9.31206,
      "longitude":-74.58544
    },{
      "name":"Turbaco",
      "latitude":10.32944,
      "longitude":-75.41137
    },{
      "name":"Turbana",
      "latitude":10.2717,
      "longitude":-75.44222
    },{
      "name":"Villanueva",
      "latitude":10.44361,
      "longitude":-75.27306
    }]
  },{
    "name":"Departamento de Boyaca",
    "cities":[{
      "name":"Aquitania",
      "latitude":5.51972,
      "longitude":-72.8875
    },{
      "name":"Belen",
      "latitude":5.98892,
      "longitude":-72.91254
    },{
      "name":"Chiquinquira",
      "latitude":5.61637,
      "longitude":-73.81748
    },{
      "name":"Duitama",
      "latitude":5.8245,
      "longitude":-73.03408
    },{
      "name":"Garagoa",
      "latitude":5.08236,
      "longitude":-73.36334
    },{
      "name":"Guateque",
      "latitude":5.00619,
      "longitude":-73.47274
    },{
      "name":"Moniquira",
      "latitude":5.87638,
      "longitude":-73.57284
    },{
      "name":"Muzo",
      "latitude":5.53528,
      "longitude":-74.10778
    },{
      "name":"Paipa",
      "latitude":5.78013,
      "longitude":-73.11708
    },{
      "name":"Pesca",
      "latitude":5.55,
      "longitude":-73.05
    },{
      "name":"Puerto Boyaca",
      "latitude":5.97584,
      "longitude":-74.58846
    },{
      "name":"Ramiriqui",
      "latitude":5.4002,
      "longitude":-73.33544
    },{
      "name":"Santa Rosa de Viterbo",
      "latitude":5.87401,
      "longitude":-72.98217
    },{
      "name":"Soata",
      "latitude":6.33369,
      "longitude":-72.68283
    },{
      "name":"Sogamoso",
      "latitude":5.71434,
      "longitude":-72.93391
    },{
      "name":"Tunja",
      "latitude":5.53528,
      "longitude":-73.36778
    },{
      "name":"Villa de Leiva",
      "latitude":5.645,
      "longitude":-73.56667
    }]
  },{
    "name":"Departamento de Caldas",
    "cities":[{
      "name":"Aguadas",
      "latitude":5.61161,
      "longitude":-75.45624
    },{
      "name":"Aranzazu",
      "latitude":5.27123,
      "longitude":-75.49044
    },{
      "name":"Belalcazar",
      "latitude":4.99528,
      "longitude":-75.81278
    },{
      "name":"Chinchina",
      "latitude":4.9825,
      "longitude":-75.60361
    },{
      "name":"Filadelfia",
      "latitude":5.29606,
      "longitude":-75.5612
    },{
      "name":"La Dorada",
      "latitude":5.44783,
      "longitude":-74.66311
    },{
      "name":"Manizales",
      "latitude":5.06889,
      "longitude":-75.51738
    },{
      "name":"Manzanares",
      "latitude":5.32472,
      "longitude":-75.15694
    },{
      "name":"Marquetalia",
      "latitude":5.29659,
      "longitude":-75.05496
    },{
      "name":"Neira",
      "latitude":5.1665,
      "longitude":-75.52001
    },{
      "name":"Norcasia",
      "latitude":5.57782,
      "longitude":-74.88521
    },{
      "name":"Pacora",
      "latitude":5.52708,
      "longitude":-75.4593
    },{
      "name":"Palestina",
      "latitude":5.0194,
      "longitude":-75.62242
    },{
      "name":"Pensilvania",
      "latitude":5.38346,
      "longitude":-75.16122
    },{
      "name":"Riosucio",
      "latitude":5.42164,
      "longitude":-75.70318
    },{
      "name":"Risaralda",
      "latitude":5.16647,
      "longitude":-75.76595
    },{
      "name":"Salamina",
      "latitude":5.40733,
      "longitude":-75.48749
    },{
      "name":"Supia",
      "latitude":5.45303,
      "longitude":-75.65072
    },{
      "name":"Villamaria",
      "latitude":5.04492,
      "longitude":-75.5146
    },{
      "name":"Viterbo",
      "latitude":5.06242,
      "longitude":-75.87159
    }]
  },{
    "name":"Departamento de Casanare",
    "cities":[{
      "name":"Aguazul",
      "latitude":5.17282,
      "longitude":-72.54706
    },{
      "name":"Mani",
      "latitude":4.81722,
      "longitude":-72.28861
    },{
      "name":"Monterrey",
      "latitude":4.87206,
      "longitude":-72.89879
    },{
      "name":"Villanueva",
      "latitude":5.28333,
      "longitude":-71.96667
    },{
      "name":"Yopal",
      "latitude":5.33775,
      "longitude":-72.39586
    }]
  },{
    "name":"Departamento de Cordoba",
    "cities":[{
      "name":"Ayapel",
      "latitude":8.31372,
      "longitude":-75.13982
    },{
      "name":"Buenavista",
      "latitude":9.04963,
      "longitude":-76.0028
    },{
      "name":"Cerete",
      "latitude":8.88479,
      "longitude":-75.79052
    },{
      "name":"Chinu",
      "latitude":9.10569,
      "longitude":-75.39812
    },{
      "name":"Cienaga de Oro",
      "latitude":8.87443,
      "longitude":-75.62028
    },{
      "name":"Lorica",
      "latitude":9.23648,
      "longitude":-75.8135
    },{
      "name":"Momil",
      "latitude":9.23768,
      "longitude":-75.67489
    },{
      "name":"Monitos",
      "latitude":8.25,
      "longitude":-76.05
    },{
      "name":"Montelibano",
      "latitude":7.97917,
      "longitude":-75.4202
    },{
      "name":"Monteria",
      "latitude":8.74798,
      "longitude":-75.88143
    },{
      "name":"Planeta Rica",
      "latitude":8.41472,
      "longitude":-75.58833
    },{
      "name":"Pueblo Nuevo",
      "latitude":8.2411,
      "longitude":-74.95815
    },{
      "name":"Purisima",
      "latitude":9.23657,
      "longitude":-75.7219
    },{
      "name":"Sahagun",
      "latitude":8.94616,
      "longitude":-75.44275
    },{
      "name":"San Antero",
      "latitude":9.3741,
      "longitude":-75.75891
    },{
      "name":"San Bernardo del Viento",
      "latitude":9.3533,
      "longitude":-75.95244
    },{
      "name":"San Carlos",
      "latitude":8.79577,
      "longitude":-75.69947
    },{
      "name":"San Pelayo",
      "latitude":8.95833,
      "longitude":-75.83627
    },{
      "name":"Tierralta",
      "latitude":8.17361,
      "longitude":-76.05917
    },{
      "name":"Valencia",
      "latitude":8.25801,
      "longitude":-76.14928
    }]
  },{
    "name":"Departamento de Cundinamarca",
    "cities":[{
      "name":"Agua de Dios",
      "latitude":4.37648,
      "longitude":-74.66995
    },{
      "name":"Anolaima",
      "latitude":4.83362,
      "longitude":-74.4995
    },{
      "name":"Arbelaez",
      "latitude":4.27254,
      "longitude":-74.41513
    },{
      "name":"Cajica",
      "latitude":4.91857,
      "longitude":-74.02799
    },{
      "name":"Caqueza",
      "latitude":4.40569,
      "longitude":-73.94683
    },{
      "name":"Chia",
      "latitude":4.85876,
      "longitude":-74.05866
    },{
      "name":"Choconta",
      "latitude":5.14468,
      "longitude":-73.68578
    },{
      "name":"Cota",
      "latitude":4.80938,
      "longitude":-74.098
    },{
      "name":"El Rosal",
      "latitude":4.85314,
      "longitude":-74.25996
    },{
      "name":"Facatativa",
      "latitude":4.81367,
      "longitude":-74.35453
    },{
      "name":"Fomeque",
      "latitude":4.48797,
      "longitude":-73.89749
    },{
      "name":"Funza",
      "latitude":4.71638,
      "longitude":-74.21195
    },{
      "name":"Fusagasuga",
      "latitude":4.33646,
      "longitude":-74.36378
    },{
      "name":"Girardot",
      "latitude":4.29866,
      "longitude":-74.80468
    },{
      "name":"Guaduas",
      "latitude":5.06692,
      "longitude":-74.59499
    },{
      "name":"La Calera",
      "latitude":4.72069,
      "longitude":-73.96926
    },{
      "name":"La Mesa",
      "latitude":5.26667,
      "longitude":-73.91667
    },{
      "name":"La Vega",
      "latitude":4.99779,
      "longitude":-74.33979
    },{
      "name":"Madrid",
      "latitude":4.73244,
      "longitude":-74.26419
    },{
      "name":"Mosquera",
      "latitude":4.70592,
      "longitude":-74.23021
    },{
      "name":"Nemocon",
      "latitude":5.05,
      "longitude":-73.88333
    },{
      "name":"Pacho",
      "latitude":5.13278,
      "longitude":-74.15977
    },{
      "name":"Puerto Salgar",
      "latitude":5.46304,
      "longitude":-74.65436
    },{
      "name":"Sibate",
      "latitude":4.48425,
      "longitude":-74.24499
    },{
      "name":"Silvania",
      "latitude":4.40367,
      "longitude":-74.3867
    },{
      "name":"Soacha",
      "latitude":4.57937,
      "longitude":-74.21682
    },{
      "name":"Sopo",
      "latitude":4.9075,
      "longitude":-73.9384
    },{
      "name":"Tocaima",
      "latitude":4.4582,
      "longitude":-74.63434
    },{
      "name":"Tocancipa",
      "latitude":4.96531,
      "longitude":-73.91301
    },{
      "name":"Ubate",
      "latitude":5.30933,
      "longitude":-73.81574
    },{
      "name":"Villapinzon",
      "latitude":5.21617,
      "longitude":-73.5949
    },{
      "name":"Villeta",
      "latitude":5.00886,
      "longitude":-74.47226
    },{
      "name":"Viota",
      "latitude":4.43713,
      "longitude":-74.52157
    },{
      "name":"Zipaquira",
      "latitude":5.02208,
      "longitude":-74.00481
    }]
  },{
    "name":"Departamento de La Guajira",
    "cities":[{
      "name":"Albania",
      "latitude":11.16099,
      "longitude":-72.59238
    },{
      "name":"Barrancas",
      "latitude":10.95756,
      "longitude":-72.78769
    },{
      "name":"El Molino",
      "latitude":10.65225,
      "longitude":-72.92405
    },{
      "name":"Fonseca",
      "latitude":10.88606,
      "longitude":-72.8487
    },{
      "name":"Maicao",
      "latitude":11.38321,
      "longitude":-72.24321
    },{
      "name":"Manaure",
      "latitude":11.77505,
      "longitude":-72.44447
    },{
      "name":"Riohacha",
      "latitude":11.54444,
      "longitude":-72.90722
    },{
      "name":"San Juan del Cesar",
      "latitude":10.77108,
      "longitude":-73.00314
    },{
      "name":"Uribia",
      "latitude":11.7139,
      "longitude":-72.26604
    },{
      "name":"Urumita",
      "latitude":10.55894,
      "longitude":-73.01232
    },{
      "name":"Villanueva",
      "latitude":10.60528,
      "longitude":-72.98
    }]
  },{
    "name":"Departamento de Narino",
    "cities":[{
      "name":"Ancuya",
      "latitude":1.2633,
      "longitude":-77.51376
    },{
      "name":"Barbacoas",
      "latitude":1.67154,
      "longitude":-78.13978
    },{
      "name":"Cumbal",
      "latitude":0.90875,
      "longitude":-77.79145
    },{
      "name":"El Charco",
      "latitude":2.47691,
      "longitude":-78.11049
    },{
      "name":"El Tambo",
      "latitude":1.41814,
      "longitude":-77.39678
    },{
      "name":"Francisco Pizarro",
      "latitude":2.10194,
      "longitude":-78.72167
    },{
      "name":"Guaitarilla",
      "latitude":1.13103,
      "longitude":-77.54814
    },{
      "name":"Ipiales",
      "latitude":0.83018,
      "longitude":-77.64959
    },{
      "name":"La Union",
      "latitude":1.6045,
      "longitude":-77.13152
    },{
      "name":"Olaya Herrera",
      "latitude":1.24803,
      "longitude":-77.49086
    },{
      "name":"Pasto",
      "latitude":1.21361,
      "longitude":-77.28111
    },{
      "name":"Pupiales",
      "latitude":0.87136,
      "longitude":-77.64027
    },{
      "name":"Samaniego",
      "latitude":1.3385,
      "longitude":-77.5957
    },{
      "name":"San Pablo",
      "latitude":1.6725,
      "longitude":-77.01389
    },{
      "name":"Sandona",
      "latitude":1.28626,
      "longitude":-77.46921
    },{
      "name":"Tumaco",
      "latitude":1.79861,
      "longitude":-78.81556
    },{
      "name":"Tuquerres",
      "latitude":1.08878,
      "longitude":-77.6183
    }]
  },{
    "name":"Departamento de Norte de Santander",
    "cities":[{
      "name":"Abrego",
      "latitude":8.08065,
      "longitude":-73.22054
    },{
      "name":"Chinacota",
      "latitude":7.60731,
      "longitude":-72.60108
    },{
      "name":"Cucuta",
      "latitude":7.89391,
      "longitude":-72.50782
    },{
      "name":"El Carmen",
      "latitude":8.51064,
      "longitude":-73.44776
    },{
      "name":"El Zulia",
      "latitude":7.93248,
      "longitude":-72.60125
    },{
      "name":"Los Patios",
      "latitude":7.83793,
      "longitude":-72.5037
    },{
      "name":"Ocana",
      "latitude":8.23773,
      "longitude":-73.35604
    },{
      "name":"Pamplona",
      "latitude":7.37565,
      "longitude":-72.64795
    },{
      "name":"Puerto Santander",
      "latitude":8.36361,
      "longitude":-72.4063
    },{
      "name":"Sardinata",
      "latitude":8.08289,
      "longitude":-72.80071
    },{
      "name":"Tibu",
      "latitude":8.63896,
      "longitude":-72.73583
    },{
      "name":"Toledo",
      "latitude":7.30984,
      "longitude":-72.48295
    },{
      "name":"Villa del Rosario",
      "latitude":7.83389,
      "longitude":-72.47417
    }]
  },{
    "name":"Departamento de Risaralda",
    "cities":[{
      "name":"Anserma",
      "latitude":5.33278,
      "longitude":-75.79111
    },{
      "name":"Apia",
      "latitude":5.10645,
      "longitude":-75.94318
    },{
      "name":"Belen de Umbria",
      "latitude":5.20088,
      "longitude":-75.86865
    },{
      "name":"Dos Quebradas",
      "latitude":4.83916,
      "longitude":-75.66726
    },{
      "name":"La Virginia",
      "latitude":4.89972,
      "longitude":-75.8825
    },{
      "name":"Marsella",
      "latitude":4.93722,
      "longitude":-75.73778
    },{
      "name":"Mistrato",
      "latitude":5.2973,
      "longitude":-75.88322
    },{
      "name":"Pereira",
      "latitude":4.81333,
      "longitude":-75.69611
    },{
      "name":"Quinchia",
      "latitude":5.33957,
      "longitude":-75.73018
    },{
      "name":"Santa Rosa de Cabal",
      "latitude":4.86806,
      "longitude":-75.62139
    },{
      "name":"Santuario",
      "latitude":5.07237,
      "longitude":-75.96341
    }]
  },{
    "name":"Departamento de Santander",
    "cities":[{
      "name":"Barbosa",
      "latitude":5.93168,
      "longitude":-73.61506
    },{
      "name":"Barrancabermeja",
      "latitude":7.06528,
      "longitude":-73.85472
    },{
      "name":"Bucaramanga",
      "latitude":7.12539,
      "longitude":-73.1198
    },{
      "name":"Cimitarra",
      "latitude":6.31419,
      "longitude":-73.94968
    },{
      "name":"El Playon",
      "latitude":7.47131,
      "longitude":-73.2031
    },{
      "name":"Floridablanca",
      "latitude":7.06222,
      "longitude":-73.08644
    },{
      "name":"Giron",
      "latitude":7.0682,
      "longitude":-73.16981
    },{
      "name":"Lebrija",
      "latitude":7.11317,
      "longitude":-73.2178
    },{
      "name":"Malaga",
      "latitude":6.69903,
      "longitude":-72.73233
    },{
      "name":"Piedecuesta",
      "latitude":6.98789,
      "longitude":-73.04953
    },{
      "name":"Puente Nacional",
      "latitude":5.8774,
      "longitude":-73.6781
    },{
      "name":"Puerto Wilches",
      "latitude":7.34828,
      "longitude":-73.89601
    },{
      "name":"Sabana de Torres",
      "latitude":7.3915,
      "longitude":-73.49574
    },{
      "name":"San Gil",
      "latitude":6.55573,
      "longitude":-73.13309
    },{
      "name":"San Vicente de Chucuri",
      "latitude":6.881,
      "longitude":-73.40977
    },{
      "name":"Socorro",
      "latitude":6.46838,
      "longitude":-73.26022
    },{
      "name":"Velez",
      "latitude":6.01335,
      "longitude":-73.67352
    },{
      "name":"Zapatoca",
      "latitude":6.81532,
      "longitude":-73.26768
    }]
  },{
    "name":"Departamento de Sucre",
    "cities":[{
      "name":"Corozal",
      "latitude":9.31505,
      "longitude":-75.29283
    },{
      "name":"Galeras",
      "latitude":9.16095,
      "longitude":-75.04811
    },{
      "name":"Los Palmitos",
      "latitude":9.37899,
      "longitude":-75.26769
    },{
      "name":"Majagual",
      "latitude":8.53886,
      "longitude":-74.62038
    },{
      "name":"Ovejas",
      "latitude":9.53248,
      "longitude":-75.22382
    },{
      "name":"Sampues",
      "latitude":9.18361,
      "longitude":-75.38167
    },{
      "name":"San Benito Abad",
      "latitude":8.92901,
      "longitude":-75.02709
    },{
      "name":"San Juan de Betulia",
      "latitude":9.27345,
      "longitude":-75.24103
    },{
      "name":"San Marcos",
      "latitude":8.65972,
      "longitude":-75.12809
    },{
      "name":"San Onofre",
      "latitude":9.73586,
      "longitude":-75.52626
    },{
      "name":"San Pedro",
      "latitude":9.3956,
      "longitude":-75.06476
    },{
      "name":"Since",
      "latitude":9.24391,
      "longitude":-75.14675
    },{
      "name":"Sincelejo",
      "latitude":9.30472,
      "longitude":-75.39778
    },{
      "name":"Sucre",
      "latitude":8.81136,
      "longitude":-74.72084
    },{
      "name":"Tolu",
      "latitude":9.52392,
      "longitude":-75.58139
    },{
      "name":"Toluviejo",
      "latitude":9.45082,
      "longitude":-75.43864
    }]
  },{
    "name":"Departamento de Tolima",
    "cities":[{
      "name":"Cajamarca",
      "latitude":4.44172,
      "longitude":-75.42678
    },{
      "name":"Carmen de Apicala",
      "latitude":4.14725,
      "longitude":-74.72014
    },{
      "name":"Chaparral",
      "latitude":3.72315,
      "longitude":-75.48316
    },{
      "name":"Espinal",
      "latitude":4.14924,
      "longitude":-74.88429
    },{
      "name":"Falan",
      "latitude":5.11564,
      "longitude":-74.94894
    },{
      "name":"Flandes",
      "latitude":4.29413,
      "longitude":-74.81901
    },{
      "name":"Fresno",
      "latitude":5.15264,
      "longitude":-75.03624
    },{
      "name":"Guamo",
      "latitude":4.03078,
      "longitude":-74.9701
    },{
      "name":"Guayabal",
      "latitude":5.03103,
      "longitude":-74.88682
    },{
      "name":"Honda",
      "latitude":5.20856,
      "longitude":-74.73584
    },{
      "name":"Ibague",
      "latitude":4.43889,
      "longitude":-75.23222
    },{
      "name":"Lerida",
      "latitude":4.86242,
      "longitude":-74.90977
    },{
      "name":"Libano",
      "latitude":4.9218,
      "longitude":-75.06232
    },{
      "name":"Mariquita",
      "latitude":5.19889,
      "longitude":-74.89295
    },{
      "name":"Melgar",
      "latitude":4.20475,
      "longitude":-74.64075
    },{
      "name":"Natagaima",
      "latitude":3.62057,
      "longitude":-75.09415
    },{
      "name":"Ortega",
      "latitude":3.9361,
      "longitude":-75.22169
    },{
      "name":"Planadas",
      "latitude":3.19698,
      "longitude":-75.64506
    },{
      "name":"Purificacion",
      "latitude":3.8587,
      "longitude":-74.93129
    },{
      "name":"Rioblanco",
      "latitude":3.53083,
      "longitude":-75.68056
    },{
      "name":"Rovira",
      "latitude":4.23922,
      "longitude":-75.23996
    },{
      "name":"Saldana",
      "latitude":3.92922,
      "longitude":-75.01517
    },{
      "name":"San Antonio",
      "latitude":3.91423,
      "longitude":-75.48008
    },{
      "name":"Venadillo",
      "latitude":4.7193,
      "longitude":-74.92918
    }]
  },{
    "name":"Departamento del Amazonas",
    "cities":[{
      "name":"Leticia",
      "latitude":-4.21528,
      "longitude":-69.94056
    }]
  },{
    "name":"Departamento del Atlantico",
    "cities":[{
      "name":"Baranoa",
      "latitude":10.79408,
      "longitude":-74.9164
    },{
      "name":"Barranquilla",
      "latitude":10.96854,
      "longitude":-74.78132
    },{
      "name":"Campo de la Cruz",
      "latitude":10.37808,
      "longitude":-74.88356
    },{
      "name":"Candelaria",
      "latitude":10.45912,
      "longitude":-74.8797
    },{
      "name":"Galapa",
      "latitude":10.89686,
      "longitude":-74.886
    },{
      "name":"Juan de Acosta",
      "latitude":10.82813,
      "longitude":-75.03341
    },{
      "name":"Luruaco",
      "latitude":10.60921,
      "longitude":-75.14309
    },{
      "name":"Malambo",
      "latitude":10.85953,
      "longitude":-74.77386
    },{
      "name":"Manati",
      "latitude":10.44589,
      "longitude":-74.95869
    },{
      "name":"Palmar de Varela",
      "latitude":10.74055,
      "longitude":-74.75443
    },{
      "name":"Polonuevo",
      "latitude":10.77697,
      "longitude":-74.85344
    },{
      "name":"Ponedera",
      "latitude":10.64104,
      "longitude":-74.75026
    },{
      "name":"Puerto Colombia",
      "latitude":10.98778,
      "longitude":-74.95472
    },{
      "name":"Repelon",
      "latitude":10.49194,
      "longitude":-75.12917
    },{
      "name":"Sabanagrande",
      "latitude":10.79115,
      "longitude":-74.76059
    },{
      "name":"Sabanalarga",
      "latitude":10.62962,
      "longitude":-74.92063
    },{
      "name":"Santa Lucia",
      "latitude":10.3242,
      "longitude":-74.96017
    },{
      "name":"Santo Tomas",
      "latitude":10.75773,
      "longitude":-74.75451
    },{
      "name":"Sitionuevo",
      "latitude":10.77737,
      "longitude":-74.72049
    },{
      "name":"Soledad",
      "latitude":10.91843,
      "longitude":-74.76459
    },{
      "name":"Suan",
      "latitude":10.33347,
      "longitude":-74.88016
    },{
      "name":"Tubara",
      "latitude":10.87444,
      "longitude":-74.97889
    },{
      "name":"Usiacuri",
      "latitude":10.75,
      "longitude":-74.98333
    }]
  },{
    "name":"Departamento del Caqueta",
    "cities":[{
      "name":"Cartagena del Chaira",
      "latitude":1.33488,
      "longitude":-74.84289
    },{
      "name":"Curillo",
      "latitude":1.03327,
      "longitude":-75.91906
    },{
      "name":"El Doncello",
      "latitude":1.67817,
      "longitude":-75.28466
    },{
      "name":"El Paujil",
      "latitude":1.57006,
      "longitude":-75.32863
    },{
      "name":"Florencia",
      "latitude":1.61438,
      "longitude":-75.60623
    },{
      "name":"Puerto Rico",
      "latitude":1.91417,
      "longitude":-75.145
    }]
  },{
    "name":"Departamento del Cauca",
    "cities":[{
      "name":"Balboa",
      "latitude":2.03956,
      "longitude":-77.21684
    },{
      "name":"Belalcazar",
      "latitude":2.65472,
      "longitude":-75.99278
    },{
      "name":"Caloto",
      "latitude":3.03586,
      "longitude":-76.40788
    },{
      "name":"Corinto",
      "latitude":3.17301,
      "longitude":-76.26275
    },{
      "name":"El Bordo",
      "latitude":2.11696,
      "longitude":-76.98214
    },{
      "name":"El Tambo",
      "latitude":2.45199,
      "longitude":-76.81029
    },{
      "name":"Guapi",
      "latitude":2.57082,
      "longitude":-77.88542
    },{
      "name":"La Cruz",
      "latitude":1.60301,
      "longitude":-76.96901
    },{
      "name":"Miranda",
      "latitude":3.24991,
      "longitude":-76.22814
    },{
      "name":"Morales",
      "latitude":2.75701,
      "longitude":-76.61723
    },{
      "name":"Patia",
      "latitude":2.06895,
      "longitude":-77.05273
    },{
      "name":"Popayan",
      "latitude":2.43823,
      "longitude":-76.61316
    },{
      "name":"Puerto Tejada",
      "latitude":3.23114,
      "longitude":-76.41668
    },{
      "name":"Santander de Quilichao",
      "latitude":3.00945,
      "longitude":-76.48494
    },{
      "name":"Silvia",
      "latitude":2.61557,
      "longitude":-76.38261
    },{
      "name":"Suarez",
      "latitude":2.95395,
      "longitude":-76.69644
    },{
      "name":"Timbiqui",
      "latitude":2.7717,
      "longitude":-77.66536
    },{
      "name":"Villa Rica",
      "latitude":2.50949,
      "longitude":-76.84418
    }]
  },{
    "name":"Departamento del Cesar",
    "cities":[{
      "name":"Aguachica",
      "latitude":8.30844,
      "longitude":-73.6166
    },{
      "name":"Agustin Codazzi",
      "latitude":10.03672,
      "longitude":-73.23558
    },{
      "name":"Ariguani",
      "latitude":10.25,
      "longitude":-74.0
    },{
      "name":"Astrea",
      "latitude":9.49828,
      "longitude":-73.97591
    },{
      "name":"Becerril",
      "latitude":9.70413,
      "longitude":-73.2793
    },{
      "name":"Chimichagua",
      "latitude":9.25778,
      "longitude":-73.81228
    },{
      "name":"Chiriguana",
      "latitude":9.36238,
      "longitude":-73.60314
    },{
      "name":"Curumani",
      "latitude":9.19992,
      "longitude":-73.54274
    },{
      "name":"El Copey",
      "latitude":10.15031,
      "longitude":-73.9614
    },{
      "name":"El Paso",
      "latitude":9.65724,
      "longitude":-73.74685
    },{
      "name":"Gamarra",
      "latitude":8.32279,
      "longitude":-73.74268
    },{
      "name":"Gonzalez",
      "latitude":8.38944,
      "longitude":-73.37989
    },{
      "name":"La Gloria",
      "latitude":8.61868,
      "longitude":-73.80265
    },{
      "name":"La Jagua de Ibirico",
      "latitude":9.56228,
      "longitude":-73.33405
    },{
      "name":"La Paz",
      "latitude":10.38439,
      "longitude":-73.17332
    },{
      "name":"Manaure Balcon del Cesar",
      "latitude":10.39278,
      "longitude":-73.0325
    },{
      "name":"Pailitas",
      "latitude":8.95652,
      "longitude":-73.62548
    },{
      "name":"Pelaya",
      "latitude":8.68819,
      "longitude":-73.66452
    },{
      "name":"Rio de Oro",
      "latitude":8.2919,
      "longitude":-73.38485
    },{
      "name":"San Alberto",
      "latitude":7.76107,
      "longitude":-73.3922
    },{
      "name":"San Diego",
      "latitude":10.33622,
      "longitude":-73.18203
    },{
      "name":"San Martin",
      "latitude":8.00151,
      "longitude":-73.51126
    },{
      "name":"Valledupar",
      "latitude":10.46314,
      "longitude":-73.25322
    }]
  },{
    "name":"Departamento del Choco",
    "cities":[{
      "name":"Condoto",
      "latitude":5.09351,
      "longitude":-76.64973
    },{
      "name":"Istmina",
      "latitude":5.16054,
      "longitude":-76.68397
    },{
      "name":"Pizarro",
      "latitude":4.95334,
      "longitude":-77.36598
    },{
      "name":"Quibdo",
      "latitude":5.69472,
      "longitude":-76.66111
    },{
      "name":"Riosucio",
      "latitude":7.44027,
      "longitude":-77.1167
    },{
      "name":"Tado",
      "latitude":5.26598,
      "longitude":-76.56487
    }]
  },{
    "name":"Departamento del Guainia",
    "cities":[{
      "name":"Inirida",
      "latitude":3.86528,
      "longitude":-67.92389
    }]
  },{
    "name":"Departamento del Guaviare",
    "cities":[{
      "name":"San Jose del Guaviare",
      "latitude":2.57286,
      "longitude":-72.64591
    }]
  },{
    "name":"Departamento del Huila",
    "cities":[{
      "name":"Aipe",
      "latitude":3.22222,
      "longitude":-75.23667
    },{
      "name":"Algeciras",
      "latitude":2.52295,
      "longitude":-75.31492
    },{
      "name":"Campoalegre",
      "latitude":2.68489,
      "longitude":-75.32311
    },{
      "name":"Garzon",
      "latitude":2.19593,
      "longitude":-75.62777
    },{
      "name":"Gigante",
      "latitude":2.38677,
      "longitude":-75.54531
    },{
      "name":"Isnos",
      "latitude":1.93556,
      "longitude":-76.24056
    },{
      "name":"La Plata",
      "latitude":2.39341,
      "longitude":-75.89232
    },{
      "name":"Neiva",
      "latitude":2.9273,
      "longitude":-75.28188
    },{
      "name":"Palermo",
      "latitude":2.89167,
      "longitude":-75.4375
    },{
      "name":"Pitalito",
      "latitude":1.84966,
      "longitude":-76.04785
    },{
      "name":"Rivera",
      "latitude":2.77717,
      "longitude":-75.25642
    },{
      "name":"San Agustin",
      "latitude":1.87863,
      "longitude":-76.27557
    },{
      "name":"Timana",
      "latitude":1.97136,
      "longitude":-75.93123
    },{
      "name":"Yaguara",
      "latitude":2.66355,
      "longitude":-75.51753
    }]
  },{
    "name":"Departamento del Magdalena",
    "cities":[{
      "name":"Algarrobo",
      "latitude":10.18694,
      "longitude":-74.57528
    },{
      "name":"Aracataca",
      "latitude":10.59181,
      "longitude":-74.18983
    },{
      "name":"Calamar",
      "latitude":10.2511,
      "longitude":-74.91462
    },{
      "name":"Cerro de San Antonio",
      "latitude":10.32585,
      "longitude":-74.86933
    },{
      "name":"Chivolo",
      "latitude":10.02502,
      "longitude":-74.62279
    },{
      "name":"Cienaga",
      "latitude":11.00703,
      "longitude":-74.24765
    },{
      "name":"Concordia",
      "latitude":9.83545,
      "longitude":-74.45548
    },{
      "name":"El Banco",
      "latitude":9.00114,
      "longitude":-73.97581
    },{
      "name":"El Pinon",
      "latitude":10.40283,
      "longitude":-74.82415
    },{
      "name":"El Reten",
      "latitude":10.61135,
      "longitude":-74.26824
    },{
      "name":"Fundacion",
      "latitude":10.52066,
      "longitude":-74.18504
    },{
      "name":"Guamal",
      "latitude":9.14334,
      "longitude":-74.22384
    },{
      "name":"Pijino",
      "latitude":9.32908,
      "longitude":-74.45302
    },{
      "name":"Pivijay",
      "latitude":10.46168,
      "longitude":-74.61621
    },{
      "name":"Plato",
      "latitude":9.79029,
      "longitude":-74.78244
    },{
      "name":"Puebloviejo",
      "latitude":10.99376,
      "longitude":-74.28438
    },{
      "name":"Remolino",
      "latitude":10.70198,
      "longitude":-74.71602
    },{
      "name":"Salamina",
      "latitude":10.49027,
      "longitude":-74.79463
    },{
      "name":"San Antonio",
      "latitude":9.93303,
      "longitude":-74.69346
    },{
      "name":"Santa Ana",
      "latitude":9.32125,
      "longitude":-74.56848
    },{
      "name":"Santa Marta",
      "latitude":11.24079,
      "longitude":-74.19904
    },{
      "name":"Zambrano",
      "latitude":9.74724,
      "longitude":-74.8153
    }]
  },{
    "name":"Departamento del Meta",
    "cities":[{
      "name":"Acacias",
      "latitude":3.98695,
      "longitude":-73.75797
    },{
      "name":"Cumaral",
      "latitude":4.2708,
      "longitude":-73.48669
    },{
      "name":"Granada",
      "latitude":3.54625,
      "longitude":-73.70687
    },{
      "name":"Guamal",
      "latitude":3.88043,
      "longitude":-73.76566
    },{
      "name":"Lejanias",
      "latitude":3.5251,
      "longitude":-74.02156
    },{
      "name":"Puerto Gaitan",
      "latitude":4.31328,
      "longitude":-72.08157
    },{
      "name":"Puerto Lleras",
      "latitude":3.02225,
      "longitude":-73.4044
    },{
      "name":"Puerto Lopez",
      "latitude":4.08451,
      "longitude":-72.95597
    },{
      "name":"Puerto Yuca",
      "latitude":2.93833,
      "longitude":-73.20833
    },{
      "name":"Restrepo",
      "latitude":4.25833,
      "longitude":-73.56142
    },{
      "name":"San Martin",
      "latitude":3.69637,
      "longitude":-73.69958
    },{
      "name":"Villavicencio",
      "latitude":4.142,
      "longitude":-73.62664
    }]
  },{
    "name":"Departamento del Putumayo",
    "cities":[{
      "name":"Mocoa",
      "latitude":1.14933,
      "longitude":-76.64661
    },{
      "name":"Orito",
      "latitude":0.67656,
      "longitude":-76.87712
    },{
      "name":"Puerto Asis",
      "latitude":0.51328,
      "longitude":-76.50075
    },{
      "name":"Puerto Leguizamo",
      "latitude":-0.19337,
      "longitude":-74.78189
    },{
      "name":"San Miguel",
      "latitude":0.34314,
      "longitude":-76.91124
    },{
      "name":"Sibundoy",
      "latitude":1.20478,
      "longitude":-76.92366
    },{
      "name":"Valle del Guamuez",
      "latitude":0.4525,
      "longitude":-76.91917
    },{
      "name":"Villagarzon",
      "latitude":1.0375,
      "longitude":-76.62667
    }]
  },{
    "name":"Departamento del Valle del Cauca",
    "cities":[{
      "name":"Alcala",
      "latitude":4.67472,
      "longitude":-75.7825
    },{
      "name":"Andalucia",
      "latitude":4.17061,
      "longitude":-76.16641
    },{
      "name":"Ansermanuevo",
      "latitude":4.79722,
      "longitude":-75.995
    },{
      "name":"Buenaventura",
      "latitude":3.8801,
      "longitude":-77.03116
    },{
      "name":"Buenaventura",
      "latitude":3.58333,
      "longitude":-77.0
    },{
      "name":"Buga",
      "latitude":3.90089,
      "longitude":-76.29783
    },{
      "name":"Bugalagrande",
      "latitude":4.21207,
      "longitude":-76.15564
    },{
      "name":"Caicedonia",
      "latitude":4.3324,
      "longitude":-75.82665
    },{
      "name":"Cali",
      "latitude":3.43722,
      "longitude":-76.5225
    },{
      "name":"Candelaria",
      "latitude":3.40671,
      "longitude":-76.34819
    },{
      "name":"Cartago",
      "latitude":4.74639,
      "longitude":-75.91167
    },{
      "name":"Dagua",
      "latitude":3.65685,
      "longitude":-76.68859
    },{
      "name":"El Cerrito",
      "latitude":3.68549,
      "longitude":-76.31372
    },{
      "name":"El Dovio",
      "latitude":4.5079,
      "longitude":-76.23619
    },{
      "name":"Florida",
      "latitude":3.3223,
      "longitude":-76.2348
    },{
      "name":"Ginebra",
      "latitude":3.72461,
      "longitude":-76.26675
    },{
      "name":"Guacari",
      "latitude":3.76383,
      "longitude":-76.33292
    },{
      "name":"Jamundi",
      "latitude":3.26074,
      "longitude":-76.53499
    },{
      "name":"La Union",
      "latitude":4.53282,
      "longitude":-76.10318
    },{
      "name":"La Victoria",
      "latitude":4.52271,
      "longitude":-76.03738
    },{
      "name":"Obando",
      "latitude":4.57583,
      "longitude":-75.97389
    },{
      "name":"Palmira",
      "latitude":3.53944,
      "longitude":-76.30361
    },{
      "name":"Pradera",
      "latitude":3.42111,
      "longitude":-76.24472
    },{
      "name":"Restrepo",
      "latitude":3.82203,
      "longitude":-76.52242
    },{
      "name":"Riofrio",
      "latitude":4.1571,
      "longitude":-76.28852
    },{
      "name":"Roldanillo",
      "latitude":4.41256,
      "longitude":-76.15457
    },{
      "name":"San Pedro",
      "latitude":3.99456,
      "longitude":-76.2278
    },{
      "name":"Sevilla",
      "latitude":4.26425,
      "longitude":-75.93085
    },{
      "name":"Toro",
      "latitude":4.61167,
      "longitude":-76.08139
    },{
      "name":"Trujillo",
      "latitude":4.21217,
      "longitude":-76.31945
    },{
      "name":"Tulua",
      "latitude":4.08466,
      "longitude":-76.19536
    },{
      "name":"Yotoco",
      "latitude":3.86048,
      "longitude":-76.38364
    },{
      "name":"Yumbo",
      "latitude":3.58234,
      "longitude":-76.49146
    },{
      "name":"Zarzal",
      "latitude":4.39462,
      "longitude":-76.0715
    }]
  },{
    "name":"Departamento del Vaupes",
    "cities":[{
      "name":"Mitu",
      "latitude":1.19833,
      "longitude":-70.17333
    }]
  },{
    "name":"Departamento del Vichada",
    "cities":[{
      "name":"Puerto Carreno",
      "latitude":6.18903,
      "longitude":-67.48588
    }]
  },{
    "name":"Distrito Capital de Bogota",
    "cities":[{
      "name":"Bogota",
      "latitude":4.60971,
      "longitude":-74.08175
    }]
  },{
    "name":"Providencia y Santa Catalina, Departamento de Archipielago de San Andres",
    "cities":[{
      "name":"San Andres",
      "latitude":12.58472,
      "longitude":-81.70056
    }]
  },{
    "name":"Quindio Department",
    "cities":[{
      "name":"Armenia",
      "latitude":4.53389,
      "longitude":-75.68111
    },{
      "name":"Calarca",
      "latitude":4.52949,
      "longitude":-75.64091
    },{
      "name":"Circasia",
      "latitude":4.61889,
      "longitude":-75.63583
    },{
      "name":"Filandia",
      "latitude":4.67472,
      "longitude":-75.65833
    },{
      "name":"Genova",
      "latitude":4.31667,
      "longitude":-75.76667
    },{
      "name":"La Tebaida",
      "latitude":4.45265,
      "longitude":-75.78746
    },{
      "name":"Montenegro",
      "latitude":4.56639,
      "longitude":-75.75111
    },{
      "name":"Pijao",
      "latitude":4.33419,
      "longitude":-75.70348
    },{
      "name":"Quimbaya",
      "latitude":4.62306,
      "longitude":-75.76278
    }]
  }]
}
