{
  "name":"Cyprus",
  "regions":[{
    "name":"Eparchia Ammochostou",
    "cities":[{
      "name":"Dherinia",
      "latitude":35.06667,
      "longitude":33.95833
    },{
      "name":"Famagusta",
      "latitude":35.125,
      "longitude":33.95
    },{
      "name":"Paralimni",
      "latitude":35.0375,
      "longitude":33.98333
    },{
      "name":"Protaras",
      "latitude":35.0125,
      "longitude":34.05833
    },{
      "name":"Rizokarpaso",
      "latitude":35.6,
      "longitude":34.375
    }]
  },{
    "name":"Eparchia Keryneias",
    "cities":[{
      "name":"Kyrenia",
      "latitude":35.34167,
      "longitude":33.31667
    },{
      "name":"Lapithos",
      "latitude":35.3375,
      "longitude":33.17917
    }]
  },{
    "name":"Eparchia Lefkosias",
    "cities":[{
      "name":"Dhali",
      "latitude":35.025,
      "longitude":33.42083
    },{
      "name":"Lefka",
      "latitude":35.11199,
      "longitude":32.84997
    },{
      "name":"Morfou",
      "latitude":35.19869,
      "longitude":32.99338
    },{
      "name":"Nicosia",
      "latitude":35.16667,
      "longitude":33.36667
    },{
      "name":"Xeri",
      "latitude":35.075,
      "longitude":33.32083
    },{
      "name":"Yeri",
      "latitude":35.1,
      "longitude":33.41667
    }]
  },{
    "name":"Eparchia Lemesou",
    "cities":[{
      "name":"Limassol",
      "latitude":34.675,
      "longitude":33.03333
    },{
      "name":"Ypsonas",
      "latitude":34.68844,
      "longitude":32.95743
    }]
  },{
    "name":"Eparchia Pafou",
    "cities":[{
      "name":"Paphos",
      "latitude":34.76667,
      "longitude":32.41667
    }]
  },{
    "name":"Larnaca District",
    "cities":[{
      "name":"Aradhippou",
      "latitude":34.95,
      "longitude":33.59167
    },{
      "name":"Dhromolaxia",
      "latitude":34.87551,
      "longitude":33.58684
    },{
      "name":"Larnaca",
      "latitude":34.91667,
      "longitude":33.62917
    },{
      "name":"Livadhia",
      "latitude":34.95417,
      "longitude":33.62917
    },{
      "name":"Pergamos",
      "latitude":35.04167,
      "longitude":33.70833
    }]
  }]
}
