{
  "name":"France",
  "regions":[{
    "name":"Region Alsace",
    "cities":[{
      "name":"Altkirch",
      "latitude":47.61667,
      "longitude":7.25
    },{
      "name":"Barr",
      "latitude":48.40755,
      "longitude":7.44873
    },{
      "name":"Benfeld",
      "latitude":48.37062,
      "longitude":7.5937
    },{
      "name":"Bischheim",
      "latitude":48.61612,
      "longitude":7.75343
    },{
      "name":"Bischwiller",
      "latitude":48.76588,
      "longitude":7.85831
    },{
      "name":"Brumath",
      "latitude":48.73014,
      "longitude":7.7121
    },{
      "name":"Brunstatt",
      "latitude":47.72004,
      "longitude":7.31784
    },{
      "name":"Cernay",
      "latitude":47.8097,
      "longitude":7.17699
    },{
      "name":"Colmar",
      "latitude":48.08333,
      "longitude":7.36667
    },{
      "name":"Eckbolsheim",
      "latitude":48.58075,
      "longitude":7.68768
    },{
      "name":"Ensisheim",
      "latitude":47.86695,
      "longitude":7.35212
    },{
      "name":"Erstein",
      "latitude":48.42373,
      "longitude":7.66262
    },{
      "name":"Geispolsheim",
      "latitude":48.51658,
      "longitude":7.64667
    },{
      "name":"Guebwiller",
      "latitude":47.91667,
      "longitude":7.2
    },{
      "name":"Haguenau",
      "latitude":48.81557,
      "longitude":7.79051
    },{
      "name":"Hoenheim",
      "latitude":48.62224,
      "longitude":7.75549
    },{
      "name":"Horbourg-Wihr",
      "latitude":48.08106,
      "longitude":7.3938
    },{
      "name":"Huningue",
      "latitude":47.60477,
      "longitude":7.57782
    },{
      "name":"Illkirch-Graffenstaden",
      "latitude":48.52894,
      "longitude":7.71523
    },{
      "name":"Illzach",
      "latitude":47.78088,
      "longitude":7.34662
    },{
      "name":"Kingersheim",
      "latitude":47.79259,
      "longitude":7.33491
    },{
      "name":"La Wantzenau",
      "latitude":48.65786,
      "longitude":7.83068
    },{
      "name":"Lingolsheim",
      "latitude":48.55752,
      "longitude":7.68253
    },{
      "name":"Lutterbach",
      "latitude":47.75835,
      "longitude":7.27695
    },{
      "name":"Molsheim",
      "latitude":48.54042,
      "longitude":7.49199
    },{
      "name":"Mulhouse",
      "latitude":47.75,
      "longitude":7.33333
    },{
      "name":"Mundolsheim",
      "latitude":48.64215,
      "longitude":7.71378
    },{
      "name":"Munster",
      "latitude":48.04089,
      "longitude":7.13338
    },{
      "name":"Mutzig",
      "latitude":48.53974,
      "longitude":7.45594
    },{
      "name":"Obernai",
      "latitude":48.46313,
      "longitude":7.481
    },{
      "name":"Ostwald",
      "latitude":48.54369,
      "longitude":7.71099
    },{
      "name":"Pfastatt",
      "latitude":47.77044,
      "longitude":7.30103
    },{
      "name":"Reichshoffen",
      "latitude":48.93287,
      "longitude":7.66561
    },{
      "name":"Reichstett",
      "latitude":48.64856,
      "longitude":7.75455
    },{
      "name":"Riedisheim",
      "latitude":47.74757,
      "longitude":7.36665
    },{
      "name":"Rixheim",
      "latitude":47.7514,
      "longitude":7.40091
    },{
      "name":"Saint-Louis",
      "latitude":47.58836,
      "longitude":7.56247
    },{
      "name":"Sainte-Marie-aux-Mines",
      "latitude":48.2468,
      "longitude":7.18528
    },{
      "name":"Sausheim",
      "latitude":47.78976,
      "longitude":7.37134
    },{
      "name":"Saverne",
      "latitude":48.74164,
      "longitude":7.36221
    },{
      "name":"Schiltigheim",
      "latitude":48.60749,
      "longitude":7.74931
    },{
      "name":"Selestat",
      "latitude":48.26667,
      "longitude":7.45
    },{
      "name":"Souffelweyersheim",
      "latitude":48.6354,
      "longitude":7.74141
    },{
      "name":"Soultz-Haut-Rhin",
      "latitude":47.8874,
      "longitude":7.23042
    },{
      "name":"Strasbourg",
      "latitude":48.58342,
      "longitude":7.74296
    },{
      "name":"Thann",
      "latitude":47.81667,
      "longitude":7.08333
    },{
      "name":"Vendenheim",
      "latitude":48.66948,
      "longitude":7.70983
    },{
      "name":"Wasselonne",
      "latitude":48.63723,
      "longitude":7.44731
    },{
      "name":"Wintzenheim",
      "latitude":48.07269,
      "longitude":7.29072
    },{
      "name":"Wissembourg",
      "latitude":49.03708,
      "longitude":7.94548
    },{
      "name":"Wittelsheim",
      "latitude":47.80947,
      "longitude":7.24154
    },{
      "name":"Wittenheim",
      "latitude":47.8078,
      "longitude":7.33702
    }]
  },{
    "name":"Region Aquitaine",
    "cities":[{
      "name":"Agen",
      "latitude":44.2,
      "longitude":0.63333
    },{
      "name":"Ambares-et-Lagrave",
      "latitude":44.91667,
      "longitude":-0.48333
    },{
      "name":"Andernos-les-Bains",
      "latitude":44.74572,
      "longitude":-1.10355
    },{
      "name":"Anglet",
      "latitude":43.47664,
      "longitude":-1.51346
    },{
      "name":"Arcachon",
      "latitude":44.65,
      "longitude":-1.16667
    },{
      "name":"Ares",
      "latitude":44.76667,
      "longitude":-1.13333
    },{
      "name":"Artigues-pres-Bordeaux",
      "latitude":44.85,
      "longitude":-0.51667
    },{
      "name":"Audenge",
      "latitude":44.68686,
      "longitude":-1.01345
    },{
      "name":"Bassens",
      "latitude":44.90226,
      "longitude":-0.51631
    },{
      "name":"Bayonne",
      "latitude":43.48333,
      "longitude":-1.48333
    },{
      "name":"Bazas",
      "latitude":44.43202,
      "longitude":-0.21327
    },{
      "name":"Begles",
      "latitude":44.80845,
      "longitude":-0.54809
    },{
      "name":"Bergerac",
      "latitude":44.85,
      "longitude":0.48333
    },{
      "name":"Biarritz",
      "latitude":43.48012,
      "longitude":-1.55558
    },{
      "name":"Bidart",
      "latitude":43.4376,
      "longitude":-1.59127
    },{
      "name":"Biganos",
      "latitude":44.64504,
      "longitude":-0.97367
    },{
      "name":"Billere",
      "latitude":43.3,
      "longitude":-0.4
    },{
      "name":"Biscarrosse",
      "latitude":44.39454,
      "longitude":-1.16721
    },{
      "name":"Bizanos",
      "latitude":43.28333,
      "longitude":-0.35
    },{
      "name":"Blanquefort",
      "latitude":44.91248,
      "longitude":-0.63663
    },{
      "name":"Blaye",
      "latitude":45.13333,
      "longitude":-0.66667
    },{
      "name":"Bon-Encontre",
      "latitude":44.18518,
      "longitude":0.66759
    },{
      "name":"Bordeaux",
      "latitude":44.84044,
      "longitude":-0.5805
    },{
      "name":"Boucau",
      "latitude":43.5277,
      "longitude":-1.46556
    },{
      "name":"Boulazac",
      "latitude":45.11667,
      "longitude":0.75
    },{
      "name":"Bruges",
      "latitude":44.87981,
      "longitude":-0.61219
    },{
      "name":"Canejan",
      "latitude":44.76667,
      "longitude":-0.63333
    },{
      "name":"Capbreton",
      "latitude":43.64216,
      "longitude":-1.42816
    },{
      "name":"Carbon-Blanc",
      "latitude":44.89642,
      "longitude":-0.50107
    },{
      "name":"Casteljaloux",
      "latitude":44.31762,
      "longitude":0.08605
    },{
      "name":"Cenon",
      "latitude":44.8559,
      "longitude":-0.51839
    },{
      "name":"Cestas",
      "latitude":44.74345,
      "longitude":-0.67905
    },{
      "name":"Ciboure",
      "latitude":43.38286,
      "longitude":-1.676
    },{
      "name":"Coulounieix-Chamiers",
      "latitude":45.15289,
      "longitude":0.68852
    },{
      "name":"Coutras",
      "latitude":45.03333,
      "longitude":-0.13333
    },{
      "name":"Dax",
      "latitude":43.71032,
      "longitude":-1.05366
    },{
      "name":"Eysines",
      "latitude":44.88352,
      "longitude":-0.64686
    },{
      "name":"Floirac",
      "latitude":44.83238,
      "longitude":-0.51411
    },{
      "name":"Foulayronnes",
      "latitude":44.24029,
      "longitude":0.64516
    },{
      "name":"Fumel",
      "latitude":44.49862,
      "longitude":0.96506
    },{
      "name":"Gan",
      "latitude":43.23333,
      "longitude":-0.38333
    },{
      "name":"Gradignan",
      "latitude":44.77262,
      "longitude":-0.61393
    },{
      "name":"Gujan-Mestras",
      "latitude":44.63333,
      "longitude":-1.06667
    },{
      "name":"Hasparren",
      "latitude":43.38377,
      "longitude":-1.30499
    },{
      "name":"Hendaye",
      "latitude":43.37172,
      "longitude":-1.77382
    },{
      "name":"Jurancon",
      "latitude":43.2883,
      "longitude":-0.38694
    },{
      "name":"La Teste-de-Buch",
      "latitude":44.62875,
      "longitude":-1.14059
    },{
      "name":"Langon",
      "latitude":44.55,
      "longitude":-0.25
    },{
      "name":"Lanton",
      "latitude":44.70478,
      "longitude":-1.03562
    },{
      "name":"Le Bouscat",
      "latitude":44.866,
      "longitude":-0.59411
    },{
      "name":"Le Haillan",
      "latitude":44.87225,
      "longitude":-0.67965
    },{
      "name":"Le Passage",
      "latitude":44.20143,
      "longitude":0.60275
    },{
      "name":"Le Pian-Medoc",
      "latitude":44.95537,
      "longitude":-0.66227
    },{
      "name":"Le Taillan-Medoc",
      "latitude":44.9052,
      "longitude":-0.6706
    },{
      "name":"Le Teich",
      "latitude":44.63177,
      "longitude":-1.02155
    },{
      "name":"Leognan",
      "latitude":44.73548,
      "longitude":-0.59738
    },{
      "name":"Lescar",
      "latitude":43.33333,
      "longitude":-0.41667
    },{
      "name":"Lesparre-Medoc",
      "latitude":45.3,
      "longitude":-0.93333
    },{
      "name":"Libourne",
      "latitude":44.91667,
      "longitude":-0.23333
    },{
      "name":"Lons",
      "latitude":43.31667,
      "longitude":-0.4
    },{
      "name":"Lormont",
      "latitude":44.87495,
      "longitude":-0.51782
    },{
      "name":"Marmande",
      "latitude":44.5,
      "longitude":0.16667
    },{
      "name":"Martignas-sur-Jalle",
      "latitude":44.84528,
      "longitude":-0.7806
    },{
      "name":"Merignac",
      "latitude":44.83248,
      "longitude":-0.63381
    },{
      "name":"Mimizan",
      "latitude":44.20057,
      "longitude":-1.22886
    },{
      "name":"Mios",
      "latitude":44.60489,
      "longitude":-0.93329
    },{
      "name":"Mont-de-Marsan",
      "latitude":43.89022,
      "longitude":-0.49713
    },{
      "name":"Montpon-Menesterol",
      "latitude":45.0,
      "longitude":0.16667
    },{
      "name":"Mourenx",
      "latitude":43.38333,
      "longitude":-0.6
    },{
      "name":"Nerac",
      "latitude":44.13333,
      "longitude":0.35
    },{
      "name":"Oloron-Sainte-Marie",
      "latitude":43.19441,
      "longitude":-0.61069
    },{
      "name":"Orthez",
      "latitude":43.48838,
      "longitude":-0.77244
    },{
      "name":"Parempuyre",
      "latitude":44.95038,
      "longitude":-0.60453
    },{
      "name":"Pau",
      "latitude":43.3,
      "longitude":-0.36667
    },{
      "name":"Pauillac",
      "latitude":45.19644,
      "longitude":-0.74873
    },{
      "name":"Perigueux",
      "latitude":45.18333,
      "longitude":0.71667
    },{
      "name":"Pessac",
      "latitude":44.81011,
      "longitude":-0.64129
    },{
      "name":"Saint-Aubin-de-Medoc",
      "latitude":44.75,
      "longitude":-0.71667
    },{
      "name":"Saint-Jean-de-Luz",
      "latitude":43.38871,
      "longitude":-1.66267
    },{
      "name":"Saint-Loubes",
      "latitude":44.91536,
      "longitude":-0.42703
    },{
      "name":"Saint-Medard-en-Jalles",
      "latitude":44.89692,
      "longitude":-0.72136
    },{
      "name":"Saint-Paul-les-Dax",
      "latitude":43.72715,
      "longitude":-1.05162
    },{
      "name":"Saint-Pierre-du-Mont",
      "latitude":43.88453,
      "longitude":-0.52185
    },{
      "name":"Saint-Vincent-de-Tyrosse",
      "latitude":43.66031,
      "longitude":-1.30799
    },{
      "name":"Sainte-Livrade-sur-Lot",
      "latitude":44.39929,
      "longitude":0.5912
    },{
      "name":"Salies-de-Bearn",
      "latitude":43.47422,
      "longitude":-0.92448
    },{
      "name":"Sarlat-la-Caneda",
      "latitude":44.88902,
      "longitude":1.21656
    },{
      "name":"Soustons",
      "latitude":43.75328,
      "longitude":-1.3278
    },{
      "name":"Talence",
      "latitude":44.80477,
      "longitude":-0.59543
    },{
      "name":"Tarnos",
      "latitude":43.5417,
      "longitude":-1.46281
    },{
      "name":"Terrasson-Lavilledieu",
      "latitude":45.13011,
      "longitude":1.30136
    },{
      "name":"Tonneins",
      "latitude":44.39206,
      "longitude":0.31241
    },{
      "name":"Trelissac",
      "latitude":45.19766,
      "longitude":0.78615
    },{
      "name":"Urrugne",
      "latitude":43.36361,
      "longitude":-1.69921
    },{
      "name":"Ustaritz",
      "latitude":43.3965,
      "longitude":-1.45604
    },{
      "name":"Villenave-dOrnon",
      "latitude":44.77327,
      "longitude":-0.5442
    },{
      "name":"Villeneuve-sur-Lot",
      "latitude":44.40854,
      "longitude":0.70415
    }]
  },{
    "name":"Region Auvergne",
    "cities":[{
      "name":"Ambert",
      "latitude":45.55,
      "longitude":3.75
    },{
      "name":"Arpajon-sur-Cere",
      "latitude":44.90262,
      "longitude":2.45809
    },{
      "name":"Aubiere",
      "latitude":45.75157,
      "longitude":3.11251
    },{
      "name":"Aurec-sur-Loire",
      "latitude":45.36907,
      "longitude":4.2049
    },{
      "name":"Aurillac",
      "latitude":44.91667,
      "longitude":2.45
    },{
      "name":"Beaumont",
      "latitude":45.75123,
      "longitude":3.08355
    },{
      "name":"Bellerive-sur-Allier",
      "latitude":46.11633,
      "longitude":3.40338
    },{
      "name":"Brioude",
      "latitude":45.3,
      "longitude":3.4
    },{
      "name":"Cebazat",
      "latitude":45.83405,
      "longitude":3.10048
    },{
      "name":"Ceyrat",
      "latitude":45.73176,
      "longitude":3.06335
    },{
      "name":"Chamalieres",
      "latitude":45.77559,
      "longitude":3.0631
    },{
      "name":"Chatel-Guyon",
      "latitude":45.91667,
      "longitude":3.06667
    },{
      "name":"Clermont-Ferrand",
      "latitude":45.77966,
      "longitude":3.08628
    },{
      "name":"Commentry",
      "latitude":46.29211,
      "longitude":2.7416
    },{
      "name":"Cournon-dAuvergne",
      "latitude":45.73543,
      "longitude":3.19608
    },{
      "name":"Cusset",
      "latitude":46.13002,
      "longitude":3.45963
    },{
      "name":"Domerat",
      "latitude":46.36064,
      "longitude":2.53426
    },{
      "name":"Gannat",
      "latitude":46.10015,
      "longitude":3.19886
    },{
      "name":"Gerzat",
      "latitude":45.82432,
      "longitude":3.14404
    },{
      "name":"Issoire",
      "latitude":45.55,
      "longitude":3.25
    },{
      "name":"Le Cendre",
      "latitude":45.72118,
      "longitude":3.18839
    },{
      "name":"Le Puy-en-Velay",
      "latitude":45.04366,
      "longitude":3.88523
    },{
      "name":"Lezoux",
      "latitude":45.82689,
      "longitude":3.37924
    },{
      "name":"Monistrol-sur-Loire",
      "latitude":45.29334,
      "longitude":4.17161
    },{
      "name":"Montlucon",
      "latitude":46.33333,
      "longitude":2.6
    },{
      "name":"Moulins",
      "latitude":46.56667,
      "longitude":3.33333
    },{
      "name":"Pont-du-Chateau",
      "latitude":45.80078,
      "longitude":3.25008
    },{
      "name":"Riom",
      "latitude":45.9,
      "longitude":3.11667
    },{
      "name":"Romagnat",
      "latitude":45.72878,
      "longitude":3.09893
    },{
      "name":"Saint-Flour",
      "latitude":45.03333,
      "longitude":3.08333
    },{
      "name":"Saint-Francois",
      "latitude":46.41538,
      "longitude":3.90542
    },{
      "name":"Saint-Pourcain-sur-Sioule",
      "latitude":46.30927,
      "longitude":3.28787
    },{
      "name":"Sainte-Sigolene",
      "latitude":45.24329,
      "longitude":4.23343
    },{
      "name":"Thiers",
      "latitude":45.85,
      "longitude":3.56667
    },{
      "name":"Vichy",
      "latitude":46.11667,
      "longitude":3.41667
    },{
      "name":"Yssingeaux",
      "latitude":45.13333,
      "longitude":4.11667
    },{
      "name":"Yzeure",
      "latitude":46.56438,
      "longitude":3.35495
    }]
  },{
    "name":"Region Basse-Normandie",
    "cities":[{
      "name":"Agneaux",
      "latitude":49.11905,
      "longitude":-1.1061
    },{
      "name":"Alencon",
      "latitude":48.43333,
      "longitude":0.08333
    },{
      "name":"Argentan",
      "latitude":48.75,
      "longitude":-0.01667
    },{
      "name":"Avranches",
      "latitude":48.68333,
      "longitude":-1.36667
    },{
      "name":"Bayeux",
      "latitude":49.27732,
      "longitude":-0.7039
    },{
      "name":"Caen",
      "latitude":49.18585,
      "longitude":-0.35912
    },{
      "name":"Carentan",
      "latitude":49.30312,
      "longitude":-1.24806
    },{
      "name":"Cherbourg-Octeville",
      "latitude":49.63984,
      "longitude":-1.61636
    },{
      "name":"Colombelles",
      "latitude":49.2049,
      "longitude":-0.29571
    },{
      "name":"Conde-sur-Noireau",
      "latitude":48.84881,
      "longitude":-0.55214
    },{
      "name":"Coutances",
      "latitude":49.05,
      "longitude":-1.43333
    },{
      "name":"Dives-sur-Mer",
      "latitude":49.28176,
      "longitude":-0.10125
    },{
      "name":"Douvres-la-Delivrande",
      "latitude":49.29472,
      "longitude":-0.38039
    },{
      "name":"Equeurdreville-Hainneville",
      "latitude":49.64868,
      "longitude":-1.65306
    },{
      "name":"Falaise",
      "latitude":48.89217,
      "longitude":-0.19527
    },{
      "name":"Flers",
      "latitude":48.73722,
      "longitude":-0.57466
    },{
      "name":"Granville",
      "latitude":48.83792,
      "longitude":-1.59714
    },{
      "name":"Herouville-Saint-Clair",
      "latitude":49.21088,
      "longitude":-0.30653
    },{
      "name":"Honfleur",
      "latitude":49.41985,
      "longitude":0.23294
    },{
      "name":"Ifs",
      "latitude":49.14,
      "longitude":-0.34899
    },{
      "name":"La Ferte-Mace",
      "latitude":48.58999,
      "longitude":-0.358
    },{
      "name":"La Glacerie",
      "latitude":49.60517,
      "longitude":-1.58185
    },{
      "name":"Lisieux",
      "latitude":49.1466,
      "longitude":0.22925
    },{
      "name":"Mondeville",
      "latitude":49.17497,
      "longitude":-0.32238
    },{
      "name":"Octeville",
      "latitude":49.62612,
      "longitude":-1.64349
    },{
      "name":"Ouistreham",
      "latitude":49.27566,
      "longitude":-0.2591
    },{
      "name":"Querqueville",
      "latitude":49.66251,
      "longitude":-1.69119
    },{
      "name":"Saint-Lo",
      "latitude":49.11624,
      "longitude":-1.09031
    },{
      "name":"Tourlaville",
      "latitude":49.63828,
      "longitude":-1.56639
    },{
      "name":"Trouville-sur-Mer",
      "latitude":49.3657,
      "longitude":0.08041
    },{
      "name":"Valognes",
      "latitude":49.50881,
      "longitude":-1.47047
    },{
      "name":"Vire",
      "latitude":48.83333,
      "longitude":-0.88333
    }]
  },{
    "name":"Region Bourgogne",
    "cities":[{
      "name":"Autun",
      "latitude":46.95,
      "longitude":4.3
    },{
      "name":"Auxerre",
      "latitude":47.8,
      "longitude":3.56667
    },{
      "name":"Auxonne",
      "latitude":47.19255,
      "longitude":5.38726
    },{
      "name":"Avallon",
      "latitude":47.48333,
      "longitude":3.9
    },{
      "name":"Beaune",
      "latitude":47.03333,
      "longitude":4.83333
    },{
      "name":"Blanzy",
      "latitude":46.70012,
      "longitude":4.38833
    },{
      "name":"Bourbon-Lancy",
      "latitude":46.62214,
      "longitude":3.76953
    },{
      "name":"Chagny",
      "latitude":46.90953,
      "longitude":4.7519
    },{
      "name":"Chalon-sur-Saone",
      "latitude":46.78333,
      "longitude":4.85
    },{
      "name":"Charnay-les-Macon",
      "latitude":46.30751,
      "longitude":4.78479
    },{
      "name":"Chatenoy-le-Royal",
      "latitude":46.79797,
      "longitude":4.8119
    },{
      "name":"Chatillon-sur-Seine",
      "latitude":47.85851,
      "longitude":4.57375
    },{
      "name":"Chenove",
      "latitude":47.29323,
      "longitude":5.00457
    },{
      "name":"Chevigny-Saint-Sauveur",
      "latitude":47.29908,
      "longitude":5.13367
    },{
      "name":"Cosne-Cours-sur-Loire",
      "latitude":47.41101,
      "longitude":2.92528
    },{
      "name":"Decize",
      "latitude":46.82852,
      "longitude":3.46192
    },{
      "name":"Digoin",
      "latitude":46.48124,
      "longitude":3.97946
    },{
      "name":"Dijon",
      "latitude":47.31667,
      "longitude":5.01667
    },{
      "name":"Fontaine-les-Dijon",
      "latitude":47.34238,
      "longitude":5.02007
    },{
      "name":"Genlis",
      "latitude":47.24203,
      "longitude":5.22415
    },{
      "name":"Gueugnon",
      "latitude":46.60357,
      "longitude":4.06286
    },{
      "name":"Joigny",
      "latitude":47.98288,
      "longitude":3.40096
    },{
      "name":"La Charite-sur-Loire",
      "latitude":47.18333,
      "longitude":3.01667
    },{
      "name":"Le Creusot",
      "latitude":46.80714,
      "longitude":4.41632
    },{
      "name":"Longvic",
      "latitude":47.28754,
      "longitude":5.06341
    },{
      "name":"Louhans",
      "latitude":46.63333,
      "longitude":5.21667
    },{
      "name":"Macon",
      "latitude":46.3,
      "longitude":4.83333
    },{
      "name":"Marsannay-la-Cote",
      "latitude":47.27095,
      "longitude":4.98895
    },{
      "name":"Migennes",
      "latitude":47.96548,
      "longitude":3.51787
    },{
      "name":"Moneteau",
      "latitude":47.84923,
      "longitude":3.58178
    },{
      "name":"Montbard",
      "latitude":47.61667,
      "longitude":4.33333
    },{
      "name":"Montceau-les-Mines",
      "latitude":46.66667,
      "longitude":4.36667
    },{
      "name":"Montchanin",
      "latitude":46.74964,
      "longitude":4.4707
    },{
      "name":"Nevers",
      "latitude":46.98956,
      "longitude":3.159
    },{
      "name":"Nuits-Saint-Georges",
      "latitude":47.13683,
      "longitude":4.949
    },{
      "name":"Paray-le-Monial",
      "latitude":46.45457,
      "longitude":4.11584
    },{
      "name":"Quetigny",
      "latitude":47.31667,
      "longitude":5.11667
    },{
      "name":"Saint-Apollinaire",
      "latitude":47.33333,
      "longitude":5.08333
    },{
      "name":"Saint-Florentin",
      "latitude":48.00057,
      "longitude":3.72489
    },{
      "name":"Saint-Leu",
      "latitude":46.7306,
      "longitude":4.50083
    },{
      "name":"Saint-Remy",
      "latitude":46.76334,
      "longitude":4.83928
    },{
      "name":"Saint-Vallier",
      "latitude":46.64107,
      "longitude":4.37107
    },{
      "name":"Semur-en-Auxois",
      "latitude":47.48333,
      "longitude":4.33333
    },{
      "name":"Sens",
      "latitude":48.2,
      "longitude":3.28333
    },{
      "name":"Talant",
      "latitude":47.33694,
      "longitude":5.00888
    },{
      "name":"Tonnerre",
      "latitude":47.85628,
      "longitude":3.97369
    },{
      "name":"Tournus",
      "latitude":46.56758,
      "longitude":4.90574
    },{
      "name":"Varennes-Vauzelles",
      "latitude":47.01678,
      "longitude":3.14037
    },{
      "name":"Villeneuve-sur-Yonne",
      "latitude":48.08247,
      "longitude":3.29688
    }]
  },{
    "name":"Region Bretagne",
    "cities":[{
      "name":"Acigne",
      "latitude":48.13333,
      "longitude":-1.53704
    },{
      "name":"Arradon",
      "latitude":47.6271,
      "longitude":-2.8215
    },{
      "name":"Auray",
      "latitude":47.67025,
      "longitude":-2.99183
    },{
      "name":"Bain-de-Bretagne",
      "latitude":47.84418,
      "longitude":-1.68486
    },{
      "name":"Bannalec",
      "latitude":47.93229,
      "longitude":-3.69759
    },{
      "name":"Baud",
      "latitude":47.87474,
      "longitude":-3.0176
    },{
      "name":"Betton",
      "latitude":48.18048,
      "longitude":-1.63829
    },{
      "name":"Brech",
      "latitude":47.72134,
      "longitude":-2.99862
    },{
      "name":"Brest",
      "latitude":48.4,
      "longitude":-4.48333
    },{
      "name":"Bruz",
      "latitude":48.0242,
      "longitude":-1.74591
    },{
      "name":"Cancale",
      "latitude":48.67601,
      "longitude":-1.85231
    },{
      "name":"Carhaix-Plouguer",
      "latitude":48.27594,
      "longitude":-3.57326
    },{
      "name":"Caudan",
      "latitude":47.80877,
      "longitude":-3.3425
    },{
      "name":"Cesson-Sevigne",
      "latitude":48.1212,
      "longitude":-1.603
    },{
      "name":"Chantepie",
      "latitude":48.08885,
      "longitude":-1.61524
    },{
      "name":"Chartres-de-Bretagne",
      "latitude":48.03924,
      "longitude":-1.70533
    },{
      "name":"Chateaubourg",
      "latitude":48.11119,
      "longitude":-1.40019
    },{
      "name":"Chateaugiron",
      "latitude":48.04629,
      "longitude":-1.50438
    },{
      "name":"Chateaulin",
      "latitude":48.2,
      "longitude":-4.08333
    },{
      "name":"Chatillon-sur-Seiche",
      "latitude":48.03448,
      "longitude":-1.67114
    },{
      "name":"Combourg",
      "latitude":48.41267,
      "longitude":-1.74424
    },{
      "name":"Concarneau",
      "latitude":47.87502,
      "longitude":-3.92245
    },{
      "name":"Crozon",
      "latitude":48.24643,
      "longitude":-4.48993
    },{
      "name":"Dinan",
      "latitude":48.45,
      "longitude":-2.03333
    },{
      "name":"Dinard",
      "latitude":48.63143,
      "longitude":-2.06144
    },{
      "name":"Dol-de-Bretagne",
      "latitude":48.54765,
      "longitude":-1.75018
    },{
      "name":"Douarnenez",
      "latitude":48.09542,
      "longitude":-4.32904
    },{
      "name":"Ergue-Gaberic",
      "latitude":47.99562,
      "longitude":-4.02223
    },{
      "name":"Fouesnant",
      "latitude":47.89187,
      "longitude":-4.01484
    },{
      "name":"Fougeres",
      "latitude":48.35,
      "longitude":-1.2
    },{
      "name":"Fouillard",
      "latitude":48.1582,
      "longitude":-1.57914
    },{
      "name":"Gouesnou",
      "latitude":48.45266,
      "longitude":-4.46456
    },{
      "name":"Gourin",
      "latitude":48.13866,
      "longitude":-3.60755
    },{
      "name":"Guer",
      "latitude":47.90619,
      "longitude":-2.12314
    },{
      "name":"Guichen",
      "latitude":47.96762,
      "longitude":-1.79534
    },{
      "name":"Guidel-Plage",
      "latitude":47.76768,
      "longitude":-3.5218
    },{
      "name":"Guilers",
      "latitude":48.42545,
      "longitude":-4.55801
    },{
      "name":"Guingamp",
      "latitude":48.55,
      "longitude":-3.15
    },{
      "name":"Guipavas",
      "latitude":48.43522,
      "longitude":-4.39722
    },{
      "name":"Hennebont",
      "latitude":47.80512,
      "longitude":-3.27337
    },{
      "name":"Janze",
      "latitude":47.95915,
      "longitude":-1.49829
    },{
      "name":"Lamballe",
      "latitude":48.46762,
      "longitude":-2.51436
    },{
      "name":"Landerneau",
      "latitude":48.45252,
      "longitude":-4.25252
    },{
      "name":"Landivisiau",
      "latitude":48.50784,
      "longitude":-4.06833
    },{
      "name":"Lanester",
      "latitude":47.76132,
      "longitude":-3.33965
    },{
      "name":"Langueux",
      "latitude":48.495,
      "longitude":-2.7185
    },{
      "name":"Languidic",
      "latitude":47.83266,
      "longitude":-3.15821
    },{
      "name":"Lannion",
      "latitude":48.73333,
      "longitude":-3.46667
    },{
      "name":"Larmor-Plage",
      "latitude":47.70646,
      "longitude":-3.38339
    },{
      "name":"Le Relecq-Kerhuon",
      "latitude":48.40691,
      "longitude":-4.39359
    },{
      "name":"Le Rheu",
      "latitude":48.10228,
      "longitude":-1.79734
    },{
      "name":"Lesneven",
      "latitude":48.57233,
      "longitude":-4.32133
    },{
      "name":"Liffre",
      "latitude":48.21324,
      "longitude":-1.50838
    },{
      "name":"Lorient",
      "latitude":47.75,
      "longitude":-3.36667
    },{
      "name":"Loudeac",
      "latitude":48.17826,
      "longitude":-2.75433
    },{
      "name":"Melesse",
      "latitude":48.21771,
      "longitude":-1.69496
    },{
      "name":"Moelan-sur-Mer",
      "latitude":47.81418,
      "longitude":-3.62892
    },{
      "name":"Montfort-sur-Meu",
      "latitude":48.13542,
      "longitude":-1.95201
    },{
      "name":"Mordelles",
      "latitude":48.07571,
      "longitude":-1.84286
    },{
      "name":"Morlaix",
      "latitude":48.58333,
      "longitude":-3.83333
    },{
      "name":"Pace",
      "latitude":48.14848,
      "longitude":-1.77327
    },{
      "name":"Paimpol",
      "latitude":48.77841,
      "longitude":-3.04375
    },{
      "name":"Perros-Guirec",
      "latitude":48.81454,
      "longitude":-3.43963
    },{
      "name":"Plabennec",
      "latitude":48.50244,
      "longitude":-4.42656
    },{
      "name":"Pledran",
      "latitude":48.446,
      "longitude":-2.74667
    },{
      "name":"Plerin",
      "latitude":48.54249,
      "longitude":-2.77984
    },{
      "name":"Ploemeur",
      "latitude":47.73333,
      "longitude":-3.43333
    },{
      "name":"Ploermel",
      "latitude":47.93172,
      "longitude":-2.39781
    },{
      "name":"Ploneour-Lanvern",
      "latitude":47.9,
      "longitude":-4.28333
    },{
      "name":"Plouay",
      "latitude":47.91444,
      "longitude":-3.33384
    },{
      "name":"Ploudalmezeau",
      "latitude":48.53333,
      "longitude":-4.65
    },{
      "name":"Ploufragan",
      "latitude":48.49141,
      "longitude":-2.79458
    },{
      "name":"Plougastel-Daoulas",
      "latitude":48.36667,
      "longitude":-4.36667
    },{
      "name":"Plouguerneau",
      "latitude":48.6,
      "longitude":-4.5
    },{
      "name":"Plouzane",
      "latitude":48.38333,
      "longitude":-4.61667
    },{
      "name":"Pluvigner",
      "latitude":47.77627,
      "longitude":-3.01013
    },{
      "name":"Pontivy",
      "latitude":48.06667,
      "longitude":-2.98333
    },{
      "name":"Pordic",
      "latitude":48.57051,
      "longitude":-2.81783
    },{
      "name":"Questembert",
      "latitude":47.66296,
      "longitude":-2.4522
    },{
      "name":"Queven",
      "latitude":47.78333,
      "longitude":-3.41667
    },{
      "name":"Quiberon",
      "latitude":47.48412,
      "longitude":-3.11962
    },{
      "name":"Quimper",
      "latitude":48.0,
      "longitude":-4.1
    },{
      "name":"Quimperle",
      "latitude":47.86667,
      "longitude":-3.55
    },{
      "name":"Redon",
      "latitude":47.65,
      "longitude":-2.08333
    },{
      "name":"Rennes",
      "latitude":48.11198,
      "longitude":-1.67429
    },{
      "name":"Rosporden",
      "latitude":47.96667,
      "longitude":-3.83333
    },{
      "name":"Saint-Ave",
      "latitude":47.69085,
      "longitude":-2.74648
    },{
      "name":"Saint-Brieuc",
      "latitude":48.51513,
      "longitude":-2.76838
    },{
      "name":"Saint-Gregoire",
      "latitude":48.15085,
      "longitude":-1.68706
    },{
      "name":"Saint-Jacques-de-la-Lande",
      "latitude":48.06514,
      "longitude":-1.72086
    },{
      "name":"Saint-Malo",
      "latitude":48.65,
      "longitude":-2.01667
    },{
      "name":"Saint-Martin-des-Champs",
      "latitude":48.58333,
      "longitude":-3.83333
    },{
      "name":"Saint-Pol-de-Leon",
      "latitude":48.68333,
      "longitude":-3.98333
    },{
      "name":"Saint-Renan",
      "latitude":48.43333,
      "longitude":-4.61667
    },{
      "name":"Sarzeau",
      "latitude":47.52772,
      "longitude":-2.76933
    },{
      "name":"Scaer",
      "latitude":48.03333,
      "longitude":-3.7
    },{
      "name":"Sene",
      "latitude":47.619,
      "longitude":-2.737
    },{
      "name":"Theix",
      "latitude":47.62916,
      "longitude":-2.65186
    },{
      "name":"Tregunc",
      "latitude":47.85,
      "longitude":-3.85
    },{
      "name":"Vannes",
      "latitude":47.66667,
      "longitude":-2.75
    },{
      "name":"Vern-sur-Seiche",
      "latitude":48.04514,
      "longitude":-1.60057
    },{
      "name":"Vitre",
      "latitude":48.11776,
      "longitude":-1.20577
    }]
  },{
    "name":"Region Centre",
    "cities":[{
      "name":"Amboise",
      "latitude":47.41249,
      "longitude":0.98266
    },{
      "name":"Amilly",
      "latitude":47.97281,
      "longitude":2.77186
    },{
      "name":"Argenton-sur-Creuse",
      "latitude":46.58997,
      "longitude":1.51981
    },{
      "name":"Aubigny-sur-Nere",
      "latitude":47.48819,
      "longitude":2.43895
    },{
      "name":"Ballan-Mire",
      "latitude":47.34057,
      "longitude":0.61466
    },{
      "name":"Beaugency",
      "latitude":47.78019,
      "longitude":1.62705
    },{
      "name":"Blois",
      "latitude":47.58333,
      "longitude":1.33333
    },{
      "name":"Bourges",
      "latitude":47.08333,
      "longitude":2.4
    },{
      "name":"Briare",
      "latitude":47.63343,
      "longitude":2.7438
    },{
      "name":"Chalette-sur-Loing",
      "latitude":48.01337,
      "longitude":2.73587
    },{
      "name":"Chambray-les-Tours",
      "latitude":47.33537,
      "longitude":0.70286
    },{
      "name":"Chartres",
      "latitude":48.44685,
      "longitude":1.48925
    },{
      "name":"Chateau-Renault",
      "latitude":47.59188,
      "longitude":0.91143
    },{
      "name":"Chateaudun",
      "latitude":48.08333,
      "longitude":1.33333
    },{
      "name":"Chateauneuf-sur-Loire",
      "latitude":47.86575,
      "longitude":2.21904
    },{
      "name":"Chateauroux",
      "latitude":46.81667,
      "longitude":1.7
    },{
      "name":"Checy",
      "latitude":47.89402,
      "longitude":2.02304
    },{
      "name":"Chinon",
      "latitude":47.16667,
      "longitude":0.25
    },{
      "name":"Deols",
      "latitude":46.82934,
      "longitude":1.70428
    },{
      "name":"Dreux",
      "latitude":48.73333,
      "longitude":1.36667
    },{
      "name":"Epernon",
      "latitude":48.61032,
      "longitude":1.67218
    },{
      "name":"Fleury-les-Aubrais",
      "latitude":47.93328,
      "longitude":1.91811
    },{
      "name":"Fondettes",
      "latitude":47.4035,
      "longitude":0.59686
    },{
      "name":"Gien",
      "latitude":47.69332,
      "longitude":2.63094
    },{
      "name":"Ingre",
      "latitude":47.91995,
      "longitude":1.82778
    },{
      "name":"Issoudun",
      "latitude":46.95,
      "longitude":2.0
    },{
      "name":"Joue-les-Tours",
      "latitude":47.35223,
      "longitude":0.66906
    },{
      "name":"La Chapelle-Saint-Mesmin",
      "latitude":47.88648,
      "longitude":1.8345
    },{
      "name":"La Ferte-Saint-Aubin",
      "latitude":47.71695,
      "longitude":1.93904
    },{
      "name":"La Riche",
      "latitude":47.38996,
      "longitude":0.67072
    },{
      "name":"Le Blanc",
      "latitude":46.63333,
      "longitude":1.06667
    },{
      "name":"Le Poinconnet",
      "latitude":46.7641,
      "longitude":1.7179
    },{
      "name":"Loches",
      "latitude":47.13333,
      "longitude":1.0
    },{
      "name":"Luce",
      "latitude":48.4369,
      "longitude":1.46359
    },{
      "name":"Luisant",
      "latitude":48.4295,
      "longitude":1.47383
    },{
      "name":"Luynes",
      "latitude":47.38441,
      "longitude":0.5547
    },{
      "name":"Mainvilliers",
      "latitude":48.45004,
      "longitude":1.45607
    },{
      "name":"Malesherbes",
      "latitude":48.29566,
      "longitude":2.40935
    },{
      "name":"Mehun-sur-Yevre",
      "latitude":47.13782,
      "longitude":2.21105
    },{
      "name":"Mer",
      "latitude":47.70555,
      "longitude":1.50621
    },{
      "name":"Meung-sur-Loire",
      "latitude":47.83124,
      "longitude":1.69582
    },{
      "name":"Montargis",
      "latitude":48.0,
      "longitude":2.75
    },{
      "name":"Montlouis-sur-Loire",
      "latitude":47.38845,
      "longitude":0.83208
    },{
      "name":"Monts",
      "latitude":47.27723,
      "longitude":0.62473
    },{
      "name":"Nogent-le-Rotrou",
      "latitude":48.31667,
      "longitude":0.83333
    },{
      "name":"Olivet",
      "latitude":47.86219,
      "longitude":1.8991
    },{
      "name":"Orleans",
      "latitude":47.90289,
      "longitude":1.90389
    },{
      "name":"Pithiviers",
      "latitude":48.16667,
      "longitude":2.25
    },{
      "name":"Romorantin-Lanthenay",
      "latitude":47.36667,
      "longitude":1.75
    },{
      "name":"Saint-Amand-Montrond",
      "latitude":46.71667,
      "longitude":2.51667
    },{
      "name":"Saint-Avertin",
      "latitude":47.36357,
      "longitude":0.73993
    },{
      "name":"Saint-Cyr-sur-Loire",
      "latitude":47.4,
      "longitude":0.66667
    },{
      "name":"Saint-Denis-en-Val",
      "latitude":47.87321,
      "longitude":1.96601
    },{
      "name":"Saint-Doulchard",
      "latitude":47.10371,
      "longitude":2.352
    },{
      "name":"Saint-Florent-sur-Cher",
      "latitude":46.99552,
      "longitude":2.25076
    },{
      "name":"Saint-Germain-du-Puy",
      "latitude":47.1,
      "longitude":2.48333
    },{
      "name":"Saint-Jean-de-Braye",
      "latitude":47.91303,
      "longitude":1.97705
    },{
      "name":"Saint-Jean-de-la-Ruelle",
      "latitude":47.91127,
      "longitude":1.86483
    },{
      "name":"Saint-Jean-le-Blanc",
      "latitude":47.89327,
      "longitude":1.9154
    },{
      "name":"Saint-Pierre-des-Corps",
      "latitude":47.38623,
      "longitude":0.74849
    },{
      "name":"Saint-Pryve-Saint-Mesmin",
      "latitude":47.88177,
      "longitude":1.8695
    },{
      "name":"Salbris",
      "latitude":47.4242,
      "longitude":2.05124
    },{
      "name":"Saran",
      "latitude":47.95013,
      "longitude":1.87601
    },{
      "name":"Sully-sur-Loire",
      "latitude":47.76372,
      "longitude":2.37238
    },{
      "name":"Tours",
      "latitude":47.38333,
      "longitude":0.68333
    },{
      "name":"Veigne",
      "latitude":47.28556,
      "longitude":0.74079
    },{
      "name":"Vendome",
      "latitude":47.8,
      "longitude":1.06667
    },{
      "name":"Vernouillet",
      "latitude":48.7209,
      "longitude":1.36951
    },{
      "name":"Vierzon",
      "latitude":47.21667,
      "longitude":2.08333
    },{
      "name":"Villemandeur",
      "latitude":47.98701,
      "longitude":2.71802
    },{
      "name":"Vineuil",
      "latitude":47.5838,
      "longitude":1.37602
    }]
  },{
    "name":"Region Champagne-Ardenne",
    "cities":[{
      "name":"Bar-sur-Aube",
      "latitude":48.23333,
      "longitude":4.71667
    },{
      "name":"Betheny",
      "latitude":49.28498,
      "longitude":4.05495
    },{
      "name":"Chalons-en-Champagne",
      "latitude":48.95393,
      "longitude":4.36724
    },{
      "name":"Charleville-Mezieres",
      "latitude":49.76667,
      "longitude":4.71667
    },{
      "name":"Chaumont",
      "latitude":48.11121,
      "longitude":5.14134
    },{
      "name":"Cormontreuil",
      "latitude":49.21667,
      "longitude":4.05
    },{
      "name":"Epernay",
      "latitude":49.05,
      "longitude":3.95
    },{
      "name":"Fismes",
      "latitude":49.30773,
      "longitude":3.68607
    },{
      "name":"Givet",
      "latitude":50.13796,
      "longitude":4.82545
    },{
      "name":"La Chapelle-Saint-Luc",
      "latitude":48.31734,
      "longitude":4.03988
    },{
      "name":"Langres",
      "latitude":47.86667,
      "longitude":5.33333
    },{
      "name":"Mourmelon-le-Grand",
      "latitude":49.13256,
      "longitude":4.3642
    },{
      "name":"Nogent-sur-Seine",
      "latitude":48.48333,
      "longitude":3.5
    },{
      "name":"Nouzonville",
      "latitude":49.81369,
      "longitude":4.74736
    },{
      "name":"Pont-Sainte-Marie",
      "latitude":48.31848,
      "longitude":4.09447
    },{
      "name":"Reims",
      "latitude":49.25,
      "longitude":4.03333
    },{
      "name":"Rethel",
      "latitude":49.51667,
      "longitude":4.36667
    },{
      "name":"Revin",
      "latitude":49.94039,
      "longitude":4.63503
    },{
      "name":"Romilly-sur-Seine",
      "latitude":48.51085,
      "longitude":3.72634
    },{
      "name":"Saint-Andre-les-Vergers",
      "latitude":48.28527,
      "longitude":4.0521
    },{
      "name":"Saint-Dizier",
      "latitude":48.63333,
      "longitude":4.95
    },{
      "name":"Saint-Julien-les-Villas",
      "latitude":48.27127,
      "longitude":4.09901
    },{
      "name":"Saint-Memmie",
      "latitude":48.95247,
      "longitude":4.38409
    },{
      "name":"Sainte-Menehould",
      "latitude":49.08333,
      "longitude":4.9
    },{
      "name":"Sainte-Savine",
      "latitude":48.29637,
      "longitude":4.04642
    },{
      "name":"Sedan",
      "latitude":49.7,
      "longitude":4.95
    },{
      "name":"Sezanne",
      "latitude":48.72047,
      "longitude":3.72339
    },{
      "name":"Tinqueux",
      "latitude":49.25,
      "longitude":3.98333
    },{
      "name":"Troyes",
      "latitude":48.3,
      "longitude":4.08333
    },{
      "name":"Vitry-le-Francois",
      "latitude":48.73333,
      "longitude":4.58333
    }]
  },{
    "name":"Region Corse",
    "cities":[{
      "name":"Ajaccio",
      "latitude":41.92723,
      "longitude":8.73462
    },{
      "name":"Bastia",
      "latitude":42.70278,
      "longitude":9.45
    },{
      "name":"Biguglia",
      "latitude":42.62589,
      "longitude":9.43324
    },{
      "name":"Borgo",
      "latitude":42.55488,
      "longitude":9.42636
    },{
      "name":"Calvi",
      "latitude":42.56604,
      "longitude":8.75713
    },{
      "name":"Corte",
      "latitude":42.3,
      "longitude":9.15
    },{
      "name":"Porto-Vecchio",
      "latitude":41.59101,
      "longitude":9.27947
    }]
  },{
    "name":"Region Franche-Comte",
    "cities":[{
      "name":"Audincourt",
      "latitude":47.48327,
      "longitude":6.85341
    },{
      "name":"Baume-les-Dames",
      "latitude":47.35295,
      "longitude":6.36117
    },{
      "name":"Beaucourt",
      "latitude":47.4899,
      "longitude":6.92407
    },{
      "name":"Belfort",
      "latitude":47.63333,
      "longitude":6.86667
    },{
      "name":"Besancon",
      "latitude":47.24878,
      "longitude":6.01815
    },{
      "name":"Bethoncourt",
      "latitude":47.53512,
      "longitude":6.80504
    },{
      "name":"Champagnole",
      "latitude":46.74452,
      "longitude":5.91354
    },{
      "name":"Delle",
      "latitude":47.51048,
      "longitude":6.99963
    },{
      "name":"Dole",
      "latitude":47.1,
      "longitude":5.5
    },{
      "name":"Grand-Charmont",
      "latitude":47.52674,
      "longitude":6.82604
    },{
      "name":"Gray",
      "latitude":47.44575,
      "longitude":5.59215
    },{
      "name":"Hericourt",
      "latitude":47.57305,
      "longitude":6.76139
    },{
      "name":"Lons-le-Saunier",
      "latitude":46.66667,
      "longitude":5.55
    },{
      "name":"Lure",
      "latitude":47.68333,
      "longitude":6.5
    },{
      "name":"Luxeuil-les-Bains",
      "latitude":47.8171,
      "longitude":6.365
    },{
      "name":"Mandeure",
      "latitude":47.44921,
      "longitude":6.80762
    },{
      "name":"Montbeliard",
      "latitude":47.51667,
      "longitude":6.8
    },{
      "name":"Morez",
      "latitude":46.5254,
      "longitude":6.02589
    },{
      "name":"Morteau",
      "latitude":47.05784,
      "longitude":6.60716
    },{
      "name":"Pontarlier",
      "latitude":46.90347,
      "longitude":6.35542
    },{
      "name":"Saint-Claude",
      "latitude":46.38679,
      "longitude":5.86473
    },{
      "name":"Seloncourt",
      "latitude":47.45989,
      "longitude":6.85535
    },{
      "name":"Valdahon",
      "latitude":47.15,
      "longitude":6.35
    },{
      "name":"Valdoie",
      "latitude":47.66799,
      "longitude":6.84446
    },{
      "name":"Valentigney",
      "latitude":47.46388,
      "longitude":6.83168
    },{
      "name":"Valfin-les-Saint-Claude",
      "latitude":46.43758,
      "longitude":5.85513
    },{
      "name":"Vesoul",
      "latitude":47.63333,
      "longitude":6.16667
    }]
  },{
    "name":"Region Haute-Normandie",
    "cities":[{
      "name":"Barentin",
      "latitude":49.54533,
      "longitude":0.95515
    },{
      "name":"Bernay",
      "latitude":49.08888,
      "longitude":0.59858
    },{
      "name":"Bihorel",
      "latitude":49.45468,
      "longitude":1.1223
    },{
      "name":"Bois-Guillaume",
      "latitude":49.4602,
      "longitude":1.12219
    },{
      "name":"Bolbec",
      "latitude":49.57321,
      "longitude":0.47339
    },{
      "name":"Canteleu",
      "latitude":49.44065,
      "longitude":1.02459
    },{
      "name":"Caudebec-les-Elbeuf",
      "latitude":49.28082,
      "longitude":1.02195
    },{
      "name":"Cayenne",
      "latitude":49.55858,
      "longitude":1.62803
    },{
      "name":"Cleon",
      "latitude":49.31235,
      "longitude":1.0295
    },{
      "name":"Darnetal",
      "latitude":49.44533,
      "longitude":1.15144
    },{
      "name":"Deville-les-Rouen",
      "latitude":49.46942,
      "longitude":1.05214
    },{
      "name":"Dieppe",
      "latitude":49.93333,
      "longitude":1.08333
    },{
      "name":"Elbeuf",
      "latitude":49.28669,
      "longitude":1.00288
    },{
      "name":"Eu",
      "latitude":50.04606,
      "longitude":1.42079
    },{
      "name":"Evreux",
      "latitude":49.02414,
      "longitude":1.15082
    },{
      "name":"Fecamp",
      "latitude":49.75787,
      "longitude":0.37457
    },{
      "name":"Gaillon",
      "latitude":49.16104,
      "longitude":1.34016
    },{
      "name":"Gisors",
      "latitude":49.28178,
      "longitude":1.7801
    },{
      "name":"Gournay-en-Bray",
      "latitude":49.48285,
      "longitude":1.72471
    },{
      "name":"Grand-Couronne",
      "latitude":49.35563,
      "longitude":1.00647
    },{
      "name":"Harfleur",
      "latitude":49.5066,
      "longitude":0.19827
    },{
      "name":"Le Grand-Quevilly",
      "latitude":49.40076,
      "longitude":1.04582
    },{
      "name":"Le Havre",
      "latitude":49.4938,
      "longitude":0.10767
    },{
      "name":"Le Mesnil-Esnard",
      "latitude":49.41319,
      "longitude":1.14521
    },{
      "name":"Le Petit-Quevilly",
      "latitude":49.41338,
      "longitude":1.06155
    },{
      "name":"Le Trait",
      "latitude":49.46895,
      "longitude":0.81634
    },{
      "name":"Le Treport",
      "latitude":50.05979,
      "longitude":1.37583
    },{
      "name":"Les Andelys",
      "latitude":49.25,
      "longitude":1.41667
    },{
      "name":"Lillebonne",
      "latitude":49.5203,
      "longitude":0.53617
    },{
      "name":"Louviers",
      "latitude":49.21667,
      "longitude":1.16667
    },{
      "name":"Malaunay",
      "latitude":49.5271,
      "longitude":1.04292
    },{
      "name":"Maromme",
      "latitude":49.47925,
      "longitude":1.02375
    },{
      "name":"Mont-Saint-Aignan",
      "latitude":49.46307,
      "longitude":1.09364
    },{
      "name":"Montivilliers",
      "latitude":49.54518,
      "longitude":0.18769
    },{
      "name":"Neufchatel-en-Bray",
      "latitude":49.73316,
      "longitude":1.43956
    },{
      "name":"Notre-Dame-de-Bondeville",
      "latitude":49.48333,
      "longitude":1.05
    },{
      "name":"Notre-Dame-de-Gravenchon",
      "latitude":49.4894,
      "longitude":0.57188
    },{
      "name":"Oissel",
      "latitude":49.33309,
      "longitude":1.09413
    },{
      "name":"Pacy-sur-Eure",
      "latitude":49.01667,
      "longitude":1.38333
    },{
      "name":"Pavilly",
      "latitude":49.56703,
      "longitude":0.95445
    },{
      "name":"Petit-Couronne",
      "latitude":49.38333,
      "longitude":1.01667
    },{
      "name":"Pont-Audemer",
      "latitude":49.35,
      "longitude":0.51667
    },{
      "name":"Rouen",
      "latitude":49.44313,
      "longitude":1.09932
    },{
      "name":"Saint-Aubin-les-Elbeuf",
      "latitude":49.3036,
      "longitude":1.01056
    },{
      "name":"Saint-Etienne-du-Rouvray",
      "latitude":49.37794,
      "longitude":1.10467
    },{
      "name":"Saint-Marcel",
      "latitude":49.1,
      "longitude":1.45
    },{
      "name":"Saint-Pierre-les-Elbeuf",
      "latitude":49.27901,
      "longitude":1.04305
    },{
      "name":"Saint-Valery-en-Caux",
      "latitude":49.86667,
      "longitude":0.73333
    },{
      "name":"Sainte-Adresse",
      "latitude":49.5089,
      "longitude":0.08446
    },{
      "name":"Sotteville-les-Rouen",
      "latitude":49.40972,
      "longitude":1.09006
    },{
      "name":"Val-de-Reuil",
      "latitude":49.27385,
      "longitude":1.21021
    },{
      "name":"Verneuil-sur-Avre",
      "latitude":48.73949,
      "longitude":0.92731
    },{
      "name":"Vernon",
      "latitude":49.09292,
      "longitude":1.46332
    },{
      "name":"Yvetot",
      "latitude":49.61744,
      "longitude":0.75814
    }]
  },{
    "name":"Region Ile-de-France",
    "cities":[{
      "name":"Ablon-sur-Seine",
      "latitude":48.72732,
      "longitude":2.42686
    },{
      "name":"Acheres",
      "latitude":48.96116,
      "longitude":2.06882
    },{
      "name":"Alfortville",
      "latitude":48.80575,
      "longitude":2.4204
    },{
      "name":"Andresy",
      "latitude":48.98234,
      "longitude":2.05687
    },{
      "name":"Antony",
      "latitude":48.75,
      "longitude":2.3
    },{
      "name":"Arcueil",
      "latitude":48.79993,
      "longitude":2.33256
    },{
      "name":"Argenteuil",
      "latitude":48.95,
      "longitude":2.25
    },{
      "name":"Arnouville",
      "latitude":48.98333,
      "longitude":2.41667
    },{
      "name":"Arpajon",
      "latitude":48.58875,
      "longitude":2.24672
    },{
      "name":"Asnieres-sur-Seine",
      "latitude":48.91667,
      "longitude":2.28333
    },{
      "name":"Athis-Mons",
      "latitude":48.70522,
      "longitude":2.39147
    },{
      "name":"Aubergenville",
      "latitude":48.95996,
      "longitude":1.85467
    },{
      "name":"Aubervilliers",
      "latitude":48.91667,
      "longitude":2.38333
    },{
      "name":"Aulnay-sous-Bois",
      "latitude":48.93814,
      "longitude":2.49402
    },{
      "name":"Auvers-sur-Oise",
      "latitude":49.07158,
      "longitude":2.16978
    },{
      "name":"Avon",
      "latitude":48.4022,
      "longitude":2.72022
    },{
      "name":"Bagneux",
      "latitude":48.79564,
      "longitude":2.30796
    },{
      "name":"Bagnolet",
      "latitude":48.86667,
      "longitude":2.41667
    },{
      "name":"Ballancourt-sur-Essonne",
      "latitude":48.52525,
      "longitude":2.38604
    },{
      "name":"Beauchamp",
      "latitude":49.01667,
      "longitude":2.2
    },{
      "name":"Beaumont-sur-Oise",
      "latitude":49.14232,
      "longitude":2.28705
    },{
      "name":"Bessancourt",
      "latitude":49.03765,
      "longitude":2.20936
    },{
      "name":"Beynes",
      "latitude":48.85626,
      "longitude":1.87261
    },{
      "name":"Bezons",
      "latitude":48.92426,
      "longitude":2.2128
    },{
      "name":"Bobigny",
      "latitude":48.9,
      "longitude":2.45
    },{
      "name":"Bois-Colombes",
      "latitude":48.91936,
      "longitude":2.27484
    },{
      "name":"Bois-dArcy",
      "latitude":48.79966,
      "longitude":2.02325
    },{
      "name":"Bois-le-Roi",
      "latitude":48.47348,
      "longitude":2.70464
    },{
      "name":"Boissy-Saint-Leger",
      "latitude":48.7515,
      "longitude":2.51163
    },{
      "name":"Bondoufle",
      "latitude":48.61294,
      "longitude":2.37775
    },{
      "name":"Bondy",
      "latitude":48.9018,
      "longitude":2.48931
    },{
      "name":"Bonneuil-sur-Marne",
      "latitude":48.7695,
      "longitude":2.4793
    },{
      "name":"Bouffemont",
      "latitude":49.04377,
      "longitude":2.29796
    },{
      "name":"Bougival",
      "latitude":48.86223,
      "longitude":2.14148
    },{
      "name":"Boulogne-Billancourt",
      "latitude":48.83333,
      "longitude":2.25
    },{
      "name":"Bourg-la-Reine",
      "latitude":48.77888,
      "longitude":2.31781
    },{
      "name":"Boussy-Saint-Antoine",
      "latitude":48.69101,
      "longitude":2.5306
    },{
      "name":"Bretigny-sur-Orge",
      "latitude":48.61135,
      "longitude":2.30593
    },{
      "name":"Breuillet",
      "latitude":48.57064,
      "longitude":2.17424
    },{
      "name":"Brie-Comte-Robert",
      "latitude":48.68333,
      "longitude":2.61667
    },{
      "name":"Brunoy",
      "latitude":48.6942,
      "longitude":2.49223
    },{
      "name":"Bry-sur-Marne",
      "latitude":48.83811,
      "longitude":2.52488
    },{
      "name":"Buc",
      "latitude":48.77627,
      "longitude":2.12577
    },{
      "name":"Bures-sur-Yvette",
      "latitude":48.69981,
      "longitude":2.17064
    },{
      "name":"Bussy-Saint-Georges",
      "latitude":48.84099,
      "longitude":2.70165
    },{
      "name":"Cachan",
      "latitude":48.79632,
      "longitude":2.33661
    },{
      "name":"Carrieres-sous-Poissy",
      "latitude":48.94952,
      "longitude":2.04068
    },{
      "name":"Carrieres-sur-Seine",
      "latitude":48.90687,
      "longitude":2.1792
    },{
      "name":"Cergy",
      "latitude":49.03645,
      "longitude":2.07613
    },{
      "name":"Cergy-Pontoise",
      "latitude":49.03894,
      "longitude":2.07805
    },{
      "name":"Cesson",
      "latitude":48.56204,
      "longitude":2.60816
    },{
      "name":"Chambourcy",
      "latitude":48.90655,
      "longitude":2.041
    },{
      "name":"Champagne-sur-Seine",
      "latitude":48.39794,
      "longitude":2.79785
    },{
      "name":"Champigny-sur-Marne",
      "latitude":48.81642,
      "longitude":2.49366
    },{
      "name":"Champs-sur-Marne",
      "latitude":48.85,
      "longitude":2.6
    },{
      "name":"Chanteloup-les-Vignes",
      "latitude":48.97614,
      "longitude":2.03261
    },{
      "name":"Charenton-le-Pont",
      "latitude":48.82209,
      "longitude":2.41217
    },{
      "name":"Chatenay-Malabry",
      "latitude":48.76507,
      "longitude":2.26655
    },{
      "name":"Chatillon",
      "latitude":48.8024,
      "longitude":2.29346
    },{
      "name":"Chatou",
      "latitude":48.8898,
      "longitude":2.15863
    },{
      "name":"Chaville",
      "latitude":48.80565,
      "longitude":2.18864
    },{
      "name":"Chelles",
      "latitude":48.88109,
      "longitude":2.59295
    },{
      "name":"Chennevieres-sur-Marne",
      "latitude":48.79702,
      "longitude":2.54046
    },{
      "name":"Chevilly-Larue",
      "latitude":48.76476,
      "longitude":2.3503
    },{
      "name":"Chevreuse",
      "latitude":48.70662,
      "longitude":2.03329
    },{
      "name":"Chilly-Mazarin",
      "latitude":48.71489,
      "longitude":2.31638
    },{
      "name":"Choisy-le-Roi",
      "latitude":48.76846,
      "longitude":2.41874
    },{
      "name":"Clamart",
      "latitude":48.80299,
      "longitude":2.26692
    },{
      "name":"Claye-Souilly",
      "latitude":48.94492,
      "longitude":2.68566
    },{
      "name":"Clichy",
      "latitude":48.90018,
      "longitude":2.30952
    },{
      "name":"Clichy-sous-Bois",
      "latitude":48.9102,
      "longitude":2.55324
    },{
      "name":"Colombes",
      "latitude":48.91882,
      "longitude":2.25404
    },{
      "name":"Combs-la-Ville",
      "latitude":48.66497,
      "longitude":2.56957
    },{
      "name":"Conflans-Sainte-Honorine",
      "latitude":49.00158,
      "longitude":2.09694
    },{
      "name":"Corbeil-Essonnes",
      "latitude":48.60603,
      "longitude":2.48757
    },{
      "name":"Cormeilles-en-Parisis",
      "latitude":48.97111,
      "longitude":2.20491
    },{
      "name":"Coulommiers",
      "latitude":48.81451,
      "longitude":3.08498
    },{
      "name":"Courbevoie",
      "latitude":48.89672,
      "longitude":2.25666
    },{
      "name":"Courcouronnes",
      "latitude":48.61429,
      "longitude":2.40762
    },{
      "name":"Courdimanche",
      "latitude":49.03513,
      "longitude":2.00096
    },{
      "name":"Courtry",
      "latitude":48.91906,
      "longitude":2.60431
    },{
      "name":"Creteil",
      "latitude":48.78333,
      "longitude":2.46667
    },{
      "name":"Croissy-sur-Seine",
      "latitude":48.87925,
      "longitude":2.13836
    },{
      "name":"Crosne",
      "latitude":48.71922,
      "longitude":2.45728
    },{
      "name":"Dammarie-les-Lys",
      "latitude":48.51667,
      "longitude":2.65
    },{
      "name":"Dammartin-en-Goele",
      "latitude":49.05423,
      "longitude":2.67777
    },{
      "name":"Deuil-la-Barre",
      "latitude":48.97674,
      "longitude":2.32722
    },{
      "name":"Domont",
      "latitude":49.02782,
      "longitude":2.32638
    },{
      "name":"Dourdan",
      "latitude":48.52772,
      "longitude":2.01113
    },{
      "name":"Drancy",
      "latitude":48.92578,
      "longitude":2.44533
    },{
      "name":"Draveil",
      "latitude":48.68466,
      "longitude":2.41418
    },{
      "name":"Dugny",
      "latitude":48.95371,
      "longitude":2.41734
    },{
      "name":"Eaubonne",
      "latitude":48.99712,
      "longitude":2.28249
    },{
      "name":"Ecouen",
      "latitude":49.02062,
      "longitude":2.38309
    },{
      "name":"Egly",
      "latitude":48.57828,
      "longitude":2.22416
    },{
      "name":"Elancourt",
      "latitude":48.7842,
      "longitude":1.9552
    },{
      "name":"Emerainville",
      "latitude":48.81276,
      "longitude":2.62139
    },{
      "name":"Enghien-les-Bains",
      "latitude":48.96667,
      "longitude":2.31667
    },{
      "name":"Epinay-sous-Senart",
      "latitude":48.6897,
      "longitude":2.51186
    },{
      "name":"Epinay-sur-Orge",
      "latitude":48.67338,
      "longitude":2.31074
    },{
      "name":"Epinay-sur-Seine",
      "latitude":48.9535,
      "longitude":2.31514
    },{
      "name":"Epone",
      "latitude":48.95476,
      "longitude":1.82233
    },{
      "name":"Eragny",
      "latitude":49.01667,
      "longitude":2.1
    },{
      "name":"Ermont",
      "latitude":48.99004,
      "longitude":2.25804
    },{
      "name":"Esbly",
      "latitude":48.9052,
      "longitude":2.81235
    },{
      "name":"Etampes",
      "latitude":48.43333,
      "longitude":2.15
    },{
      "name":"Etrechy",
      "latitude":48.49465,
      "longitude":2.19489
    },{
      "name":"Evry",
      "latitude":48.63333,
      "longitude":2.45
    },{
      "name":"Ezanville",
      "latitude":49.02794,
      "longitude":2.36786
    },{
      "name":"Fleury-Merogis",
      "latitude":48.6373,
      "longitude":2.36378
    },{
      "name":"Fontainebleau",
      "latitude":48.4,
      "longitude":2.7
    },{
      "name":"Fontenay-Tresigny",
      "latitude":48.70647,
      "longitude":2.87047
    },{
      "name":"Fontenay-aux-Roses",
      "latitude":48.79325,
      "longitude":2.29275
    },{
      "name":"Fontenay-le-Fleury",
      "latitude":48.81253,
      "longitude":2.04863
    },{
      "name":"Fontenay-sous-Bois",
      "latitude":48.85442,
      "longitude":2.48268
    },{
      "name":"Fosses",
      "latitude":49.09808,
      "longitude":2.50957
    },{
      "name":"Franconville",
      "latitude":48.98333,
      "longitude":2.23333
    },{
      "name":"Fresnes",
      "latitude":48.75568,
      "longitude":2.32241
    },{
      "name":"Gagny",
      "latitude":48.88333,
      "longitude":2.53333
    },{
      "name":"Garches",
      "latitude":48.84226,
      "longitude":2.18232
    },{
      "name":"Gargenville",
      "latitude":48.98802,
      "longitude":1.81176
    },{
      "name":"Garges-les-Gonesse",
      "latitude":48.96791,
      "longitude":2.39781
    },{
      "name":"Gennevilliers",
      "latitude":48.93333,
      "longitude":2.3
    },{
      "name":"Gentilly",
      "latitude":48.81294,
      "longitude":2.3417
    },{
      "name":"Gif-sur-Yvette",
      "latitude":48.68333,
      "longitude":2.13333
    },{
      "name":"Gonesse",
      "latitude":48.98693,
      "longitude":2.44892
    },{
      "name":"Gournay-sur-Marne",
      "latitude":48.86223,
      "longitude":2.58452
    },{
      "name":"Goussainville",
      "latitude":49.01367,
      "longitude":2.46595
    },{
      "name":"Gretz-Armainvilliers",
      "latitude":48.7412,
      "longitude":2.73105
    },{
      "name":"Grigny",
      "latitude":48.65412,
      "longitude":2.39343
    },{
      "name":"Groslay",
      "latitude":48.98561,
      "longitude":2.34736
    },{
      "name":"Guyancourt",
      "latitude":48.77334,
      "longitude":2.07393
    },{
      "name":"Herblay",
      "latitude":48.98994,
      "longitude":2.1699
    },{
      "name":"Houilles",
      "latitude":48.92161,
      "longitude":2.19263
    },{
      "name":"Igny",
      "latitude":48.74437,
      "longitude":2.22428
    },{
      "name":"Issy-les-Moulineaux",
      "latitude":48.82104,
      "longitude":2.27718
    },{
      "name":"Itteville",
      "latitude":48.51536,
      "longitude":2.34377
    },{
      "name":"Ivry-sur-Seine",
      "latitude":48.81568,
      "longitude":2.38487
    },{
      "name":"Joinville-le-Pont",
      "latitude":48.82538,
      "longitude":2.47458
    },{
      "name":"Jouars-Pontchartrain",
      "latitude":48.78888,
      "longitude":1.89898
    },{
      "name":"Jouy-en-Josas",
      "latitude":48.75909,
      "longitude":2.16966
    },{
      "name":"Jouy-le-Moutier",
      "latitude":49.01068,
      "longitude":2.04028
    },{
      "name":"Juvisy-sur-Orge",
      "latitude":48.68333,
      "longitude":2.38333
    },{
      "name":"LHay-les-Roses",
      "latitude":48.78333,
      "longitude":2.33333
    },{
      "name":"LIsle-Adam",
      "latitude":49.10744,
      "longitude":2.22818
    },{
      "name":"La Celle-Saint-Cloud",
      "latitude":48.85029,
      "longitude":2.14523
    },{
      "name":"La Courneuve",
      "latitude":48.92805,
      "longitude":2.39627
    },{
      "name":"La Defense",
      "latitude":48.89198,
      "longitude":2.23881
    },{
      "name":"La Ferte-sous-Jouarre",
      "latitude":48.9514,
      "longitude":3.12724
    },{
      "name":"La Garenne-Colombes",
      "latitude":48.90472,
      "longitude":2.2469
    },{
      "name":"La Queue-en-Brie",
      "latitude":48.7852,
      "longitude":2.58112
    },{
      "name":"La Verriere",
      "latitude":48.752,
      "longitude":1.94649
    },{
      "name":"La Ville-du-Bois",
      "latitude":48.65521,
      "longitude":2.26833
    },{
      "name":"Lagny-sur-Marne",
      "latitude":48.86667,
      "longitude":2.71667
    },{
      "name":"Le Blanc-Mesnil",
      "latitude":48.93872,
      "longitude":2.46138
    },{
      "name":"Le Bourget",
      "latitude":48.93405,
      "longitude":2.43584
    },{
      "name":"Le Chesnay",
      "latitude":48.8222,
      "longitude":2.12213
    },{
      "name":"Le Kremlin-Bicetre",
      "latitude":48.81471,
      "longitude":2.36073
    },{
      "name":"Le Mee-sur-Seine",
      "latitude":48.53157,
      "longitude":2.62829
    },{
      "name":"Le Mesnil-Saint-Denis",
      "latitude":48.74485,
      "longitude":1.95594
    },{
      "name":"Le Mesnil-le-Roi",
      "latitude":48.93825,
      "longitude":2.12554
    },{
      "name":"Le Pecq",
      "latitude":48.89317,
      "longitude":2.10371
    },{
      "name":"Le Perray-en-Yvelines",
      "latitude":48.69441,
      "longitude":1.85643
    },{
      "name":"Le Perreux-sur-Marne",
      "latitude":48.85,
      "longitude":2.5
    },{
      "name":"Le Plessis-Bouchard",
      "latitude":49.0,
      "longitude":2.23333
    },{
      "name":"Le Plessis-Robinson",
      "latitude":48.78889,
      "longitude":2.27078
    },{
      "name":"Le Plessis-Trevise",
      "latitude":48.81074,
      "longitude":2.57363
    },{
      "name":"Le Pre-Saint-Gervais",
      "latitude":48.88549,
      "longitude":2.40422
    },{
      "name":"Le Raincy",
      "latitude":48.9,
      "longitude":2.51667
    },{
      "name":"Le Vesinet",
      "latitude":48.89281,
      "longitude":2.13308
    },{
      "name":"Les Clayes-sous-Bois",
      "latitude":48.82206,
      "longitude":1.98677
    },{
      "name":"Les Essarts-le-Roi",
      "latitude":48.71673,
      "longitude":1.90089
    },{
      "name":"Les Lilas",
      "latitude":48.87992,
      "longitude":2.42057
    },{
      "name":"Les Mureaux",
      "latitude":48.99173,
      "longitude":1.90972
    },{
      "name":"Les Pavillons-sous-Bois",
      "latitude":48.90683,
      "longitude":2.50648
    },{
      "name":"Les Ulis",
      "latitude":48.68167,
      "longitude":2.16944
    },{
      "name":"Lesigny",
      "latitude":48.74374,
      "longitude":2.61518
    },{
      "name":"Levallois-Perret",
      "latitude":48.89389,
      "longitude":2.28864
    },{
      "name":"Lieusaint",
      "latitude":48.63476,
      "longitude":2.54806
    },{
      "name":"Limay",
      "latitude":48.99553,
      "longitude":1.74081
    },{
      "name":"Limeil-Brevannes",
      "latitude":48.7448,
      "longitude":2.48705
    },{
      "name":"Limours",
      "latitude":48.64625,
      "longitude":2.07688
    },{
      "name":"Linas",
      "latitude":48.63041,
      "longitude":2.26266
    },{
      "name":"Lisses",
      "latitude":48.60222,
      "longitude":2.42246
    },{
      "name":"Livry-Gargan",
      "latitude":48.9193,
      "longitude":2.54305
    },{
      "name":"Lognes",
      "latitude":48.83541,
      "longitude":2.62998
    },{
      "name":"Longjumeau",
      "latitude":48.69503,
      "longitude":2.30736
    },{
      "name":"Longpont-sur-Orge",
      "latitude":48.64172,
      "longitude":2.29278
    },{
      "name":"Louveciennes",
      "latitude":48.86116,
      "longitude":2.11463
    },{
      "name":"Louvres",
      "latitude":49.0446,
      "longitude":2.50479
    },{
      "name":"Magnanville",
      "latitude":48.96798,
      "longitude":1.67842
    },{
      "name":"Magny-en-Vexin",
      "latitude":49.15515,
      "longitude":1.78669
    },{
      "name":"Magny-les-Hameaux",
      "latitude":48.74345,
      "longitude":2.06154
    },{
      "name":"Maisons-Alfort",
      "latitude":48.81171,
      "longitude":2.43945
    },{
      "name":"Maisons-Laffitte",
      "latitude":48.95264,
      "longitude":2.14521
    },{
      "name":"Malakoff",
      "latitude":48.81999,
      "longitude":2.29998
    },{
      "name":"Mantes-la-Jolie",
      "latitude":48.98333,
      "longitude":1.71667
    },{
      "name":"Mantes-la-Ville",
      "latitude":48.97374,
      "longitude":1.70253
    },{
      "name":"Marcoussis",
      "latitude":48.64026,
      "longitude":2.23858
    },{
      "name":"Marly-la-Ville",
      "latitude":49.08202,
      "longitude":2.50348
    },{
      "name":"Marly-le-Roi",
      "latitude":48.86667,
      "longitude":2.08333
    },{
      "name":"Massy",
      "latitude":48.72692,
      "longitude":2.28301
    },{
      "name":"Maule",
      "latitude":48.91056,
      "longitude":1.85264
    },{
      "name":"Maurepas",
      "latitude":48.76486,
      "longitude":1.92923
    },{
      "name":"Meaux",
      "latitude":48.96014,
      "longitude":2.87885
    },{
      "name":"Melun",
      "latitude":48.53333,
      "longitude":2.66667
    },{
      "name":"Mennecy",
      "latitude":48.56903,
      "longitude":2.44384
    },{
      "name":"Menucourt",
      "latitude":49.02841,
      "longitude":1.98046
    },{
      "name":"Mery-sur-Oise",
      "latitude":49.05876,
      "longitude":2.19113
    },{
      "name":"Meudon",
      "latitude":48.81381,
      "longitude":2.235
    },{
      "name":"Meulan-en-Yvelines",
      "latitude":49.00768,
      "longitude":1.90602
    },{
      "name":"Mitry-Mory",
      "latitude":48.98333,
      "longitude":2.61667
    },{
      "name":"Moissy-Cramayel",
      "latitude":48.62605,
      "longitude":2.60125
    },{
      "name":"Montereau-Fault-Yonne",
      "latitude":48.38333,
      "longitude":2.95
    },{
      "name":"Montesson",
      "latitude":48.90924,
      "longitude":2.13754
    },{
      "name":"Montfermeil",
      "latitude":48.8982,
      "longitude":2.57913
    },{
      "name":"Montgeron",
      "latitude":48.70543,
      "longitude":2.45039
    },{
      "name":"Montigny-le-Bretonneux",
      "latitude":48.76636,
      "longitude":2.03405
    },{
      "name":"Montigny-les-Cormeilles",
      "latitude":48.98202,
      "longitude":2.20035
    },{
      "name":"Montlhery",
      "latitude":48.64004,
      "longitude":2.27465
    },{
      "name":"Montmagny",
      "latitude":48.97338,
      "longitude":2.34688
    },{
      "name":"Montmorency",
      "latitude":48.98826,
      "longitude":2.3434
    },{
      "name":"Montreuil",
      "latitude":48.86415,
      "longitude":2.44322
    },{
      "name":"Montrouge",
      "latitude":48.8162,
      "longitude":2.31394
    },{
      "name":"Morangis",
      "latitude":48.70383,
      "longitude":2.33908
    },{
      "name":"Morsang-sur-Orge",
      "latitude":48.6618,
      "longitude":2.35338
    },{
      "name":"Nandy",
      "latitude":48.58301,
      "longitude":2.56292
    },{
      "name":"Nangis",
      "latitude":48.55535,
      "longitude":3.01306
    },{
      "name":"Nanterre",
      "latitude":48.89198,
      "longitude":2.20675
    },{
      "name":"Nanteuil-les-Meaux",
      "latitude":48.9294,
      "longitude":2.89594
    },{
      "name":"Nemours",
      "latitude":48.27511,
      "longitude":2.69078
    },{
      "name":"Neuilly-Plaisance",
      "latitude":48.86342,
      "longitude":2.506
    },{
      "name":"Neuilly-sur-Marne",
      "latitude":48.85373,
      "longitude":2.54903
    },{
      "name":"Neuilly-sur-Seine",
      "latitude":48.8846,
      "longitude":2.26965
    },{
      "name":"Nogent-sur-Marne",
      "latitude":48.83333,
      "longitude":2.48333
    },{
      "name":"Noisiel",
      "latitude":48.84868,
      "longitude":2.62435
    },{
      "name":"Noisy-le-Grand",
      "latitude":48.84979,
      "longitude":2.56266
    },{
      "name":"Noisy-le-Roi",
      "latitude":48.84445,
      "longitude":2.06345
    },{
      "name":"Noisy-le-Sec",
      "latitude":48.89148,
      "longitude":2.46451
    },{
      "name":"Orgeval",
      "latitude":48.92162,
      "longitude":1.9779
    },{
      "name":"Orly",
      "latitude":48.74792,
      "longitude":2.39252
    },{
      "name":"Ormesson-sur-Marne",
      "latitude":48.7863,
      "longitude":2.54471
    },{
      "name":"Orsay",
      "latitude":48.69572,
      "longitude":2.18727
    },{
      "name":"Osny",
      "latitude":49.05937,
      "longitude":2.06183
    },{
      "name":"Othis",
      "latitude":49.07387,
      "longitude":2.67502
    },{
      "name":"Ozoir-la-Ferriere",
      "latitude":48.76699,
      "longitude":2.66871
    },{
      "name":"Palaiseau",
      "latitude":48.71667,
      "longitude":2.25
    },{
      "name":"Pantin",
      "latitude":48.89437,
      "longitude":2.40935
    },{
      "name":"Paray-Vieille-Poste",
      "latitude":48.71402,
      "longitude":2.36283
    },{
      "name":"Paris",
      "latitude":48.85341,
      "longitude":2.3488
    },{
      "name":"Parmain",
      "latitude":49.11247,
      "longitude":2.21487
    },{
      "name":"Persan",
      "latitude":49.15336,
      "longitude":2.27218
    },{
      "name":"Pierrefitte-sur-Seine",
      "latitude":48.96691,
      "longitude":2.36104
    },{
      "name":"Pierrelaye",
      "latitude":49.0211,
      "longitude":2.1548
    },{
      "name":"Plaisir",
      "latitude":48.82319,
      "longitude":1.9541
    },{
      "name":"Poissy",
      "latitude":48.92902,
      "longitude":2.04952
    },{
      "name":"Pontault-Combault",
      "latitude":48.79813,
      "longitude":2.60676
    },{
      "name":"Ponthierry",
      "latitude":48.53366,
      "longitude":2.54419
    },{
      "name":"Pontoise",
      "latitude":49.05,
      "longitude":2.1
    },{
      "name":"Provins",
      "latitude":48.55,
      "longitude":3.3
    },{
      "name":"Puteaux",
      "latitude":48.88341,
      "longitude":2.23894
    },{
      "name":"Quincy-Voisins",
      "latitude":48.90114,
      "longitude":2.87559
    },{
      "name":"Quincy-sous-Senart",
      "latitude":48.67294,
      "longitude":2.53419
    },{
      "name":"Rambouillet",
      "latitude":48.65,
      "longitude":1.83333
    },{
      "name":"Ris-Orangis",
      "latitude":48.6511,
      "longitude":2.41406
    },{
      "name":"Roissy-en-Brie",
      "latitude":48.79159,
      "longitude":2.64747
    },{
      "name":"Romainville",
      "latitude":48.8854,
      "longitude":2.43482
    },{
      "name":"Rosny-sous-Bois",
      "latitude":48.87017,
      "longitude":2.4991
    },{
      "name":"Rueil-Malmaison",
      "latitude":48.8765,
      "longitude":2.18967
    },{
      "name":"Rungis",
      "latitude":48.74607,
      "longitude":2.35274
    },{
      "name":"Saint-Arnoult-en-Yvelines",
      "latitude":48.57111,
      "longitude":1.9395
    },{
      "name":"Saint-Brice-sous-Foret",
      "latitude":49.00132,
      "longitude":2.35361
    },{
      "name":"Saint-Cloud",
      "latitude":48.84598,
      "longitude":2.20289
    },{
      "name":"Saint-Cyr-lEcole",
      "latitude":48.79865,
      "longitude":2.06814
    },{
      "name":"Saint-Denis",
      "latitude":48.93333,
      "longitude":2.36667
    },{
      "name":"Saint-Fargeau-Ponthierry",
      "latitude":48.55713,
      "longitude":2.5284
    },{
      "name":"Saint-Germain-en-Laye",
      "latitude":48.9,
      "longitude":2.08333
    },{
      "name":"Saint-Germain-les-Arpajon",
      "latitude":48.59733,
      "longitude":2.26481
    },{
      "name":"Saint-Germain-les-Corbeil",
      "latitude":48.62211,
      "longitude":2.48775
    },{
      "name":"Saint-Gratien",
      "latitude":48.9735,
      "longitude":2.28729
    },{
      "name":"Saint-Leu-la-Foret",
      "latitude":49.01667,
      "longitude":2.25
    },{
      "name":"Saint-Mande",
      "latitude":48.83864,
      "longitude":2.41579
    },{
      "name":"Saint-Maur-des-Fosses",
      "latitude":48.79394,
      "longitude":2.49323
    },{
      "name":"Saint-Maurice",
      "latitude":48.82182,
      "longitude":2.42716
    },{
      "name":"Saint-Michel-sur-Orge",
      "latitude":48.63479,
      "longitude":2.30831
    },{
      "name":"Saint-Ouen",
      "latitude":48.9,
      "longitude":2.33333
    },{
      "name":"Saint-Ouen-lAumone",
      "latitude":49.04353,
      "longitude":2.12134
    },{
      "name":"Saint-Pathus",
      "latitude":49.07136,
      "longitude":2.79886
    },{
      "name":"Saint-Pierre-du-Perray",
      "latitude":48.61064,
      "longitude":2.49429
    },{
      "name":"Saint-Pierre-les-Nemours",
      "latitude":48.26733,
      "longitude":2.67966
    },{
      "name":"Saint-Prix",
      "latitude":49.01667,
      "longitude":2.26667
    },{
      "name":"Saint-Quentin-en-Yvelines",
      "latitude":48.77186,
      "longitude":2.01891
    },{
      "name":"Saint-Remy-les-Chevreuse",
      "latitude":48.70708,
      "longitude":2.07692
    },{
      "name":"Saint-Thibault-des-Vignes",
      "latitude":48.87111,
      "longitude":2.68041
    },{
      "name":"Sainte-Genevieve-des-Bois",
      "latitude":48.64682,
      "longitude":2.31965
    },{
      "name":"Saintry-sur-Seine",
      "latitude":48.5964,
      "longitude":2.49515
    },{
      "name":"Sannois",
      "latitude":48.96667,
      "longitude":2.25
    },{
      "name":"Sarcelles",
      "latitude":49.0,
      "longitude":2.38333
    },{
      "name":"Sartrouville",
      "latitude":48.9482,
      "longitude":2.19169
    },{
      "name":"Saulx-les-Chartreux",
      "latitude":48.69062,
      "longitude":2.26727
    },{
      "name":"Savigny-le-Temple",
      "latitude":48.57409,
      "longitude":2.58287
    },{
      "name":"Savigny-sur-Orge",
      "latitude":48.67678,
      "longitude":2.34835
    },{
      "name":"Sceaux",
      "latitude":48.77644,
      "longitude":2.29026
    },{
      "name":"Sevran",
      "latitude":48.94472,
      "longitude":2.52746
    },{
      "name":"Sevres",
      "latitude":48.82292,
      "longitude":2.21757
    },{
      "name":"Soisy-sous-Montmorency",
      "latitude":48.98813,
      "longitude":2.30156
    },{
      "name":"Soisy-sur-Seine",
      "latitude":48.64875,
      "longitude":2.45223
    },{
      "name":"Souppes-sur-Loing",
      "latitude":48.18297,
      "longitude":2.73521
    },{
      "name":"Stains",
      "latitude":48.95,
      "longitude":2.38333
    },{
      "name":"Sucy-en-Brie",
      "latitude":48.76872,
      "longitude":2.53474
    },{
      "name":"Suresnes",
      "latitude":48.87143,
      "longitude":2.22929
    },{
      "name":"Taverny",
      "latitude":49.02542,
      "longitude":2.21691
    },{
      "name":"Thiais",
      "latitude":48.76496,
      "longitude":2.3961
    },{
      "name":"Thorigny-sur-Marne",
      "latitude":48.88689,
      "longitude":2.71806
    },{
      "name":"Torcy",
      "latitude":48.85,
      "longitude":2.65
    },{
      "name":"Tournan-en-Brie",
      "latitude":48.74146,
      "longitude":2.772
    },{
      "name":"Trappes",
      "latitude":48.77413,
      "longitude":2.01781
    },{
      "name":"Tremblay-en-France",
      "latitude":48.94956,
      "longitude":2.5684
    },{
      "name":"Triel-sur-Seine",
      "latitude":48.97818,
      "longitude":2.00743
    },{
      "name":"Trilport",
      "latitude":48.95685,
      "longitude":2.95076
    },{
      "name":"Vaires-sur-Marne",
      "latitude":48.87649,
      "longitude":2.63982
    },{
      "name":"Valenton",
      "latitude":48.74527,
      "longitude":2.46467
    },{
      "name":"Vanves",
      "latitude":48.82345,
      "longitude":2.29025
    },{
      "name":"Vaucresson",
      "latitude":48.84078,
      "longitude":2.15652
    },{
      "name":"Vaujours",
      "latitude":48.93022,
      "longitude":2.5711
    },{
      "name":"Vaureal",
      "latitude":49.03333,
      "longitude":2.03333
    },{
      "name":"Vaux-le-Penil",
      "latitude":48.52803,
      "longitude":2.69165
    },{
      "name":"Velizy-Villacoublay",
      "latitude":48.78198,
      "longitude":2.19395
    },{
      "name":"Veneux-les-Sablons",
      "latitude":48.37872,
      "longitude":2.79499
    },{
      "name":"Verneuil-sur-Seine",
      "latitude":48.97388,
      "longitude":1.9648
    },{
      "name":"Vernouillet",
      "latitude":48.97146,
      "longitude":1.98082
    },{
      "name":"Verrieres-le-Buisson",
      "latitude":48.74565,
      "longitude":2.26796
    },{
      "name":"Versailles",
      "latitude":48.8,
      "longitude":2.13333
    },{
      "name":"Vert-Saint-Denis",
      "latitude":48.56818,
      "longitude":2.62008
    },{
      "name":"Vigneux-sur-Seine",
      "latitude":48.70291,
      "longitude":2.41357
    },{
      "name":"Villabe",
      "latitude":48.58949,
      "longitude":2.45096
    },{
      "name":"Ville-dAvray",
      "latitude":48.82358,
      "longitude":2.19311
    },{
      "name":"Villebon-sur-Yvette",
      "latitude":48.70594,
      "longitude":2.24019
    },{
      "name":"Villecresnes",
      "latitude":48.72002,
      "longitude":2.5394
    },{
      "name":"Villejuif",
      "latitude":48.7939,
      "longitude":2.35992
    },{
      "name":"Villemoisson-sur-Orge",
      "latitude":48.66632,
      "longitude":2.33657
    },{
      "name":"Villemomble",
      "latitude":48.88333,
      "longitude":2.5
    },{
      "name":"Villeneuve-Saint-Georges",
      "latitude":48.73219,
      "longitude":2.44925
    },{
      "name":"Villeneuve-la-Garenne",
      "latitude":48.93935,
      "longitude":2.31478
    },{
      "name":"Villeneuve-le-Roi",
      "latitude":48.73684,
      "longitude":2.40081
    },{
      "name":"Villennes-sur-Seine",
      "latitude":48.94137,
      "longitude":1.99137
    },{
      "name":"Villeparisis",
      "latitude":48.94208,
      "longitude":2.61463
    },{
      "name":"Villepinte",
      "latitude":48.96203,
      "longitude":2.53253
    },{
      "name":"Villepreux",
      "latitude":48.82815,
      "longitude":1.9976
    },{
      "name":"Villetaneuse",
      "latitude":48.95833,
      "longitude":2.34167
    },{
      "name":"Villiers-le-Bel",
      "latitude":49.00875,
      "longitude":2.39819
    },{
      "name":"Villiers-sur-Marne",
      "latitude":48.831,
      "longitude":2.54844
    },{
      "name":"Vincennes",
      "latitude":48.8486,
      "longitude":2.43769
    },{
      "name":"Viroflay",
      "latitude":48.80078,
      "longitude":2.16181
    },{
      "name":"Viry-Chatillon",
      "latitude":48.67212,
      "longitude":2.39318
    },{
      "name":"Vitry-sur-Seine",
      "latitude":48.78716,
      "longitude":2.40332
    },{
      "name":"Voisins-le-Bretonneux",
      "latitude":48.75793,
      "longitude":2.05137
    },{
      "name":"Yerres",
      "latitude":48.71785,
      "longitude":2.49338
    }]
  },{
    "name":"Region Languedoc-Roussillon",
    "cities":[{
      "name":"Agde",
      "latitude":43.31083,
      "longitude":3.47583
    },{
      "name":"Aigues-Mortes",
      "latitude":43.56683,
      "longitude":4.19068
    },{
      "name":"Ales",
      "latitude":44.13333,
      "longitude":4.08333
    },{
      "name":"Argelers",
      "latitude":42.54714,
      "longitude":3.02253
    },{
      "name":"Bagnols-sur-Ceze",
      "latitude":44.1599,
      "longitude":4.61776
    },{
      "name":"Baillargues",
      "latitude":43.66267,
      "longitude":4.01681
    },{
      "name":"Balaruc-les-Bains",
      "latitude":43.4417,
      "longitude":3.6778
    },{
      "name":"Banyuls de la Marenda",
      "latitude":42.48375,
      "longitude":3.12897
    },{
      "name":"Beaucaire",
      "latitude":43.80806,
      "longitude":4.64417
    },{
      "name":"Bedarieux",
      "latitude":43.61553,
      "longitude":3.15714
    },{
      "name":"Bellegarde",
      "latitude":43.75329,
      "longitude":4.51654
    },{
      "name":"Beziers",
      "latitude":43.34122,
      "longitude":3.21402
    },{
      "name":"Bompas",
      "latitude":42.73333,
      "longitude":2.93333
    },{
      "name":"Bouillargues",
      "latitude":43.79733,
      "longitude":4.42853
    },{
      "name":"Cabestany",
      "latitude":42.68132,
      "longitude":2.94122
    },{
      "name":"Canet-en-Roussillon",
      "latitude":42.7,
      "longitude":3.01667
    },{
      "name":"Carcassonne",
      "latitude":43.21667,
      "longitude":2.35
    },{
      "name":"Castelnau-le-Lez",
      "latitude":43.63333,
      "longitude":3.9
    },{
      "name":"Castelnaudary",
      "latitude":43.31829,
      "longitude":1.95449
    },{
      "name":"Castries",
      "latitude":43.67972,
      "longitude":3.98222
    },{
      "name":"Ceret",
      "latitude":42.48533,
      "longitude":2.74804
    },{
      "name":"Clapiers",
      "latitude":43.65833,
      "longitude":3.88917
    },{
      "name":"Cournonterral",
      "latitude":43.55889,
      "longitude":3.72
    },{
      "name":"Coursan",
      "latitude":43.2337,
      "longitude":3.05712
    },{
      "name":"Elne",
      "latitude":42.60031,
      "longitude":2.97146
    },{
      "name":"Fabregues",
      "latitude":43.55057,
      "longitude":3.77638
    },{
      "name":"Frontignan",
      "latitude":43.44848,
      "longitude":3.754
    },{
      "name":"Gignac",
      "latitude":43.652,
      "longitude":3.5509
    },{
      "name":"Grabels",
      "latitude":43.64797,
      "longitude":3.79864
    },{
      "name":"Ille-sur-Tet",
      "latitude":42.67069,
      "longitude":2.62162
    },{
      "name":"Jacou",
      "latitude":43.66139,
      "longitude":3.91222
    },{
      "name":"Juvignac",
      "latitude":43.61389,
      "longitude":3.81056
    },{
      "name":"La Grande-Motte",
      "latitude":43.56667,
      "longitude":4.08333
    },{
      "name":"Lattes",
      "latitude":43.56752,
      "longitude":3.9046
    },{
      "name":"Laudun-lArdoise",
      "latitude":44.1,
      "longitude":4.66667
    },{
      "name":"Le Cres",
      "latitude":43.64807,
      "longitude":3.93976
    },{
      "name":"Le Grau-du-Roi",
      "latitude":43.53881,
      "longitude":4.13559
    },{
      "name":"Le Soler",
      "latitude":42.68101,
      "longitude":2.79335
    },{
      "name":"Les Angles",
      "latitude":43.95806,
      "longitude":4.76342
    },{
      "name":"Lezignan-Corbieres",
      "latitude":43.19764,
      "longitude":2.76142
    },{
      "name":"Limoux",
      "latitude":43.05487,
      "longitude":2.22173
    },{
      "name":"Lodeve",
      "latitude":43.71667,
      "longitude":3.31667
    },{
      "name":"Lunel",
      "latitude":43.67778,
      "longitude":4.13611
    },{
      "name":"Manduel",
      "latitude":43.81855,
      "longitude":4.47247
    },{
      "name":"Marguerittes",
      "latitude":43.8596,
      "longitude":4.44517
    },{
      "name":"Marseillan",
      "latitude":43.35618,
      "longitude":3.52795
    },{
      "name":"Marsillargues",
      "latitude":43.66424,
      "longitude":4.17448
    },{
      "name":"Marvejols",
      "latitude":44.55378,
      "longitude":3.29137
    },{
      "name":"Mauguio",
      "latitude":43.6181,
      "longitude":4.00739
    },{
      "name":"Mende",
      "latitude":44.51667,
      "longitude":3.5
    },{
      "name":"Meze",
      "latitude":43.42504,
      "longitude":3.6059
    },{
      "name":"Milhaud",
      "latitude":43.78978,
      "longitude":4.31035
    },{
      "name":"Montpellier",
      "latitude":43.61092,
      "longitude":3.87723
    },{
      "name":"Narbonne",
      "latitude":43.18333,
      "longitude":3.0
    },{
      "name":"Nimes",
      "latitude":43.83333,
      "longitude":4.35
    },{
      "name":"Palavas-les-Flots",
      "latitude":43.52805,
      "longitude":3.92705
    },{
      "name":"Perols",
      "latitude":43.56313,
      "longitude":3.95203
    },{
      "name":"Perpignan",
      "latitude":42.69764,
      "longitude":2.89541
    },{
      "name":"Pezenas",
      "latitude":43.45953,
      "longitude":3.42384
    },{
      "name":"Pia",
      "latitude":42.7449,
      "longitude":2.9193
    },{
      "name":"Pignan",
      "latitude":43.58365,
      "longitude":3.75981
    },{
      "name":"Pont-Saint-Esprit",
      "latitude":44.25494,
      "longitude":4.64736
    },{
      "name":"Port-la-Nouvelle",
      "latitude":43.01991,
      "longitude":3.04366
    },{
      "name":"Prades",
      "latitude":42.61667,
      "longitude":2.43333
    },{
      "name":"Rivesaltes",
      "latitude":42.76945,
      "longitude":2.87239
    },{
      "name":"Rochefort-du-Gard",
      "latitude":43.97652,
      "longitude":4.69023
    },{
      "name":"Roquemaure",
      "latitude":44.04944,
      "longitude":4.7774
    },{
      "name":"Saint-Christol-les-Ales",
      "latitude":44.08256,
      "longitude":4.07506
    },{
      "name":"Saint-Clement-de-Riviere",
      "latitude":43.68333,
      "longitude":3.83333
    },{
      "name":"Saint-Cyprien-Plage",
      "latitude":42.63229,
      "longitude":3.03333
    },{
      "name":"Saint-Esteve",
      "latitude":42.71176,
      "longitude":2.8449
    },{
      "name":"Saint-Gely-du-Fesc",
      "latitude":43.69272,
      "longitude":3.80492
    },{
      "name":"Saint-Gilles",
      "latitude":43.67656,
      "longitude":4.43024
    },{
      "name":"Saint-Jean-de-Vedas",
      "latitude":43.57759,
      "longitude":3.82603
    },{
      "name":"Saint-Laurent-de-la-Salanque",
      "latitude":42.7727,
      "longitude":2.98998
    },{
      "name":"Serignan",
      "latitude":43.27873,
      "longitude":3.27712
    },{
      "name":"Sete",
      "latitude":43.4028,
      "longitude":3.69278
    },{
      "name":"Thuir",
      "latitude":42.6329,
      "longitude":2.75471
    },{
      "name":"Toulouges",
      "latitude":42.66961,
      "longitude":2.83008
    },{
      "name":"Trebes",
      "latitude":43.21064,
      "longitude":2.44165
    },{
      "name":"Uzes",
      "latitude":44.01362,
      "longitude":4.41529
    },{
      "name":"Vauvert",
      "latitude":43.69529,
      "longitude":4.27705
    },{
      "name":"Vendargues",
      "latitude":43.65833,
      "longitude":3.97
    },{
      "name":"Villeneuve-les-Avignon",
      "latitude":43.9684,
      "longitude":4.7963
    },{
      "name":"Villeneuve-les-Maguelone",
      "latitude":43.53333,
      "longitude":3.86667
    }]
  },{
    "name":"Region Limousin",
    "cities":[{
      "name":"Aixe-sur-Vienne",
      "latitude":45.79862,
      "longitude":1.13884
    },{
      "name":"Ambazac",
      "latitude":45.95983,
      "longitude":1.40063
    },{
      "name":"Brive-la-Gaillarde",
      "latitude":45.15,
      "longitude":1.53333
    },{
      "name":"Couzeix",
      "latitude":45.87047,
      "longitude":1.23828
    },{
      "name":"Egletons",
      "latitude":45.40336,
      "longitude":2.05073
    },{
      "name":"Feytiat",
      "latitude":45.80905,
      "longitude":1.33033
    },{
      "name":"Gueret",
      "latitude":46.16667,
      "longitude":1.86667
    },{
      "name":"Isle",
      "latitude":45.80272,
      "longitude":1.21213
    },{
      "name":"La Souterraine",
      "latitude":46.23714,
      "longitude":1.48701
    },{
      "name":"Le Palais-sur-Vienne",
      "latitude":45.8638,
      "longitude":1.32207
    },{
      "name":"Limoges",
      "latitude":45.83153,
      "longitude":1.2578
    },{
      "name":"Malemort-sur-Correze",
      "latitude":45.17009,
      "longitude":1.56193
    },{
      "name":"Panazol",
      "latitude":45.83465,
      "longitude":1.32759
    },{
      "name":"Saint-Junien",
      "latitude":45.88867,
      "longitude":0.90143
    },{
      "name":"Saint-Yrieix-la-Perche",
      "latitude":45.51604,
      "longitude":1.20569
    },{
      "name":"Tulle",
      "latitude":45.26667,
      "longitude":1.76667
    },{
      "name":"Ussel",
      "latitude":45.55,
      "longitude":2.31667
    }]
  },{
    "name":"Region Lorraine",
    "cities":[{
      "name":"Algrange",
      "latitude":49.35863,
      "longitude":6.04748
    },{
      "name":"Amneville",
      "latitude":49.2575,
      "longitude":6.14203
    },{
      "name":"Ars-sur-Moselle",
      "latitude":49.07831,
      "longitude":6.07275
    },{
      "name":"Audun-le-Tiche",
      "latitude":49.47228,
      "longitude":5.95694
    },{
      "name":"Bar-le-Duc",
      "latitude":48.78333,
      "longitude":5.16667
    },{
      "name":"Behren-les-Forbach",
      "latitude":49.1664,
      "longitude":6.94336
    },{
      "name":"Bitche",
      "latitude":49.05009,
      "longitude":7.42672
    },{
      "name":"Blenod-les-Pont-a-Mousson",
      "latitude":48.88487,
      "longitude":6.04844
    },{
      "name":"Briey",
      "latitude":49.25,
      "longitude":5.93333
    },{
      "name":"Champigneulles",
      "latitude":48.7342,
      "longitude":6.16417
    },{
      "name":"Commercy",
      "latitude":48.76128,
      "longitude":5.59067
    },{
      "name":"Creutzwald",
      "latitude":49.2,
      "longitude":6.68333
    },{
      "name":"Dombasle-sur-Meurthe",
      "latitude":48.6252,
      "longitude":6.34967
    },{
      "name":"Epinal",
      "latitude":48.18333,
      "longitude":6.45
    },{
      "name":"Essey-les-Nancy",
      "latitude":48.70179,
      "longitude":6.22425
    },{
      "name":"Fameck",
      "latitude":49.30335,
      "longitude":6.1086
    },{
      "name":"Farebersviller",
      "latitude":49.11996,
      "longitude":6.87201
    },{
      "name":"Faulquemont",
      "latitude":49.04711,
      "longitude":6.60314
    },{
      "name":"Florange",
      "latitude":49.32373,
      "longitude":6.1212
    },{
      "name":"Forbach",
      "latitude":49.18333,
      "longitude":6.9
    },{
      "name":"Freyming-Merlebach",
      "latitude":49.15,
      "longitude":6.78333
    },{
      "name":"Frouard",
      "latitude":48.75998,
      "longitude":6.13163
    },{
      "name":"Gerardmer",
      "latitude":48.07346,
      "longitude":6.87787
    },{
      "name":"Golbey",
      "latitude":48.19764,
      "longitude":6.43966
    },{
      "name":"Guenange",
      "latitude":49.29946,
      "longitude":6.20752
    },{
      "name":"Hagondange",
      "latitude":49.25134,
      "longitude":6.16812
    },{
      "name":"Hayange",
      "latitude":49.33428,
      "longitude":6.05268
    },{
      "name":"Heillecourt",
      "latitude":48.65854,
      "longitude":6.20711
    },{
      "name":"Hettange-Grande",
      "latitude":49.40639,
      "longitude":6.15057
    },{
      "name":"Hombourg-Haut",
      "latitude":49.12359,
      "longitude":6.77397
    },{
      "name":"Homecourt",
      "latitude":49.22111,
      "longitude":5.98445
    },{
      "name":"Jarny",
      "latitude":49.15736,
      "longitude":5.87877
    },{
      "name":"Jarville-la-Malgrange",
      "latitude":48.66907,
      "longitude":6.20636
    },{
      "name":"Joeuf",
      "latitude":49.23333,
      "longitude":6.01667
    },{
      "name":"La Bresse",
      "latitude":47.99974,
      "longitude":6.86499
    },{
      "name":"Laneuveville-devant-Nancy",
      "latitude":48.65628,
      "longitude":6.2317
    },{
      "name":"Laxou",
      "latitude":48.68315,
      "longitude":6.148
    },{
      "name":"Ligny-en-Barrois",
      "latitude":48.68861,
      "longitude":5.32543
    },{
      "name":"Liverdun",
      "latitude":48.75084,
      "longitude":6.06424
    },{
      "name":"Longuyon",
      "latitude":49.44548,
      "longitude":5.60145
    },{
      "name":"Longwy",
      "latitude":49.51936,
      "longitude":5.76882
    },{
      "name":"Ludres",
      "latitude":48.62181,
      "longitude":6.16183
    },{
      "name":"Luneville",
      "latitude":48.6,
      "longitude":6.5
    },{
      "name":"Maizieres-les-Metz",
      "latitude":49.20754,
      "longitude":6.16052
    },{
      "name":"Malzeville",
      "latitude":48.71181,
      "longitude":6.18176
    },{
      "name":"Marange-Silvange",
      "latitude":49.20748,
      "longitude":6.10228
    },{
      "name":"Marly",
      "latitude":49.06667,
      "longitude":6.15
    },{
      "name":"Maxeville",
      "latitude":48.70816,
      "longitude":6.1696
    },{
      "name":"Metz",
      "latitude":49.11911,
      "longitude":6.17269
    },{
      "name":"Mirecourt",
      "latitude":48.30089,
      "longitude":6.13282
    },{
      "name":"Mondelange",
      "latitude":49.26469,
      "longitude":6.17087
    },{
      "name":"Mont-Saint-Martin",
      "latitude":49.5467,
      "longitude":5.79375
    },{
      "name":"Montigny-les-Metz",
      "latitude":49.09435,
      "longitude":6.15167
    },{
      "name":"Moyeuvre-Grande",
      "latitude":49.25165,
      "longitude":6.04754
    },{
      "name":"Nancy",
      "latitude":48.68439,
      "longitude":6.18496
    },{
      "name":"Neufchateau",
      "latitude":48.35,
      "longitude":5.7
    },{
      "name":"Neuves-Maisons",
      "latitude":48.62029,
      "longitude":6.10698
    },{
      "name":"Nilvange",
      "latitude":49.33995,
      "longitude":6.05483
    },{
      "name":"Petite-Rosselle",
      "latitude":49.21177,
      "longitude":6.85607
    },{
      "name":"Pompey",
      "latitude":48.76653,
      "longitude":6.12162
    },{
      "name":"Pont-a-Mousson",
      "latitude":48.90786,
      "longitude":6.0589
    },{
      "name":"Rambervillers",
      "latitude":48.3424,
      "longitude":6.6358
    },{
      "name":"Remiremont",
      "latitude":48.01754,
      "longitude":6.5882
    },{
      "name":"Rombas",
      "latitude":49.24911,
      "longitude":6.09405
    },{
      "name":"Saint-Avold",
      "latitude":49.1027,
      "longitude":6.70064
    },{
      "name":"Saint-Die-des-Vosges",
      "latitude":48.28333,
      "longitude":6.95
    },{
      "name":"Saint-Max",
      "latitude":48.70429,
      "longitude":6.20999
    },{
      "name":"Saint-Mihiel",
      "latitude":48.88746,
      "longitude":5.55099
    },{
      "name":"Saint-Nicolas-de-Port",
      "latitude":48.63089,
      "longitude":6.30038
    },{
      "name":"Sarrebourg",
      "latitude":48.73333,
      "longitude":7.05
    },{
      "name":"Sarreguemines",
      "latitude":49.10995,
      "longitude":7.06747
    },{
      "name":"Seichamps",
      "latitude":48.71114,
      "longitude":6.26186
    },{
      "name":"Stiring-Wendel",
      "latitude":49.2,
      "longitude":6.93333
    },{
      "name":"Talange",
      "latitude":49.2367,
      "longitude":6.17282
    },{
      "name":"Terville",
      "latitude":49.34714,
      "longitude":6.13802
    },{
      "name":"Thaon-les-Vosges",
      "latitude":48.25,
      "longitude":6.41667
    },{
      "name":"Thionville",
      "latitude":49.36667,
      "longitude":6.16667
    },{
      "name":"Tomblaine",
      "latitude":48.68333,
      "longitude":6.21312
    },{
      "name":"Toul",
      "latitude":48.68333,
      "longitude":5.9
    },{
      "name":"Uckange",
      "latitude":49.30304,
      "longitude":6.1492
    },{
      "name":"Vandoeuvre-les-Nancy",
      "latitude":48.65,
      "longitude":6.18333
    },{
      "name":"Verdun",
      "latitude":49.16667,
      "longitude":5.38333
    },{
      "name":"Villers-les-Nancy",
      "latitude":48.67103,
      "longitude":6.15083
    },{
      "name":"Villerupt",
      "latitude":49.46737,
      "longitude":5.93285
    },{
      "name":"Vittel",
      "latitude":48.20085,
      "longitude":5.94843
    },{
      "name":"Woippy",
      "latitude":49.14946,
      "longitude":6.14909
    },{
      "name":"Yutz",
      "latitude":49.35571,
      "longitude":6.1926
    }]
  },{
    "name":"Region Midi-Pyrenees",
    "cities":[{
      "name":"Albi",
      "latitude":43.9298,
      "longitude":2.148
    },{
      "name":"Aucamville",
      "latitude":43.6702,
      "longitude":1.42808
    },{
      "name":"Auch",
      "latitude":43.65,
      "longitude":0.58333
    },{
      "name":"Aureilhan",
      "latitude":43.24337,
      "longitude":0.09581
    },{
      "name":"Aussillon",
      "latitude":43.50293,
      "longitude":2.36792
    },{
      "name":"Auterive",
      "latitude":43.35103,
      "longitude":1.47797
    },{
      "name":"Bagneres-de-Bigorre",
      "latitude":43.06667,
      "longitude":0.15
    },{
      "name":"Balma",
      "latitude":43.61111,
      "longitude":1.49944
    },{
      "name":"Beauzelle",
      "latitude":43.66713,
      "longitude":1.37518
    },{
      "name":"Blagnac",
      "latitude":43.63276,
      "longitude":1.39399
    },{
      "name":"Cahors",
      "latitude":44.4491,
      "longitude":1.43663
    },{
      "name":"Carmaux",
      "latitude":44.05099,
      "longitude":2.15795
    },{
      "name":"Castanet-Tolosan",
      "latitude":43.51591,
      "longitude":1.49864
    },