{
  "name":"French Guiana",
  "regions":[{
    "name":"French Guiana",
    "cities":[{
      "name":"Macouria",
      "latitude":4.91164,
      "longitude":-52.37632
    }]
  },{
    "name":"Guyane",
    "cities":[{
      "name":"Cayenne",
      "latitude":4.93333,
      "longitude":-52.33333
    },{
      "name":"Kourou",
      "latitude":5.15518,
      "longitude":-52.64779
    },{
      "name":"Mana",
      "latitude":5.65919,
      "longitude":-53.77666
    },{
      "name":"Matoury",
      "latitude":4.847,
      "longitude":-52.32156
    },{
      "name":"Remire-Montjoly",
      "latitude":4.91667,
      "longitude":-52.26667
    },{
      "name":"Saint-Laurent-du-Maroni",
      "latitude":5.5,
      "longitude":-54.03333
    }]
  }]
}
