{
  "name":"Guatemala",
  "regions":[{
    "name":"Departamento de Alta Verapaz",
    "cities":[{
      "name":"Chahal",
      "latitude":15.79561,
      "longitude":-89.60432
    },{
      "name":"Chisec",
      "latitude":15.81667,
      "longitude":-90.28333
    },{
      "name":"Coban",
      "latitude":15.47083,
      "longitude":-90.37083
    },{
      "name":"Panzos",
      "latitude":15.4,
      "longitude":-89.66667
    },{
      "name":"San Cristobal Verapaz",
      "latitude":15.38333,
      "longitude":-90.4
    },{
      "name":"San Juan Chamelco",
      "latitude":15.43333,
      "longitude":-90.33333
    },{
      "name":"San Pedro Carcha",
      "latitude":15.48333,
      "longitude":-90.26667
    },{
      "name":"Santa Cruz Verapaz",
      "latitude":15.36667,
      "longitude":-90.43333
    },{
      "name":"Senahu",
      "latitude":15.4,
      "longitude":-89.83333
    },{
      "name":"Tactic",
      "latitude":15.33333,
      "longitude":-90.3
    }]
  },{
    "name":"Departamento de Baja Verapaz",
    "cities":[{
      "name":"Cubulco",
      "latitude":15.13333,
      "longitude":-90.58333
    },{
      "name":"Purulha",
      "latitude":15.26667,
      "longitude":-90.2
    },{
      "name":"Rabinal",
      "latitude":15.1,
      "longitude":-90.45
    },{
      "name":"Salama",
      "latitude":15.10278,
      "longitude":-90.31806
    },{
      "name":"San Jeronimo",
      "latitude":15.05,
      "longitude":-90.2
    },{
      "name":"San Miguel Chicaj",
      "latitude":15.1,
      "longitude":-90.4
    }]
  },{
    "name":"Departamento de Chimaltenango",
    "cities":[{
      "name":"Acatenango",
      "latitude":14.55194,
      "longitude":-90.94222
    },{
      "name":"Chimaltenango",
      "latitude":14.66111,
      "longitude":-90.81944
    },{
      "name":"Comalapa",
      "latitude":14.74111,
      "longitude":-90.8875
    },{
      "name":"El Tejar",
      "latitude":14.64778,
      "longitude":-90.79278
    },{
      "name":"Parramos",
      "latitude":14.60778,
      "longitude":-90.80306
    },{
      "name":"Patzicia",
      "latitude":14.63167,
      "longitude":-90.92694
    },{
      "name":"Patzun",
      "latitude":14.68333,
      "longitude":-91.01667
    },{
      "name":"San Andres Itzapa",
      "latitude":14.62,
      "longitude":-90.84417
    },{
      "name":"San Jose Poaquil",
      "latitude":14.81972,
      "longitude":-90.90639
    },{
      "name":"San Martin Jilotepeque",
      "latitude":14.78778,
      "longitude":-90.7925
    },{
      "name":"Santa Cruz Balanya",
      "latitude":14.68722,
      "longitude":-90.915
    },{
      "name":"Tecpan Guatemala",
      "latitude":14.76694,
      "longitude":-90.99417
    },{
      "name":"Yepocapa",
      "latitude":14.50417,
      "longitude":-90.95694
    },{
      "name":"Zaragoza",
      "latitude":14.65444,
      "longitude":-90.88944
    }]
  },{
    "name":"Departamento de Chiquimula",
    "cities":[{
      "name":"Chiquimula",
      "latitude":14.8,
      "longitude":-89.54583
    },{
      "name":"Esquipulas",
      "latitude":14.56667,
      "longitude":-89.35
    },{
      "name":"Ipala",
      "latitude":14.61667,
      "longitude":-89.61667
    }]
  },{
    "name":"Departamento de El Progreso",
    "cities":[{
      "name":"Guastatoya",
      "latitude":14.85417,
      "longitude":-90.06944
    },{
      "name":"San Agustin Acasaguastlan",
      "latitude":14.95,
      "longitude":-89.96667
    },{
      "name":"San Antonio La Paz",
      "latitude":14.74972,
      "longitude":-90.28667
    },{
      "name":"Sanarate",
      "latitude":14.795,
      "longitude":-90.19222
    }]
  },{
    "name":"Departamento de Escuintla",
    "cities":[{
      "name":"Escuintla",
      "latitude":14.305,
      "longitude":-90.785
    },{
      "name":"La Democracia",
      "latitude":14.23083,
      "longitude":-90.94722
    },{
      "name":"La Gomera",
      "latitude":14.08333,
      "longitude":-91.05
    },{
      "name":"Masagua",
      "latitude":14.20306,
      "longitude":-90.84806
    },{
      "name":"Nueva Concepcion",
      "latitude":14.2,
      "longitude":-91.3
    },{
      "name":"Palin",
      "latitude":14.40556,
      "longitude":-90.69833
    },{
      "name":"Pueblo Nuevo Tiquisate",
      "latitude":14.28333,
      "longitude":-91.36667
    },{
      "name":"Puerto San Jose",
      "latitude":13.9274,
      "longitude":-90.82166
    },{
      "name":"San Vicente Pacaya",
      "latitude":14.41611,
      "longitude":-90.63917
    },{
      "name":"Santa Lucia Cotzumalguapa",
      "latitude":14.33333,
      "longitude":-91.01667
    }]
  },{
    "name":"Departamento de Guatemala",
    "cities":[{
      "name":"Amatitlan",
      "latitude":14.4875,
      "longitude":-90.61528
    },{
      "name":"Chinautla",
      "latitude":14.70833,
      "longitude":-90.49944
    },{
      "name":"Chuarrancho",
      "latitude":14.82167,
      "longitude":-90.50861
    },{
      "name":"Fraijanes",
      "latitude":14.46528,
      "longitude":-90.44083
    },{
      "name":"Guatemala City",
      "latitude":14.64072,
      "longitude":-90.51327
    },{
      "name":"Mixco",
      "latitude":14.63333,
      "longitude":-90.60639
    },{
      "name":"Palencia",
      "latitude":14.66472,
      "longitude":-90.35861
    },{
      "name":"Petapa",
      "latitude":14.50278,
      "longitude":-90.55167
    },{
      "name":"San Jose Pinula",
      "latitude":14.54611,
      "longitude":-90.41139
    },{
      "name":"San Juan Sacatepequez",
      "latitude":14.71889,
      "longitude":-90.64417
    },{
      "name":"San Pedro Ayampuc",
      "latitude":14.78667,
      "longitude":-90.45111
    },{
      "name":"San Pedro Sacatepequez",
      "latitude":14.68417,
      "longitude":-90.64417
    },{
      "name":"San Raimundo",
      "latitude":14.76472,
      "longitude":-90.59556
    },{
      "name":"Santa Catarina Pinula",
      "latitude":14.56889,
      "longitude":-90.49528
    },{
      "name":"Villa Canales",
      "latitude":14.48139,
      "longitude":-90.53167
    },{
      "name":"Villa Nueva",
      "latitude":14.52694,
      "longitude":-90.5875
    }]
  },{
    "name":"Departamento de Huehuetenango",
    "cities":[{
      "name":"Aguacatan",
      "latitude":15.34306,
      "longitude":-91.31167
    },{
      "name":"Barillas",
      "latitude":15.80361,
      "longitude":-91.31583
    },{
      "name":"Chiantla",
      "latitude":15.35472,
      "longitude":-91.45833
    },{
      "name":"Concepcion",
      "latitude":15.61667,
      "longitude":-91.68333
    },{
      "name":"Huehuetenango",
      "latitude":15.31972,
      "longitude":-91.47083
    },{
      "name":"Jacaltenango",
      "latitude":15.66667,
      "longitude":-91.73333
    },{
      "name":"La Libertad",
      "latitude":15.5,
      "longitude":-91.83333
    },{
      "name":"San Antonio Huista",
      "latitude":15.65,
      "longitude":-91.76667
    },{
      "name":"San Mateo Ixtatan",
      "latitude":15.83194,
      "longitude":-91.47806
    },{
      "name":"Soloma",
      "latitude":15.71667,
      "longitude":-91.45
    }]
  },{
    "name":"Departamento de Izabal",
    "cities":[{
      "name":"El Estor",
      "latitude":15.53333,
      "longitude":-89.35
    },{
      "name":"Livingston",
      "latitude":15.82826,
      "longitude":-88.75039
    },{
      "name":"Morales",
      "latitude":15.48333,
      "longitude":-88.81667
    },{
      "name":"Puerto Barrios",
      "latitude":15.72778,
      "longitude":-88.59444
    }]
  },{
    "name":"Departamento de Jalapa",
    "cities":[{
      "name":"Jalapa",
      "latitude":14.63472,
      "longitude":-89.98889
    },{
      "name":"Mataquescuintla",
      "latitude":14.52917,
      "longitude":-90.18417
    },{
      "name":"Monjas",
      "latitude":14.5,
      "longitude":-89.86667
    },{
      "name":"San Luis Jilotepeque",
      "latitude":14.65,
      "longitude":-89.73333
    }]
  },{
    "name":"Departamento de Jutiapa",
    "cities":[{
      "name":"Asuncion Mita",
      "latitude":14.33083,
      "longitude":-89.71083
    },{
      "name":"Atescatempa",
      "latitude":14.17444,
      "longitude":-89.7425
    },{
      "name":"El Progreso",
      "latitude":14.35,
      "longitude":-89.85
    },{
      "name":"Jalpatagua",
      "latitude":14.14167,
      "longitude":-90.00861
    },{
      "name":"Jutiapa",
      "latitude":14.29167,
      "longitude":-89.89583
    },{
      "name":"Moyuta",
      "latitude":14.03861,
      "longitude":-90.08083
    },{
      "name":"San Jose Acatempa",
      "latitude":14.26528,
      "longitude":-90.12694
    },{
      "name":"Santa Catarina Mita",
      "latitude":14.45,
      "longitude":-89.75
    }]
  },{
    "name":"Departamento de Quetzaltenango",
    "cities":[{
      "name":"Almolonga",
      "latitude":14.81667,
      "longitude":-91.5
    },{
      "name":"Cabrican",
      "latitude":15.13333,
      "longitude":-91.61667
    },{
      "name":"Cantel",
      "latitude":14.81667,
      "longitude":-91.45
    },{
      "name":"Coatepeque",
      "latitude":14.7,
      "longitude":-91.86667
    },{
      "name":"Colomba",
      "latitude":14.71667,
      "longitude":-91.73333
    },{
      "name":"Concepcion Chiquirichapa",
      "latitude":14.85,
      "longitude":-91.61667
    },{
      "name":"El Palmar",
      "latitude":14.65,
      "longitude":-91.58333
    },{
      "name":"Flores Costa Cuca",
      "latitude":14.65,
      "longitude":-91.81667
    },{
      "name":"Huitan",
      "latitude":15.1,
      "longitude":-91.61667
    },{
      "name":"La Esperanza",
      "latitude":14.86667,
      "longitude":-91.56667
    },{
      "name":"Ostuncalco",
      "latitude":14.86667,
      "longitude":-91.61667
    },{
      "name":"Quetzaltenango",
      "latitude":14.83472,
      "longitude":-91.51806
    },{
      "name":"Salcaja",
      "latitude":14.88333,
      "longitude":-91.45
    },{
      "name":"Samayac",
      "latitude":14.58084,
      "longitude":-91.46135
    },{
      "name":"San Carlos Sija",
      "latitude":14.98333,
      "longitude":-91.55
    },{
      "name":"San Mateo",
      "latitude":14.86667,
      "longitude":-91.58333
    },{
      "name":"San Miguel Siguila",
      "latitude":14.9,
      "longitude":-91.61667
    },{
      "name":"Zunil",
      "latitude":14.78333,
      "longitude":-91.48333
    }]
  },{
    "name":"Departamento de Retalhuleu",
    "cities":[{
      "name":"Champerico",
      "latitude":14.3,
      "longitude":-91.91667
    },{
      "name":"El Asintal",
      "latitude":14.6,
      "longitude":-91.73333
    },{
      "name":"Nuevo San Carlos",
      "latitude":14.6,
      "longitude":-91.7
    },{
      "name":"Retalhuleu",
      "latitude":14.53611,
      "longitude":-91.67778
    },{
      "name":"San Andres Villa Seca",
      "latitude":14.56667,
      "longitude":-91.58333
    },{
      "name":"San Felipe",
      "latitude":14.61667,
      "longitude":-91.6
    },{
      "name":"San Sebastian",
      "latitude":14.56667,
      "longitude":-91.65
    }]
  },{
    "name":"Departamento de Sacatepequez",
    "cities":[{
      "name":"Alotenango",
      "latitude":14.48028,
      "longitude":-90.8075
    },{
      "name":"Antigua Guatemala",
      "latitude":14.56111,
      "longitude":-90.73444
    },{
      "name":"Ciudad Vieja",
      "latitude":14.52639,
      "longitude":-90.75972
    },{
      "name":"Jocotenango",
      "latitude":14.58194,
      "longitude":-90.74361
    },{
      "name":"Magdalena Milpas Altas",
      "latitude":14.54528,
      "longitude":-90.67528
    },{
      "name":"Pastores",
      "latitude":14.59667,
      "longitude":-90.75472
    },{
      "name":"San Antonio Aguas Calientes",
      "latitude":14.53972,
      "longitude":-90.76944
    },{
      "name":"San Bartolome Milpas Altas",
      "latitude":14.60611,
      "longitude":-90.68
    },{
      "name":"San Lucas Sacatepequez",
      "latitude":14.60972,
      "longitude":-90.65694
    },{
      "name":"San Miguel Duenas",
      "latitude":14.52389,
      "longitude":-90.79833
    },{
      "name":"Santa Lucia Milpas Altas",
      "latitude":14.57583,
      "longitude":-90.67861
    },{
      "name":"Santa Maria de Jesus",
      "latitude":14.51833,
      "longitude":-90.72667
    },{
      "name":"Santiago Sacatepequez",
      "latitude":14.63528,
      "longitude":-90.67639
    },{
      "name":"Santo Domingo Xenacoj",
      "latitude":14.67778,
      "longitude":-90.69778
    },{
      "name":"Sumpango",
      "latitude":14.64639,
      "longitude":-90.73389
    }]
  },{
    "name":"Departamento de San Marcos",
    "cities":[{
      "name":"Ciudad Tecun Uman",
      "latitude":14.66667,
      "longitude":-92.15
    },{
      "name":"Comitancillo",
      "latitude":15.08333,
      "longitude":-91.71667
    },{
      "name":"El Quetzal",
      "latitude":14.76667,
      "longitude":-91.81667
    },{
      "name":"El Tumbador",
      "latitude":14.86667,
      "longitude":-91.93333
    },{
      "name":"Malacatan",
      "latitude":14.9,
      "longitude":-92.05
    },{
      "name":"Nuevo Progreso",
      "latitude":14.8,
      "longitude":-91.91667
    },{
      "name":"Ocos",
      "latitude":14.50944,
      "longitude":-92.19333
    },{
      "name":"Pajapita",
      "latitude":14.71667,
      "longitude":-92.03333
    },{
      "name":"San Cristobal Cucho",
      "latitude":14.9,
      "longitude":-91.78333
    },{
      "name":"San Marcos",
      "latitude":14.96389,
      "longitude":-91.79444
    },{
      "name":"San Pablo",
      "latitude":14.93333,
      "longitude":-92.0
    },{
      "name":"San Pedro Sacatepequez",
      "latitude":14.96667,
      "longitude":-91.76667
    },{
      "name":"Tacana",
      "latitude":15.23333,
      "longitude":-92.08333
    }]
  },{
    "name":"Departamento de Santa Rosa",
    "cities":[{
      "name":"Barberena",
      "latitude":14.30944,
      "longitude":-90.36111
    },{
      "name":"Casillas",
      "latitude":14.42222,
      "longitude":-90.24417
    },{
      "name":"Chiquimulilla",
      "latitude":14.08583,
      "longitude":-90.37667
    },{
      "name":"Cuilapa",
      "latitude":14.27639,
      "longitude":-90.29889
    },{
      "name":"Guazacapan",
      "latitude":14.07417,
      "longitude":-90.41667
    },{
      "name":"Nueva Santa Rosa",
      "latitude":14.38111,
      "longitude":-90.27611
    },{
      "name":"Oratorio",
      "latitude":14.22806,
      "longitude":-90.17583
    },{
      "name":"Santa Cruz Naranjo",
      "latitude":14.38806,
      "longitude":-90.36972
    },{
      "name":"Santa Rosa de Lima",
      "latitude":14.38806,
      "longitude":-90.29556
    },{
      "name":"Taxisco",
      "latitude":14.07083,
      "longitude":-90.46306
    }]
  },{
    "name":"Departamento de Solola",
    "cities":[{
      "name":"Nahuala",
      "latitude":14.85,
      "longitude":-91.31667
    },{
      "name":"Panajachel",
      "latitude":14.73333,
      "longitude":-91.15
    },{
      "name":"San Lucas Toliman",
      "latitude":14.63333,
      "longitude":-91.13333
    },{
      "name":"San Pablo La Laguna",
      "latitude":14.71667,
      "longitude":-91.26667
    },{
      "name":"San Pedro La Laguna",
      "latitude":14.69297,
      "longitude":-91.27201
    },{
      "name":"Santa Catarina Ixtahuacan",
      "latitude":14.8,
      "longitude":-91.36667
    },{
      "name":"Santa Clara La Laguna",
      "latitude":14.71667,
      "longitude":-91.3
    },{
      "name":"Santiago Atitlan",
      "latitude":14.63823,
      "longitude":-91.22901
    },{
      "name":"Solola",
      "latitude":14.77222,
      "longitude":-91.18333
    }]
  },{
    "name":"Departamento de Suchitepequez",
    "cities":[{
      "name":"Chicacao",
      "latitude":14.53333,
      "longitude":-91.31667
    },{
      "name":"Cuyotenango",
      "latitude":14.53333,
      "longitude":-91.56667
    },{
      "name":"Mazatenango",
      "latitude":14.53417,
      "longitude":-91.50333
    },{
      "name":"Patulul",
      "latitude":14.41667,
      "longitude":-91.16667
    },{
      "name":"Rio Bravo",
      "latitude":14.4,
      "longitude":-91.31667
    },{
      "name":"San Antonio Suchitepequez",
      "latitude":14.53333,
      "longitude":-91.41667
    },{
      "name":"San Bernardino",
      "latitude":14.53333,
      "longitude":-91.45
    },{
      "name":"San Francisco Zapotitlan",
      "latitude":14.58333,
      "longitude":-91.51667
    },{
      "name":"San Pablo Jocopilas",
      "latitude":14.58333,
      "longitude":-91.45
    },{
      "name":"Santa Barbara",
      "latitude":14.43333,
      "longitude":-91.23333
    },{
      "name":"Santo Domingo Suchitepequez",
      "latitude":14.46667,
      "longitude":-91.48333
    },{
      "name":"Santo Tomas La Union",
      "latitude":14.63333,
      "longitude":-91.38333
    }]
  },{
    "name":"Departamento de Totonicapan",
    "cities":[{
      "name":"Momostenango",
      "latitude":15.04361,
      "longitude":-91.40861
    },{
      "name":"San Andres Xecul",
      "latitude":14.9,
      "longitude":-91.48333
    },{
      "name":"San Francisco El Alto",
      "latitude":14.95,
      "longitude":-91.45
    },{
      "name":"Santa Maria Chiquimula",
      "latitude":15.03028,
      "longitude":-91.32917
    },{
      "name":"Totonicapan",
      "latitude":14.91167,
      "longitude":-91.36111
    }]
  },{
    "name":"Departamento de Zacapa",
    "cities":[{
      "name":"Estanzuela",
      "latitude":15.0,
      "longitude":-89.56667
    },{
      "name":"Gualan",
      "latitude":15.13333,
      "longitude":-89.36667
    },{
      "name":"Rio Hondo",
      "latitude":15.06667,
      "longitude":-89.58333
    },{
      "name":"Teculutan",
      "latitude":14.98333,
      "longitude":-89.71667
    },{
      "name":"Zacapa",
      "latitude":14.97222,
      "longitude":-89.53056
    }]
  },{
    "name":"Departamento del Peten",
    "cities":[{
      "name":"Dolores",
      "latitude":16.51417,
      "longitude":-89.41583
    },{
      "name":"Flores",
      "latitude":16.92258,
      "longitude":-89.89941
    },{
      "name":"La Libertad",
      "latitude":16.78333,
      "longitude":-90.11667
    },{
      "name":"Melchor de Mencos",
      "latitude":17.06606,
      "longitude":-89.15229
    },{
      "name":"Poptun",
      "latitude":16.33111,
      "longitude":-89.41694
    },{
      "name":"San Andres",
      "latitude":16.96667,
      "longitude":-89.91667
    },{
      "name":"San Benito",
      "latitude":16.91321,
      "longitude":-89.90868
    },{
      "name":"San Luis",
      "latitude":16.19889,
      "longitude":-89.44028
    },{
      "name":"Santa Ana",
      "latitude":16.8,
      "longitude":-89.83333
    },{
      "name":"Sayaxche",
      "latitude":16.51667,
      "longitude":-90.16667
    }]
  },{
    "name":"Departamento del Quiche",
    "cities":[{
      "name":"Chajul",
      "latitude":15.48528,
      "longitude":-91.03417
    },{
      "name":"Chichicastenango",
      "latitude":14.93333,
      "longitude":-91.11667
    },{
      "name":"Cunen",
      "latitude":15.3375,
      "longitude":-91.02694
    },{
      "name":"Joyabaj",
      "latitude":14.995,
      "longitude":-90.80611
    },{
      "name":"Nebaj",
      "latitude":15.40583,
      "longitude":-91.14611
    },{
      "name":"Sacapulas",
      "latitude":15.28667,
      "longitude":-91.08722
    },{
      "name":"San Juan Cotzal",
      "latitude":15.43417,
      "longitude":-91.03417
    },{
      "name":"San Luis Ixcan",
      "latitude":15.78722,
      "longitude":-91.095
    },{
      "name":"Santa Cruz del Quiche",
      "latitude":15.03056,
      "longitude":-91.14889
    },{
      "name":"Zacualpa",
      "latitude":15.08333,
      "longitude":-90.83333
    }]
  }]
}
