{
  "name":"Israel",
  "regions":[{
    "name":"Central District",
    "cities":[{
      "name":"Bene Ayish",
      "latitude":31.78333,
      "longitude":34.75
    },{
      "name":"Bet Dagan",
      "latitude":31.99712,
      "longitude":34.8233
    },{
      "name":"Et Taiyiba",
      "latitude":32.26616,
      "longitude":35.00893
    },{
      "name":"Even Yehuda",
      "latitude":32.26959,
      "longitude":34.88759
    },{
      "name":"Gan Yavne",
      "latitude":31.78737,
      "longitude":34.70659
    },{
      "name":"Ganne Tiqwa",
      "latitude":32.05971,
      "longitude":34.8732
    },{
      "name":"Gedera",
      "latitude":31.81456,
      "longitude":34.77998
    },{
      "name":"Hod HaSharon",
      "latitude":32.15934,
      "longitude":34.8932
    },{
      "name":"Jaljulya",
      "latitude":32.1547,
      "longitude":34.95372
    },{
      "name":"Kafr Qasim",
      "latitude":32.11406,
      "longitude":34.97624
    },{
      "name":"Kefar Yona",
      "latitude":32.31669,
      "longitude":34.93507
    },{
      "name":"Kfar Saba",
      "latitude":32.175,
      "longitude":34.90694
    },{
      "name":"Lod",
      "latitude":31.9467,
      "longitude":34.8903
    },{
      "name":"Mazkeret Batya",
      "latitude":31.85357,
      "longitude":34.84646
    },{
      "name":"Modiin",
      "latitude":31.89825,
      "longitude":35.01051
    },{
      "name":"Ness Ziona",
      "latitude":31.92933,
      "longitude":34.79868
    },{
      "name":"Netanya",
      "latitude":32.33292,
      "longitude":34.85992
    },{
      "name":"Pardesiyya",
      "latitude":32.30577,
      "longitude":34.90911
    },{
      "name":"Petah Tiqwa",
      "latitude":32.08708,
      "longitude":34.88747
    },{
      "name":"Qalansuwa",
      "latitude":32.28493,
      "longitude":34.98106
    },{
      "name":"Raanana",
      "latitude":32.1836,
      "longitude":34.87386
    },{
      "name":"Ramla",
      "latitude":31.92923,
      "longitude":34.86563
    },{
      "name":"Rishon LeZiyyon",
      "latitude":31.97102,
      "longitude":34.78939
    },{
      "name":"Rosh HaAyin",
      "latitude":32.09556,
      "longitude":34.95664
    },{
      "name":"Tel Mond",
      "latitude":32.24995,
      "longitude":34.91737
    },{
      "name":"Tirah",
      "latitude":32.2341,
      "longitude":34.95023
    },{
      "name":"Yavne",
      "latitude":31.88078,
      "longitude":34.73843
    },{
      "name":"Yehud",
      "latitude":32.03317,
      "longitude":34.89091
    }]
  },{
    "name":"Haifa District",
    "cities":[{
      "name":"Daliyat el Karmil",
      "latitude":32.69383,
      "longitude":35.04686
    },{
      "name":"El Fureidis",
      "latitude":32.59812,
      "longitude":34.95153
    },{
      "name":"Hadera",
      "latitude":32.43645,
      "longitude":34.91956
    },{
      "name":"Haifa",
      "latitude":32.81841,
      "longitude":34.9885
    },{
      "name":"Nesher",
      "latitude":32.76651,
      "longitude":35.05003
    },{
      "name":"Qiryat Ata",
      "latitude":32.81034,
      "longitude":35.11255
    },{
      "name":"Qiryat Bialik",
      "latitude":32.8275,
      "longitude":35.08583
    },{
      "name":"Qiryat Motzkin",
      "latitude":32.83706,
      "longitude":35.0776
    },{
      "name":"Qiryat Yam",
      "latitude":32.84966,
      "longitude":35.06973
    },{
      "name":"Rekhasim",
      "latitude":32.74907,
      "longitude":35.09901
    },{
      "name":"Tirat Karmel",
      "latitude":32.76021,
      "longitude":34.97183
    },{
      "name":"Umm el Fahm",
      "latitude":32.51725,
      "longitude":35.15349
    }]
  },{
    "name":"Israel",
    "cities":[{
      "name":"Givat Zeev",
      "latitude":31.86145,
      "longitude":35.16861
    },{
      "name":"Oranit",
      "latitude":32.13165,
      "longitude":34.99094
    }]
  },{
    "name":"Jerusalem District",
    "cities":[{
      "name":"Abu Ghaush",
      "latitude":31.80592,
      "longitude":35.1093
    },{
      "name":"Ariel",
      "latitude":32.1065,
      "longitude":35.18449
    },{
      "name":"Bet Shemesh",
      "latitude":31.74959,
      "longitude":34.98877
    },{
      "name":"Jerusalem",
      "latitude":31.76904,
      "longitude":35.21633
    },{
      "name":"Mevo Betar",
      "latitude":31.72177,
      "longitude":35.10669
    },{
      "name":"Modiin Ilit",
      "latitude":31.93221,
      "longitude":35.04416
    },{
      "name":"Old City",
      "latitude":31.77667,
      "longitude":35.23417
    },{
      "name":"West Jerusalem",
      "latitude":31.78199,
      "longitude":35.21961
    }]
  },{
    "name":"Northern District",
    "cities":[{
      "name":"Basmat Tab`un",
      "latitude":32.73656,
      "longitude":35.153
    },{
      "name":"Beit Jann",
      "latitude":32.96464,
      "longitude":35.38152
    },{
      "name":"Bet Shean",
      "latitude":32.49728,
      "longitude":35.49632
    },{
      "name":"Bir el Maksur",
      "latitude":32.77732,
      "longitude":35.22069
    },{
      "name":"Bu`eina",
      "latitude":32.80636,
      "longitude":35.36486
    },{
      "name":"Buqei`a",
      "latitude":32.97746,
      "longitude":35.33345
    },{
      "name":"Dabburiya",
      "latitude":32.69256,
      "longitude":35.37123
    },{
      "name":"Deir Hanna",
      "latitude":32.86196,
      "longitude":35.36365
    },{
      "name":"Er Reina",
      "latitude":32.72339,
      "longitude":35.31622
    },{
      "name":"Hurfeish",
      "latitude":33.01711,
      "longitude":35.34835
    },{
      "name":"Iksal",
      "latitude":32.68164,
      "longitude":35.32365
    },{
      "name":"Judieda Makr",
      "latitude":32.9282,
      "longitude":35.15705
    },{
      "name":"Kabul",
      "latitude":32.86856,
      "longitude":35.21171
    },{
      "name":"Kafr Kanna",
      "latitude":32.7466,
      "longitude":35.34242
    },{
      "name":"Kafr Manda",
      "latitude":32.81034,
      "longitude":35.26009
    },{
      "name":"Kafr Yasif",
      "latitude":32.95451,
      "longitude":35.1623
    },{
      "name":"Karmiel",
      "latitude":32.91669,
      "longitude":35.29918
    },{
      "name":"Kefar Weradim",
      "latitude":32.99385,
      "longitude":35.27793
    },{
      "name":"Maghar",
      "latitude":32.88984,
      "longitude":35.40703
    },{
      "name":"Migdal Ha`Emeq",
      "latitude":32.67597,
      "longitude":35.23986
    },{
      "name":"Nahariya",
      "latitude":33.01135,
      "longitude":35.09467
    },{
      "name":"Nahf",
      "latitude":32.93444,
      "longitude":35.31679
    },{
      "name":"Nazareth",
      "latitude":32.69925,
      "longitude":35.30483
    },{
      "name":"Qiryat Shemona",
      "latitude":33.20733,
      "longitude":35.57212
    },{
      "name":"Ramat Yishay",
      "latitude":32.70444,
      "longitude":35.1707
    },{
      "name":"Safed",
      "latitude":32.96465,
      "longitude":35.496
    },{
      "name":"Sakhnin",
      "latitude":32.86422,
      "longitude":35.29707
    },{
      "name":"Shelomi",
      "latitude":33.07472,
      "longitude":35.14608
    },{
      "name":"Tamra",
      "latitude":32.85301,
      "longitude":35.1987
    },{
      "name":"Tiberias",
      "latitude":32.7922,
      "longitude":35.53124
    },{
      "name":"`Afula `Illit",
      "latitude":32.63323,
      "longitude":35.32522
    },{
      "name":"`Akko",
      "latitude":32.92814,
      "longitude":35.07647
    },{
      "name":"maalot Tarshiha",
      "latitude":33.01667,
      "longitude":35.26667
    }]
  },{
    "name":"Southern District",
    "cities":[{
      "name":"Arad",
      "latitude":31.25882,
      "longitude":35.21282
    },{
      "name":"Ashdod",
      "latitude":31.79213,
      "longitude":34.64966
    },{
      "name":"Ashqelon",
      "latitude":31.66926,
      "longitude":34.57149
    },{
      "name":"Beersheba",
      "latitude":31.25181,
      "longitude":34.7913
    },{
      "name":"Dimona",
      "latitude":31.07127,
      "longitude":35.0337
    },{
      "name":"Eilat",
      "latitude":29.55805,
      "longitude":34.94821
    },{
      "name":"Lehavim",
      "latitude":31.37284,
      "longitude":34.81619
    },{
      "name":"Netivot",
      "latitude":31.42215,
      "longitude":34.58858
    },{
      "name":"Ofaqim",
      "latitude":31.3141,
      "longitude":34.62025
    },{
      "name":"Qiryat Gat",
      "latitude":31.60998,
      "longitude":34.76422
    },{
      "name":"Sederot",
      "latitude":31.525,
      "longitude":34.59693
    },{
      "name":"Yeroham",
      "latitude":30.98822,
      "longitude":34.93176
    }]
  },{
    "name":"Tel Aviv District",
    "cities":[{
      "name":"Azor",
      "latitude":32.0243,
      "longitude":34.80632
    },{
      "name":"Bat Yam",
      "latitude":32.02379,
      "longitude":34.75185
    },{
      "name":"Bene Beraq",
      "latitude":32.08074,
      "longitude":34.8338
    },{
      "name":"Giv`at Shemuel",
      "latitude":32.07817,
      "longitude":34.84858
    },{
      "name":"Giv`atayim",
      "latitude":32.07225,
      "longitude":34.81253
    },{
      "name":"Herzliya Pituah",
      "latitude":32.17409,
      "longitude":34.8028
    },{
      "name":"Herzliyya",
      "latitude":32.16627,
      "longitude":34.82536
    },{
      "name":"Holon",
      "latitude":32.01034,
      "longitude":34.77918
    },{
      "name":"Or Yehuda",
      "latitude":32.02923,
      "longitude":34.85788
    },{
      "name":"Ramat Gan",
      "latitude":32.08227,
      "longitude":34.81065
    },{
      "name":"Ramat HaSharon",
      "latitude":32.14613,
      "longitude":34.8394
    },{
      "name":"Tel Aviv",
      "latitude":32.08088,
      "longitude":34.78057
    },{
      "name":"Yafo",
      "latitude":32.05043,
      "longitude":34.75224
    }]
  }]
}
