{
  "name":"Iceland",
  "regions":[{
    "name":"Austurland",
    "cities":[{
      "name":"Egilsstadir",
      "latitude":65.26533,
      "longitude":-14.39484
    }]
  },{
    "name":"Hofudborgarsvadi",
    "cities":[{
      "name":"Gardabaer",
      "latitude":64.08865,
      "longitude":-21.92298
    },{
      "name":"Hafnarfjoerdur",
      "latitude":64.0671,
      "longitude":-21.93774
    },{
      "name":"Kopavogur",
      "latitude":64.11234,
      "longitude":-21.91298
    },{
      "name":"Mosfellsbaer",
      "latitude":64.16667,
      "longitude":-21.7
    },{
      "name":"Reykjavik",
      "latitude":64.13548,
      "longitude":-21.89541
    }]
  },{
    "name":"Nordurland Eystra",
    "cities":[{
      "name":"Akureyri",
      "latitude":65.68353,
      "longitude":-18.0878
    }]
  },{
    "name":"Nordurland Vestra",
    "cities":[{
      "name":"Saudarkrokur",
      "latitude":65.74611,
      "longitude":-19.63944
    }]
  },{
    "name":"Sudurland",
    "cities":[{
      "name":"Selfoss",
      "latitude":63.93311,
      "longitude":-20.99712
    }]
  },{
    "name":"Sudurnes",
    "cities":[]
  },{
    "name":"Vestfirdir",
    "cities":[{
      "name":"Isafjoerdur",
      "latitude":66.07475,
      "longitude":-23.13498
    }]
  },{
    "name":"Vesturland",
    "cities":[{
      "name":"Akranes",
      "latitude":64.32179,
      "longitude":-22.0749
    },{
      "name":"Borgarnes",
      "latitude":64.53834,
      "longitude":-21.92064
    }]
  }]
}
