{
  "name":"Italy",
  "regions":[{
    "name":"Lazio",
    "cities":[{
      "name":"Alatri",
      "latitude":41.73062,
      "longitude":13.3402
    },{
      "name":"Albano Laziale",
      "latitude":41.72873,
      "longitude":12.6608
    },{
      "name":"Anagni",
      "latitude":41.74472,
      "longitude":13.15269
    },{
      "name":"Anguillara Sabazia",
      "latitude":42.08752,
      "longitude":12.27667
    },{
      "name":"Anzio",
      "latitude":41.44749,
      "longitude":12.62707
    },{
      "name":"Aprilia",
      "latitude":41.58951,
      "longitude":12.65009
    },{
      "name":"Ardea",
      "latitude":41.6123,
      "longitude":12.51433
    },{
      "name":"Ariccia",
      "latitude":41.72012,
      "longitude":12.67588
    },{
      "name":"Artena",
      "latitude":41.73848,
      "longitude":12.91308
    },{
      "name":"Bagni di Tivoli",
      "latitude":41.95,
      "longitude":12.71667
    },{
      "name":"Bracciano",
      "latitude":42.10284,
      "longitude":12.16497
    },{
      "name":"Campagnano di Roma",
      "latitude":42.13882,
      "longitude":12.37077
    },{
      "name":"Capena",
      "latitude":42.14247,
      "longitude":12.54513
    },{
      "name":"Capranica",
      "latitude":42.25872,
      "longitude":12.17207
    },{
      "name":"Cassino",
      "latitude":41.48762,
      "longitude":13.83151
    },{
      "name":"Castel Madama",
      "latitude":41.97352,
      "longitude":12.86848
    },{
      "name":"Cave",
      "latitude":41.81672,
      "longitude":12.93379
    },{
      "name":"Ceccano",
      "latitude":41.56772,
      "longitude":13.3333
    },{
      "name":"Cecchina",
      "latitude":41.7,
      "longitude":12.65
    },{
      "name":"Ceprano",
      "latitude":41.54572,
      "longitude":13.51473
    },{
      "name":"Cerveteri",
      "latitude":41.99262,
      "longitude":12.09237
    },{
      "name":"Cesano",
      "latitude":42.06895,
      "longitude":12.33866
    },{
      "name":"Ciampino",
      "latitude":41.80162,
      "longitude":12.60658
    },{
      "name":"Cisterna di Latina",
      "latitude":41.5908,
      "longitude":12.82808
    },{
      "name":"Civita Castellana",
      "latitude":42.29523,
      "longitude":12.40917
    },{
      "name":"Civitavecchia",
      "latitude":42.09325,
      "longitude":11.79674
    },{
      "name":"Colleferro",
      "latitude":41.72622,
      "longitude":13.00359
    },{
      "name":"Corcolle",
      "latitude":41.91291,
      "longitude":12.73093
    },{
      "name":"Cori",
      "latitude":41.64442,
      "longitude":12.91279
    },{
      "name":"Fabrica di Roma",
      "latitude":42.33513,
      "longitude":12.29977
    },{
      "name":"Ferentino",
      "latitude":41.69532,
      "longitude":13.2564
    },{
      "name":"Fiano Romano",
      "latitude":42.15952,
      "longitude":12.59418
    },{
      "name":"Fiuggi",
      "latitude":41.79862,
      "longitude":13.2203
    },{
      "name":"Fiumicino",
      "latitude":41.76747,
      "longitude":12.22907
    },{
      "name":"Fondi",
      "latitude":41.35411,
      "longitude":13.43131
    },{
      "name":"Formello",
      "latitude":42.0672,
      "longitude":12.39941
    },{
      "name":"Formia",
      "latitude":41.25626,
      "longitude":13.60588
    },{
      "name":"Frascati",
      "latitude":41.80711,
      "longitude":12.6812
    },{
      "name":"Fregene",
      "latitude":41.85051,
      "longitude":12.19671
    },{
      "name":"Frosinone",
      "latitude":41.64002,
      "longitude":13.3401
    },{
      "name":"Gaeta",
      "latitude":41.21408,
      "longitude":13.57082
    },{
      "name":"Genzano di Roma",
      "latitude":41.70132,
      "longitude":12.69178
    },{
      "name":"Grottaferrata",
      "latitude":41.78362,
      "longitude":12.67568
    },{
      "name":"Guidonia",
      "latitude":42.00243,
      "longitude":12.72656
    },{
      "name":"Guidonia Montecelio",
      "latitude":41.99362,
      "longitude":12.72238
    },{
      "name":"Isola del Liri",
      "latitude":41.68622,
      "longitude":13.5823
    },{
      "name":"Itri",
      "latitude":41.28921,
      "longitude":13.52641
    },{
      "name":"Ladispoli",
      "latitude":41.95372,
      "longitude":12.07347
    },{
      "name":"Lanuvio",
      "latitude":41.67282,
      "longitude":12.69758
    },{
      "name":"Lariano",
      "latitude":41.71912,
      "longitude":12.82109
    },{
      "name":"Latina",
      "latitude":41.46614,
      "longitude":12.9043
    },{
      "name":"Latina scalo",
      "latitude":41.53157,
      "longitude":12.94567
    },{
      "name":"Lavinio",
      "latitude":41.5035,
      "longitude":12.58973
    },{
      "name":"Lido di Ostia",
      "latitude":41.73212,
      "longitude":12.27654
    },{
      "name":"Manziana",
      "latitude":42.12308,
      "longitude":12.13075
    },{
      "name":"Maranola",
      "latitude":41.28522,
      "longitude":13.62777
    },{
      "name":"Marcellina",
      "latitude":42.02512,
      "longitude":12.80578
    },{
      "name":"Marco Simone",
      "latitude":41.95544,
      "longitude":12.64775
    },{
      "name":"Marina di Cerveteri",
      "latitude":41.97997,
      "longitude":12.05295
    },{
      "name":"Marino",
      "latitude":41.76242,
      "longitude":12.64438
    },{
      "name":"Mentana",
      "latitude":42.03492,
      "longitude":12.64238
    },{
      "name":"Minturno",
      "latitude":41.25761,
      "longitude":13.72371
    },{
      "name":"Monte Compatri",
      "latitude":41.80892,
      "longitude":12.73778
    },{
      "name":"Monte Porzio Catone",
      "latitude":41.81091,
      "longitude":12.7212
    },{
      "name":"Montefiascone",
      "latitude":42.53933,
      "longitude":12.03616
    },{
      "name":"Monterotondo",
      "latitude":42.05252,
      "longitude":12.61868
    },{
      "name":"Morlupo",
      "latitude":42.14612,
      "longitude":12.49737
    },{
      "name":"Nepi",
      "latitude":42.24282,
      "longitude":12.34557
    },{
      "name":"Nettuno",
      "latitude":41.45907,
      "longitude":12.66037
    },{
      "name":"Olevano Romano",
      "latitude":41.86062,
      "longitude":13.03309
    },{
      "name":"Palestrina",
      "latitude":41.83552,
      "longitude":12.88899
    },{
      "name":"Paliano",
      "latitude":41.80562,
      "longitude":13.05759
    },{
      "name":"Palombara Sabina",
      "latitude":42.06672,
      "longitude":12.76798
    },{
      "name":"Pomezia",
      "latitude":41.66701,
      "longitude":12.50518
    },{
      "name":"Pontecorvo",
      "latitude":41.46162,
      "longitude":13.66671
    },{
      "name":"Pontinia",
      "latitude":41.41091,
      "longitude":13.0441
    },{
      "name":"Priverno",
      "latitude":41.46911,
      "longitude":13.1856
    },{
      "name":"Riano",
      "latitude":42.09685,
      "longitude":12.50392
    },{
      "name":"Rieti",
      "latitude":42.40723,
      "longitude":12.85918
    },{
      "name":"Rignano Flaminio",
      "latitude":42.20068,
      "longitude":12.47892
    },{
      "name":"Rocca Priora",
      "latitude":41.77862,
      "longitude":12.74818
    },{
      "name":"Rocca di Papa",
      "latitude":41.75963,
      "longitude":12.7043
    },{
      "name":"Rome",
      "latitude":41.89474,
      "longitude":12.4839
    },{
      "name":"Ronciglione",
      "latitude":42.29042,
      "longitude":12.21327
    },{
      "name":"Sabaudia",
      "latitude":41.30025,
      "longitude":13.02815
    },{
      "name":"San Cesareo",
      "latitude":41.82092,
      "longitude":12.81559
    },{
      "name":"San Felice Circeo",
      "latitude":41.23716,
      "longitude":13.09416
    },{
      "name":"Santa Lucia",
      "latitude":41.9824,
      "longitude":12.65625
    },{
      "name":"Santa Marinella",
      "latitude":42.04016,
      "longitude":11.83023
    },{
      "name":"Segni",
      "latitude":41.68722,
      "longitude":13.01519
    },{
      "name":"Sezze",
      "latitude":41.50331,
      "longitude":13.0641
    },{
      "name":"Sora",
      "latitude":41.72212,
      "longitude":13.6145
    },{
      "name":"Soriano nel Cimino",
      "latitude":42.41873,
      "longitude":12.23336
    },{
      "name":"Subiaco",
      "latitude":41.92542,
      "longitude":13.09409
    },{
      "name":"Tarquinia",
      "latitude":42.25419,
      "longitude":11.75657
    },{
      "name":"Tecchiena",
      "latitude":41.68822,
      "longitude":13.34538
    },{
      "name":"Terracina",
      "latitude":41.28967,
      "longitude":13.24127
    },{
      "name":"Tivoli",
      "latitude":41.96092,
      "longitude":12.79888
    },{
      "name":"Tor San Lorenzo",
      "latitude":41.55439,
      "longitude":12.54115
    },{
      "name":"Torre Lupara",
      "latitude":41.99771,
      "longitude":12.61814
    },{
      "name":"Torvaianica",
      "latitude":41.63431,
      "longitude":12.44768
    },{
      "name":"Tuscania",
      "latitude":42.41726,
      "longitude":11.87212
    },{
      "name":"Valmontone",
      "latitude":41.77882,
      "longitude":12.91749
    },{
      "name":"Velletri",
      "latitude":41.67337,
      "longitude":12.75107
    },{
      "name":"Vetralla",
      "latitude":42.32015,
      "longitude":12.05385
    },{
      "name":"Villa Adriana",
      "latitude":41.95499,
      "longitude":12.77216
    },{
      "name":"Villalba",
      "latitude":41.95387,
      "longitude":12.72938
    },{
      "name":"Villanova",
      "latitude":41.96357,
      "longitude":12.75633
    },{
      "name":"Viterbo",
      "latitude":42.41783,
      "longitude":12.10856
    },{
      "name":"Vitinia",
      "latitude":41.79124,
      "longitude":12.4081
    },{
      "name":"Zagarolo",
      "latitude":41.82648,
      "longitude":12.8396
    }]
  },{
    "name":"Marche",
    "cities":[{
      "name":"Ancona",
      "latitude":43.59816,
      "longitude":13.51008
    },{
      "name":"Ascoli Piceno",
      "latitude":42.85483,
      "longitude":13.5749
    },{
      "name":"Cagli",
      "latitude":43.54566,
      "longitude":12.65266
    },{
      "name":"Calcinelli",
      "latitude":43.75,
      "longitude":12.91667
    },{
      "name":"Camerano",
      "latitude":43.53126,
      "longitude":13.55158
    },{
      "name":"Cartoceto",
      "latitude":43.61667,
      "longitude":12.81667
    },{
      "name":"Castel di Lama",
      "latitude":42.86435,
      "longitude":13.71929
    },{
      "name":"Castelfidardo",
      "latitude":43.46316,
      "longitude":13.54518
    },{
      "name":"Centobuchi",
      "latitude":42.89521,
      "longitude":13.84809
    },{
      "name":"Chiaravalle",
      "latitude":43.60266,
      "longitude":13.32457
    },{
      "name":"Civitanova Marche",
      "latitude":43.30696,
      "longitude":13.72058
    },{
      "name":"Colbordolo",
      "latitude":43.82006,
      "longitude":12.72105
    },{
      "name":"Corridonia",
      "latitude":43.25106,
      "longitude":13.50878
    },{
      "name":"Fabriano",
      "latitude":43.34065,
      "longitude":12.90726
    },{
      "name":"Falconara Marittima",
      "latitude":43.62326,
      "longitude":13.40307
    },{
      "name":"Fano",
      "latitude":43.84052,
      "longitude":13.01665
    },{
      "name":"Fermignano",
      "latitude":43.68396,
      "longitude":12.64405
    },{
      "name":"Fermo",
      "latitude":43.16466,
      "longitude":13.72329
    },{
      "name":"Filottrano",
      "latitude":43.43553,
      "longitude":13.35141
    },{
      "name":"Fossombrone",
      "latitude":43.69076,
      "longitude":12.81266
    },{
      "name":"Grottammare",
      "latitude":42.98875,
      "longitude":13.86489
    },{
      "name":"Jesi",
      "latitude":43.52142,
      "longitude":13.24368
    },{
      "name":"La pigna-pigna bassa",
      "latitude":42.83324,
      "longitude":13.63446
    },{
      "name":"Le Grazie di Ancona",
      "latitude":43.60081,
      "longitude":13.51529
    },{
      "name":"Loreto",
      "latitude":43.43536,
      "longitude":13.60978
    },{
      "name":"Macerata",
      "latitude":43.29789,
      "longitude":13.45293
    },{
      "name":"Marotta",
      "latitude":43.76397,
      "longitude":13.14772
    },{
      "name":"Matelica",
      "latitude":43.25405,
      "longitude":13.01057
    },{
      "name":"Monte San Giusto",
      "latitude":43.23576,
      "longitude":13.59528
    },{
      "name":"Monte Urano",
      "latitude":43.20266,
      "longitude":13.67288
    },{
      "name":"Montegranaro",
      "latitude":43.23546,
      "longitude":13.63098
    },{
      "name":"Osimo",
      "latitude":43.48276,
      "longitude":13.48748
    },{
      "name":"Pesaro",
      "latitude":43.90357,
      "longitude":12.89026
    },{
      "name":"Porto Potenza Picena",
      "latitude":43.35751,
      "longitude":13.69746
    },{
      "name":"Porto Recanati",
      "latitude":43.43646,
      "longitude":13.66128
    },{
      "name":"Porto San Giorgio",
      "latitude":43.18266,
      "longitude":13.79339
    },{
      "name":"Porto SantElpidio",
      "latitude":43.25826,
      "longitude":13.75829
    },{
      "name":"Recanati",
      "latitude":43.40386,
      "longitude":13.55978
    },{
      "name":"San Benedetto del Tronto",
      "latitude":42.94562,
      "longitude":13.88157
    },{
      "name":"San Severino Marche",
      "latitude":43.22815,
      "longitude":13.18017
    },{
      "name":"SantAngelo in Lizzola",
      "latitude":43.82696,
      "longitude":12.80076
    },{
      "name":"SantElpidio a Mare",
      "latitude":43.22986,
      "longitude":13.68608
    },{
      "name":"Senigallia",
      "latitude":43.70926,
      "longitude":13.21667
    },{
      "name":"Tolentino",
      "latitude":43.21255,
      "longitude":13.29008
    },{
      "name":"Urbania",
      "latitude":43.66966,
      "longitude":12.52005
    },{
      "name":"Urbino",
      "latitude":43.72621,
      "longitude":12.63633
    }]
  },{
    "name":"Puglia",
    "cities":[{
      "name":"Acquaviva delle Fonti",
      "latitude":40.89783,
      "longitude":16.84249
    },{
      "name":"Adelfia",
      "latitude":41.00423,
      "longitude":16.87169
    },{
      "name":"Alberobello",
      "latitude":40.78593,
      "longitude":17.2372
    },{
      "name":"Alessano",
      "latitude":39.88862,
      "longitude":18.33103
    },{
      "name":"Alezio",
      "latitude":40.06132,
      "longitude":18.05822
    },{
      "name":"Altamura",
      "latitude":40.82923,
      "longitude":16.55368
    },{
      "name":"Andria",
      "latitude":41.22984,
      "longitude":16.30674
    },{
      "name":"Apricena",
      "latitude":41.78394,
      "longitude":15.44374
    },{
      "name":"Aradeo",
      "latitude":40.13092,
      "longitude":18.12962
    },{
      "name":"Ascoli Satriano",
      "latitude":41.20613,
      "longitude":15.56146
    },{
      "name":"Avetrana",
      "latitude":40.35292,
      "longitude":17.73491
    },{
      "name":"Bari",
      "latitude":41.11773,
      "longitude":16.85118
    },{
      "name":"Barletta",
      "latitude":41.3197,
      "longitude":16.28662
    },{
      "name":"Bisceglie",
      "latitude":41.24203,
      "longitude":16.50438
    },{
      "name":"Bitetto",
      "latitude":41.03863,
      "longitude":16.74688
    },{
      "name":"Bitonto",
      "latitude":41.11083,
      "longitude":16.68938
    },{
      "name":"Bitritto",
      "latitude":41.04453,
      "longitude":16.82518
    },{
      "name":"Brindisi",
      "latitude":40.62773,
      "longitude":17.93682
    },{
      "name":"Cagnano Varano",
      "latitude":41.82874,
      "longitude":15.77315
    },{
      "name":"Calimera",
      "latitude":40.25033,
      "longitude":18.27793
    },{
      "name":"Campi Salentina",
      "latitude":40.39944,
      "longitude":18.01861
    },{
      "name":"Canosa di Puglia",
      "latitude":41.22341,
      "longitude":16.05916
    },{
      "name":"Capurso",
      "latitude":41.04693,
      "longitude":16.92159
    },{
      "name":"Carapelle",
      "latitude":41.36523,
      "longitude":15.69376
    },{
      "name":"Carmiano",
      "latitude":40.34483,
      "longitude":18.04302
    },{
      "name":"Carosino",
      "latitude":40.46582,
      "longitude":17.3976
    },{
      "name":"Carovigno",
      "latitude":40.70803,
      "longitude":17.65501
    },{
      "name":"Casamassima",
      "latitude":40.95713,
      "longitude":16.92039
    },{
      "name":"Casarano",
      "latitude":40.01502,
      "longitude":18.16303
    },{
      "name":"Cassano delle Murge",
      "latitude":40.89283,
      "longitude":16.76778
    },{
      "name":"Castellana Grotte",
      "latitude":40.88643,
      "longitude":17.1655
    },{
      "name":"Castellaneta",
      "latitude":40.62722,
      "longitude":16.93689
    },{
      "name":"Cavallino",
      "latitude":40.31253,
      "longitude":18.20042
    },{
      "name":"Ceglie Messapica",
      "latitude":40.64393,
      "longitude":17.5155
    },{
      "name":"Cellamare",
      "latitude":41.01933,
      "longitude":16.92829
    },{
      "name":"Cellino San Marco",
      "latitude":40.47223,
      "longitude":17.96632
    },{
      "name":"Cerignola",
      "latitude":41.26674,
      "longitude":15.89313
    },{
      "name":"Cisternino",
      "latitude":40.74453,
      "longitude":17.4243
    },{
      "name":"Collepasso",
      "latitude":40.07152,
      "longitude":18.16403
    },{
      "name":"Conversano",
      "latitude":40.96623,
      "longitude":17.11479
    },{
      "name":"Copertino",
      "latitude":40.27152,
      "longitude":18.05652
    },{
      "name":"Corato",
      "latitude":41.1469,
      "longitude":16.41224
    },{
      "name":"Corigliano dOtranto",
      "latitude":40.15962,
      "longitude":18.25943
    },{
      "name":"Corsano",
      "latitude":39.88922,
      "longitude":18.36933
    },{
      "name":"Crispiano",
      "latitude":40.60583,
      "longitude":17.23028
    },{
      "name":"Cutrofiano",
      "latitude":40.12632,
      "longitude":18.20163
    },{
      "name":"Erchie",
      "latitude":40.43803,
      "longitude":17.73061
    },{
      "name":"Fasano",
      "latitude":40.83443,
      "longitude":17.3584
    },{
      "name":"Foggia",
      "latitude":41.46093,
      "longitude":15.54925
    },{
      "name":"Fragagnano",
      "latitude":40.43192,
      "longitude":17.47221
    },{
      "name":"Francavilla Fontana",
      "latitude":40.53063,
      "longitude":17.58521
    },{
      "name":"Gagliano del Capo",
      "latitude":39.84422,
      "longitude":18.36953
    },{
      "name":"Galatina",
      "latitude":40.17402,
      "longitude":18.16822
    },{
      "name":"Galatone",
      "latitude":40.14292,
      "longitude":18.07042
    },{
      "name":"Gallipoli",
      "latitude":40.05556,
      "longitude":17.97639
    },{
      "name":"Ginosa",
      "latitude":40.58012,
      "longitude":16.75609
    },{
      "name":"Gioia del Colle",
      "latitude":40.79673,
      "longitude":16.92359
    },{
      "name":"Giovinazzo",
      "latitude":41.18643,
      "longitude":16.66738
    },{
      "name":"Gravina in Puglia",
      "latitude":40.81972,
      "longitude":16.42278
    },{
      "name":"Grottaglie",
      "latitude":40.53923,
      "longitude":17.4337
    },{
      "name":"Grumo Appula",
      "latitude":41.01353,
      "longitude":16.70848
    },{
      "name":"Laterza",
      "latitude":40.62952,
      "longitude":16.79969
    },{
      "name":"Latiano",
      "latitude":40.55293,
      "longitude":17.72051
    },{
      "name":"Lecce",
      "latitude":40.35703,
      "longitude":18.17202
    },{
      "name":"Lequile",
      "latitude":40.30583,
      "longitude":18.14022
    },{
      "name":"Lesina",
      "latitude":41.85944,
      "longitude":15.35274
    },{
      "name":"Leverano",
      "latitude":40.28902,
      "longitude":18.00002
    },{
      "name":"Lizzanello",
      "latitude":40.30413,
      "longitude":18.22252
    },{
      "name":"Lizzano",
      "latitude":40.39102,
      "longitude":17.44761
    },{
      "name":"Locorotondo",
      "latitude":40.75523,
      "longitude":17.3265
    },{
      "name":"Lucera",
      "latitude":41.50823,
      "longitude":15.33505
    },{
      "name":"Maglie",
      "latitude":40.11842,
      "longitude":18.29893
    },{
      "name":"Manduria",
      "latitude":40.40182,
      "longitude":17.63351
    },{
      "name":"Manfredonia",
      "latitude":41.62594,
      "longitude":15.90936
    },{
      "name":"Margherita di Savoia",
      "latitude":41.367,
      "longitude":16.15977
    },{
      "name":"Martano",
      "latitude":40.20342,
      "longitude":18.30283
    },{
      "name":"Martina Franca",
      "latitude":40.70313,
      "longitude":17.3339
    },{
      "name":"Massafra",
      "latitude":40.59194,
      "longitude":17.11528
    },{
      "name":"Matino",
      "latitude":40.03222,
      "longitude":18.13183
    },{
      "name":"Mattinata",
      "latitude":41.71014,
      "longitude":16.05156
    },{
      "name":"Melendugno",
      "latitude":40.27473,
      "longitude":18.33683
    },{
      "name":"Melissano",
      "latitude":39.97402,
      "longitude":18.12143
    },{
      "name":"Mesagne",
      "latitude":40.55883,
      "longitude":17.80831
    },{
      "name":"Minervino Murge",
      "latitude":41.08433,
      "longitude":16.07837
    },{
      "name":"Modugno",
      "latitude":41.09743,
      "longitude":16.77798
    },{
      "name":"Mola di Bari",
      "latitude":41.06094,
      "longitude":17.08729
    },{
      "name":"Molfetta",
      "latitude":41.20023,
      "longitude":16.59748
    },{
      "name":"Monopoli",
      "latitude":40.95593,
      "longitude":17.2896
    },{
      "name":"Monte SantAngelo",
      "latitude":41.70544,
      "longitude":15.96766
    },{
      "name":"Monteiasi",
      "latitude":40.49992,
      "longitude":17.3826
    },{
      "name":"Monteroni di Lecce",
      "latitude":40.32463,
      "longitude":18.09712
    },{
      "name":"Mottola",
      "latitude":40.63528,
      "longitude":17.03528
    },{
      "name":"Nardo",
      "latitude":40.17512,
      "longitude":18.02972
    },{
      "name":"Neviano",
      "latitude":40.10772,
      "longitude":18.11402
    },{
      "name":"Noci",
      "latitude":40.79073,
      "longitude":17.1317
    },{
      "name":"Noicattaro",
      "latitude":41.03383,
      "longitude":16.98959
    },{
      "name":"Novoli",
      "latitude":40.37853,
      "longitude":18.04922
    },{
      "name":"Oria",
      "latitude":40.49733,
      "longitude":17.64131
    },{
      "name":"Orta Nova",
      "latitude":41.32993,
      "longitude":15.71066
    },{
      "name":"Ostuni",
      "latitude":40.72763,
      "longitude":17.57641
    },{
      "name":"Palagianello",
      "latitude":40.60982,
      "longitude":16.97599
    },{
      "name":"Palagiano",
      "latitude":40.57889,
      "longitude":17.03861
    },{
      "name":"Palo del Colle",
      "latitude":41.05753,
      "longitude":16.70078
    },{
      "name":"Parabita",
      "latitude":40.05192,
      "longitude":18.12953
    },{
      "name":"Poggiardo",
      "latitude":40.05422,
      "longitude":18.37913
    },{
      "name":"Polignano a Mare",
      "latitude":40.99593,
      "longitude":17.21589
    },{
      "name":"Presicce",
      "latitude":39.89912,
      "longitude":18.26173
    },{
      "name":"Pulsano",
      "latitude":40.38212,
      "longitude":17.3564
    },{
      "name":"Putignano",
      "latitude":40.85183,
      "longitude":17.12129
    },{
      "name":"Racale",
      "latitude":39.96312,
      "longitude":18.09383
    },{
      "name":"Ruffano",
      "latitude":39.98292,
      "longitude":18.24643
    },{
      "name":"Rutigliano",
      "latitude":41.01113,
      "longitude":17.00549
    },{
      "name":"Ruvo di Puglia",
      "latitude":41.11681,
      "longitude":16.49068
    },{
      "name":"Salice Salentino",
      "latitude":40.38703,
      "longitude":17.96072
    },{
      "name":"Sammichele di Bari",
      "latitude":40.88673,
      "longitude":16.94779
    },{
      "name":"San Cesario di Lecce",
      "latitude":40.30293,
      "longitude":18.15992
    },{
      "name":"San Donaci",
      "latitude":40.45063,
      "longitude":17.92512
    },{
      "name":"San Ferdinando di Puglia",
      "latitude":41.30263,
      "longitude":16.07046
    },{
      "name":"San Giorgio Ionico",
      "latitude":40.45662,
      "longitude":17.3787
    },{
      "name":"San Giovanni Rotondo",
      "latitude":41.70643,
      "longitude":15.7277
    },{
      "name":"San Marco in Lamis",
      "latitude":41.71314,
      "longitude":15.63985
    },{
      "name":"San Marzano di San Giuseppe",
      "latitude":40.45442,
      "longitude":17.50561
    },{
      "name":"San Michele Salentino",
      "latitude":40.63163,
      "longitude":17.63151
    },{
      "name":"San Pancrazio Salentino",
      "latitude":40.41913,
      "longitude":17.83052
    },{
      "name":"San Paolo di Civitate",
      "latitude":41.73834,
      "longitude":15.26024
    },{
      "name":"San Pietro Vernotico",
      "latitude":40.48528,
      "longitude":17.99972
    },{
      "name":"San Severo",
      "latitude":41.68974,
      "longitude":15.37604
    },{
      "name":"San Vito dei Normanni",
      "latitude":40.65733,
      "longitude":17.70721
    },{
      "name":"Sannicandro Garganico",
      "latitude":41.83844,
      "longitude":15.56535
    },{
      "name":"Sannicandro di Bari",
      "latitude":41.00153,
      "longitude":16.79618
    },{
      "name":"Santeramo in Colle",
      "latitude":40.79303,
      "longitude":16.75529
    },{
      "name":"Sava",
      "latitude":40.40342,
      "longitude":17.55841
    },{
      "name":"Scorrano",
      "latitude":40.09162,
      "longitude":18.29963
    },{
      "name":"Soleto",
      "latitude":40.18842,
      "longitude":18.20633
    },{
      "name":"Spinazzola",
      "latitude":40.96306,
      "longitude":16.09325
    },{
      "name":"Squinzano",
      "latitude":40.43653,
      "longitude":18.04182
    },{
      "name":"Statte",
      "latitude":40.56417,
      "longitude":17.20861
    },{
      "name":"Stornara",
      "latitude":41.28733,
      "longitude":15.76976
    },{
      "name":"Surbo",
      "latitude":40.39944,
      "longitude":18.13306
    },{
      "name":"Taranto",
      "latitude":40.47611,
      "longitude":17.22972
    },{
      "name":"Taurisano",
      "latitude":39.95662,
      "longitude":18.21413
    },{
      "name":"Taviano",
      "latitude":39.98352,
      "longitude":18.08683
    },{
      "name":"Terlizzi",
      "latitude":41.12681,
      "longitude":16.5421
    },{
      "name":"Torchiarolo",
      "latitude":40.48417,
      "longitude":18.0525
    },{
      "name":"Toritto",
      "latitude":40.99823,
      "longitude":16.67978
    },{
      "name":"Torre Santa Susanna",
      "latitude":40.46563,
      "longitude":17.73561
    },{
      "name":"Torremaggiore",
      "latitude":41.69074,
      "longitude":15.29634
    },{
      "name":"Trani",
      "latitude":41.28358,
      "longitude":16.42059
    },{
      "name":"Trepuzzi",
      "latitude":40.40556,
      "longitude":18.07556
    },{
      "name":"Tricase",
      "latitude":39.93042,
      "longitude":18.35533
    },{
      "name":"Triggiano",
      "latitude":41.06673,
      "longitude":16.92599
    },{
      "name":"Trinitapoli",
      "latitude":41.3599,
      "longitude":16.0871
    },{
      "name":"Troia",
      "latitude":41.36313,
      "longitude":15.31235
    },{
      "name":"Tuglie",
      "latitude":40.07382,
      "longitude":18.09812
    },{
      "name":"Turi",
      "latitude":40.91733,
      "longitude":17.02119
    },{
      "name":"Ugento",
      "latitude":39.92632,
      "longitude":18.15743
    },{
      "name":"Valenzano",
      "latitude":41.04533,
      "longitude":16.88509
    },{
      "name":"Veglie",
      "latitude":40.33513,
      "longitude":17.96522
    },{
      "name":"Vico del Gargano",
      "latitude":41.89834,
      "longitude":15.95755
    },{
      "name":"Vieste",
      "latitude":41.88245,
      "longitude":16.17496
    },{
      "name":"Villa Castelli",
      "latitude":40.58453,
      "longitude":17.4746
    }]
  },{
    "name":"Regione Abruzzo",
    "cities":[{
      "name":"Alba Adriatica",
      "latitude":42.83176,
      "longitude":13.9259
    },{
      "name":"Atri",
      "latitude":42.57784,
      "longitude":13.9848
    },{
      "name":"Avezzano",
      "latitude":42.04023,
      "longitude":13.4388
    },{
      "name":"Casalbordino",
      "latitude":42.15354,
      "longitude":14.59912
    },{
      "name":"Castel di Sangro",
      "latitude":41.77373,
      "longitude":14.10352
    },{
      "name":"Celano",
      "latitude":42.08553,
      "longitude":13.5398
    },{
      "name":"Chieti",
      "latitude":42.36094,
      "longitude":14.13801
    },{
      "name":"Francavilla al Mare",
      "latitude":42.42064,
      "longitude":14.28701
    },{
      "name":"Giulianova",
      "latitude":42.75381,
      "longitude":13.9665
    },{
      "name":"LAquila",
      "latitude":42.35055,
      "longitude":13.39954
    },{
      "name":"Lanciano",
      "latitude":42.21674,
      "longitude":14.38822
    },{
      "name":"Luco dei Marsi",
      "latitude":41.95703,
      "longitude":13.4736
    },{
      "name":"Martinsicuro",
      "latitude":42.88105,
      "longitude":13.9145
    },{
      "name":"Montesilvano Marina",
      "latitude":42.51667,
      "longitude":14.15
    },{
      "name":"Montorio al Vomano",
      "latitude":42.58314,
      "longitude":13.63829
    },{
      "name":"Ortona",
      "latitude":42.34964,
      "longitude":14.40391
    },{
      "name":"Penne",
      "latitude":42.45384,
      "longitude":13.9299
    },{
      "name":"Pescara",
      "latitude":42.46024,
      "longitude":14.21021
    },{
      "name":"Pineto",
      "latitude":42.60975,
      "longitude":14.066
    },{
      "name":"Popoli",
      "latitude":42.16993,
      "longitude":13.8308
    },{
      "name":"Pratola Peligna",
      "latitude":42.09833,
      "longitude":13.8739
    },{
      "name":"Roseto degli Abruzzi",
      "latitude":42.66635,
      "longitude":14.0227
    },{
      "name":"Sambuceto",
      "latitude":42.42168,
      "longitude":14.18747
    },{
      "name":"San Salvo",
      "latitude":42.04334,
      "longitude":14.72722
    },{
      "name":"SantEgidio alla Vibrata",
      "latitude":42.82105,
      "longitude":13.71789
    },{
      "name":"Silvi",
      "latitude":42.54564,
      "longitude":14.122
    },{
      "name":"Sulmona",
      "latitude":42.04793,
      "longitude":13.92911
    },{
      "name":"Teramo",
      "latitude":42.66123,
      "longitude":13.69901
    },{
      "name":"Tortoreto Lido",
      "latitude":42.79956,
      "longitude":13.94206
    },{
      "name":"Trasacco",
      "latitude":41.95693,
      "longitude":13.5345
    },{
      "name":"Vasto",
      "latitude":42.12434,
      "longitude":14.70592
    }]
  },{
    "name":"Regione Autonoma Friuli Venezia Giulia",
    "cities":[{
      "name":"Aviano",
      "latitude":46.07056,
      "longitude":12.59472
    },{
      "name":"Azzano Decimo",
      "latitude":45.88306,
      "longitude":12.71306
    },{
      "name":"Brugnera",
      "latitude":45.90444,
      "longitude":12.52639
    },{
      "name":"Buia",
      "latitude":46.21278,
      "longitude":13.11472
    },{
      "name":"Caneva",
      "latitude":45.96889,
      "longitude":12.44972
    },{
      "name":"Casarsa della Delizia",
      "latitude":45.94806,
      "longitude":12.8375
    },{
      "name":"Castello dAviano",
      "latitude":46.06809,
      "longitude":12.58836
    },{
      "name":"Cervignano del Friuli",
      "latitude":45.82111,
      "longitude":13.33806
    },{
      "name":"Cividale del Friuli",
      "latitude":46.09306,
      "longitude":13.4275
    },{
      "name":"Codroipo",
      "latitude":45.96,
      "longitude":12.97917
    },{
      "name":"Cordenons",
      "latitude":45.98972,
      "longitude":12.70194
    },{
      "name":"Cormons",
      "latitude":45.96056,
      "longitude":13.47222
    },{
      "name":"Fiume Veneto",
      "latitude":45.93051,
      "longitude":12.7393
    },{
      "name":"Gemona del Friuli",
      "latitude":46.27944,
      "longitude":13.14306
    },{
      "name":"Gorizia",
      "latitude":45.94088,
      "longitude":13.62167
    },{
      "name":"Gradisca dIsonzo",
      "latitude":45.8925,
      "longitude":13.50167
    },{
      "name":"Grado",
      "latitude":45.67861,
      "longitude":13.38694
    },{
      "name":"Latisana",
      "latitude":45.77917,
      "longitude":13.0
    },{
      "name":"Lignano Sabbiadoro",
      "latitude":45.69222,
      "longitude":13.14806
    },{
      "name":"Majano",
      "latitude":46.18752,
      "longitude":13.06162
    },{
      "name":"Maniago",
      "latitude":46.17056,
      "longitude":12.70778
    },{
      "name":"Manzano",
      "latitude":45.99167,
      "longitude":13.38389
    },{
      "name":"Martignacco",
      "latitude":46.09639,
      "longitude":13.13778
    },{
      "name":"Monfalcone",
      "latitude":45.80722,
      "longitude":13.53417
    },{
      "name":"Muggia",
      "latitude":45.60419,
      "longitude":13.76754
    },{
      "name":"Pasian di Prato",
      "latitude":46.04861,
      "longitude":13.1875
    },{
      "name":"Pasiano di Pordenone",
      "latitude":45.84972,
      "longitude":12.62722
    },{
      "name":"Porcia",
      "latitude":45.96,
      "longitude":12.60722
    },{
      "name":"Pordenone",
      "latitude":45.96389,
      "longitude":12.6575
    },{
      "name":"Ronchi dei Legionari",
      "latitude":45.82361,
      "longitude":13.50972
    },{
      "name":"Rosa",
      "latitude":45.93056,
      "longitude":12.87083
    },{
      "name":"Roveredo in Piano",
      "latitude":46.00389,
      "longitude":12.61778
    },{
      "name":"Sacile",
      "latitude":45.95412,
      "longitude":12.50274
    },{
      "name":"San Daniele del Friuli",
      "latitude":46.16139,
      "longitude":13.01417
    },{
      "name":"San Giorgio di Nogaro",
      "latitude":45.83361,
      "longitude":13.21583
    },{
      "name":"San Vito al Tagliamento",
      "latitude":45.91444,
      "longitude":12.85
    },{
      "name":"Spilimbergo",
      "latitude":46.1125,
      "longitude":12.89694
    },{
      "name":"Staranzano",
      "latitude":45.80722,
      "longitude":13.50333
    },{
      "name":"Tarcento",
      "latitude":46.21222,
      "longitude":13.22583
    },{
      "name":"Tavagnacco",
      "latitude":46.12745,
      "longitude":13.21488
    },{
      "name":"Tolmezzo",
      "latitude":46.4051,
      "longitude":13.017
    },{
      "name":"Tricesimo",
      "latitude":46.1601,
      "longitude":13.21323
    },{
      "name":"Trieste",
      "latitude":45.64861,
      "longitude":13.78
    },{
      "name":"Udine",
      "latitude":46.06194,
      "longitude":13.24222
    },{
      "name":"Villa Opicina",
      "latitude":45.6878,
      "longitude":13.78861
    }]
  },{
    "name":"Regione Autonoma Valle dAosta",
    "cities":[{
      "name":"Aosta",
      "latitude":45.73736,
      "longitude":7.3166
    }]
  },{
    "name":"Regione Basilicata",
    "cities":[{
      "name":"Avigliano",
      "latitude":40.73291,
      "longitude":15.72004
    },{
      "name":"Bernalda",
      "latitude":40.41282,
      "longitude":16.69199
    },{
      "name":"Ferrandina",
      "latitude":40.50122,
      "longitude":16.45468
    },{
      "name":"Genzano di Lucania",
      "latitude":40.84792,
      "longitude":16.03077
    },{
      "name":"Grassano",
      "latitude":40.63457,
      "longitude":16.27792
    },{
      "name":"Lagonegro",
      "latitude":40.12831,
      "longitude":15.76147
    },{
      "name":"Lavello",
      "latitude":41.04562,
      "longitude":15.79076
    },{
      "name":"Marconia",
      "latitude":40.36355,
      "longitude":16.68823
    },{
      "name":"Matera",
      "latitude":40.66852,
      "longitude":16.60158
    },{
      "name":"Melfi",
      "latitude":40.99656,
      "longitude":15.65364
    },{
      "name":"Montalbano Jonico",
      "latitude":40.29258,
      "longitude":16.56099
    },{
      "name":"Montescaglioso",
      "latitude":40.55222,
      "longitude":16.66689
    },{
      "name":"Pisticci",
      "latitude":40.39062,
      "longitude":16.55679
    },{
      "name":"Policoro",
      "latitude":40.21151,
      "longitude":16.67259
    },{
      "name":"Potenza",
      "latitude":40.64432,
      "longitude":15.80857
    },{
      "name":"Rionero in Vulture",
      "latitude":40.92572,
      "longitude":15.66996
    },{
      "name":"Senise",
      "latitude":40.14711,
      "longitude":16.28888
    },{
      "name":"Venosa",
      "latitude":40.96132,
      "longitude":15.81486
    }]
  },{
    "name":"Regione Calabria",
    "cities":[{
      "name":"Acri",
      "latitude":39.4929,
      "longitude":16.38379
    },{
      "name":"Amantea",
      "latitude":39.13319,
      "longitude":16.07459
    },{
      "name":"Amato",
      "latitude":38.38333,
      "longitude":16.13333
    },{
      "name":"Bagnara Calabra",
      "latitude":38.28847,
      "longitude":15.8078
    },{
      "name":"Belvedere Marittimo",
      "latitude":39.6179,
      "longitude":15.86168
    },{
      "name":"Bisignano",
      "latitude":39.5059,
      "longitude":16.27719
    },{
      "name":"Bovalino",
      "latitude":38.14897,
      "longitude":16.174
    },{
      "name":"Bovalino Superiore",
      "latitude":38.16905,
      "longitude":16.15849
    },{
      "name":"Cariati",
      "latitude":39.4922,
      "longitude":16.95941
    },{
      "name":"Cassano al Ionio",
      "latitude":39.783,
      "longitude":16.31819
    },{
      "name":"Castrovillari",
      "latitude":39.8203,
      "longitude":16.21229
    },{
      "name":"Catanzaro",
      "latitude":38.89079,
      "longitude":16.5987
    },{
      "name":"Cinquefrondi",
      "latitude":38.41618,
      "longitude":16.0842
    },{
      "name":"Ciro Marina",
      "latitude":39.3732,
      "longitude":17.12601
    },{
      "name":"Cittanova",
      "latitude":38.35517,
      "longitude":16.0798
    },{
      "name":"Corigliano Calabro",
      "latitude":39.595,
      "longitude":16.5177
    },{
      "name":"Cosenza",
      "latitude":39.30999,
      "longitude":16.25019
    },{
      "name":"Cotronei",
      "latitude":39.15819,
      "longitude":16.78091
    },{
      "name":"Crotone",
      "latitude":39.0851,
      "longitude":17.11781
    },{
      "name":"Cutro",
      "latitude":39.03529,
      "longitude":16.98191
    },{
      "name":"Gioia Tauro",
      "latitude":38.42397,
      "longitude":15.899
    },{
      "name":"Gioiosa Ionica",
      "latitude":38.32218,
      "longitude":16.3026
    },{
      "name":"Girifalco",
      "latitude":38.82428,
      "longitude":16.4241
    },{
      "name":"Isola di Capo Rizzuto",
      "latitude":38.95999,
      "longitude":17.09332
    },{
      "name":"Lamezia Terme",
      "latitude":38.96589,
      "longitude":16.3092
    },{
      "name":"Locri",
      "latitude":38.24137,
      "longitude":16.2623
    },{
      "name":"Marina di Gioiosa Ionica",
      "latitude":38.30728,
      "longitude":16.32061
    },{
      "name":"Melito di Porto Salvo",
      "latitude":37.92216,
      "longitude":15.7714
    },{
      "name":"Mesoraca",
      "latitude":39.07679,
      "longitude":16.78891
    },{
      "name":"Mirto",
      "latitude":39.58333,
      "longitude":16.76667
    },{
      "name":"Nicastro",
      "latitude":38.98333,
      "longitude":16.31667
    },{
      "name":"Palmi",
      "latitude":38.35862,
      "longitude":15.84915
    },{
      "name":"Paola",
      "latitude":39.35989,
      "longitude":16.03959
    },{
      "name":"Petilia Policastro",
      "latitude":39.11389,
      "longitude":16.78551
    },{
      "name":"Pizzo",
      "latitude":38.73838,
      "longitude":16.1658
    },{
      "name":"Polistena",
      "latitude":38.40598,
      "longitude":16.08
    },{
      "name":"Praia a Mare",
      "latitude":39.9009,
      "longitude":15.77928
    },{
      "name":"Quattromiglia",
      "latitude":39.34474,
      "longitude":16.23802
    },{
      "name":"Reggio Calabria",
      "latitude":38.11047,
      "longitude":15.66129
    },{
      "name":"Roccella Ionica",
      "latitude":38.32198,
      "longitude":16.40091
    },{
      "name":"Roggiano Gravina",
      "latitude":39.6182,
      "longitude":16.15969
    },{
      "name":"Rosarno",
      "latitude":38.48408,
      "longitude":15.979
    },{
      "name":"Rossano",
      "latitude":39.5751,
      "longitude":16.6349
    },{
      "name":"Rossano Stazione",
      "latitude":39.60196,
      "longitude":16.63475
    },{
      "name":"San Giovanni in Fiore",
      "latitude":39.2633,
      "longitude":16.6996
    },{
      "name":"Scalea",
      "latitude":39.813,
      "longitude":15.79558
    },{
      "name":"Serra San Bruno",
      "latitude":38.57538,
      "longitude":16.3244
    },{
      "name":"Siderno",
      "latitude":38.26993,
      "longitude":16.29607
    },{
      "name":"Siderno Superiore",
      "latitude":38.28994,
      "longitude":16.26792
    },{
      "name":"Soverato Marina",
      "latitude":38.68498,
      "longitude":16.54991
    },{
      "name":"Soverato Superiore",
      "latitude":38.68993,
      "longitude":16.53391
    },{
      "name":"Spezzano Albanese",
      "latitude":39.6688,
      "longitude":16.31049
    },{
      "name":"Taurianova",
      "latitude":38.35627,
      "longitude":16.0109
    },{
      "name":"Trebisacce",
      "latitude":39.87081,
      "longitude":16.53119
    },{
      "name":"Tropea",
      "latitude":38.67538,
      "longitude":15.89479
    },{
      "name":"Vibo Valentia",
      "latitude":38.67428,
      "longitude":16.0951
    },{
      "name":"Villa San Giovanni",
      "latitude":38.22757,
      "longitude":15.63859
    }]
  },{
    "name":"Regione Campania",
    "cities":[{
      "name":"Acerra",
      "latitude":40.947,
      "longitude":14.36571
    },{
      "name":"Afragola",
      "latitude":40.92601,
      "longitude":14.31083
    },{
      "name":"Agerola",
      "latitude":40.63771,
      "longitude":14.53884
    },{
      "name":"Agropoli",
      "latitude":40.3469,
      "longitude":14.99655
    },{
      "name":"Airola",
      "latitude":41.06102,
      "longitude":14.55843
    },{
      "name":"Anacapri",
      "latitude":40.5558,
      "longitude":14.21363
    },{
      "name":"Angri",
      "latitude":40.74271,
      "longitude":14.57144
    },{
      "name":"Apice",
      "latitude":41.12012,
      "longitude":14.93104
    },{
      "name":"Ariano Irpino",
      "latitude":41.14892,
      "longitude":15.08334
    },{
      "name":"Arienzo",
      "latitude":41.02554,
      "longitude":14.4938
    },{
      "name":"Arzano",
      "latitude":40.91136,
      "longitude":14.26756
    },{
      "name":"Atripalda",
      "latitude":40.91582,
      "longitude":14.82464
    },{
      "name":"Avella",
      "latitude":40.95891,
      "longitude":14.60054
    },{
      "name":"Avellino",
      "latitude":40.91442,
      "longitude":14.78874
    },{
      "name":"Aversa",
      "latitude":40.96321,
      "longitude":14.21681
    },{
      "name":"Bacoli",
      "latitude":40.79926,
      "longitude":14.07846
    },{
      "name":"Bagnoli",
      "latitude":40.81322,
      "longitude":14.16807
    },{
      "name":"Barano dIschia",
      "latitude":40.718,
      "longitude":13.93092
    },{
      "name":"Baronissi",
      "latitude":40.74771,
      "longitude":14.77084
    },{
      "name":"Battipaglia",
      "latitude":40.61091,
      "longitude":14.98515
    },{
      "name":"Bellizzi",
      "latitude":40.61981,
      "longitude":14.94685
    },{
      "name":"Bellizzi Irpino",
      "latitude":40.88333,
      "longitude":14.8
    },{
      "name":"Benevento",
      "latitude":41.13204,
      "longitude":14.77328
    },{
      "name":"Boscoreale",
      "latitude":40.78106,
      "longitude":14.47949
    },{
      "name":"Boscotrecase",
      "latitude":40.77431,
      "longitude":14.46204
    },{
      "name":"Bracigliano",
      "latitude":40.82351,
      "longitude":14.70544
    },{
      "name":"Brusciano",
      "latitude":40.92406,
      "longitude":14.42924
    },{
      "name":"Caivano",
      "latitude":40.95711,
      "longitude":14.31023
    },{
      "name":"Calvizzano",
      "latitude":40.90686,
      "longitude":14.19295
    },{
      "name":"Camposano",
      "latitude":40.95221,
      "longitude":14.52864
    },{
      "name":"Capodrise",
      "latitude":41.04431,
      "longitude":14.30353
    },{
      "name":"Capri",
      "latitude":40.55073,
      "longitude":14.24263
    },{
      "name":"Capua",
      "latitude":41.11082,
      "longitude":14.2133
    },{
      "name":"Cardito",
      "latitude":40.94201,
      "longitude":14.29943
    },{
      "name":"Carinaro",
      "latitude":40.98291,
      "longitude":14.21963
    },{
      "name":"Casagiove",
      "latitude":41.07124,
      "longitude":14.31163
    },{
      "name":"Casal di Principe",
      "latitude":41.01141,
      "longitude":14.12482
    },{
      "name":"Casalnuovo di Napoli",
      "latitude":40.90815,
      "longitude":14.35852
    },{
      "name":"Casaluce",
      "latitude":41.00191,
      "longitude":14.19803
    },{
      "name":"Casamicciola Terme",
      "latitude":40.7466,
      "longitude":13.91202
    },{
      "name":"Casandrino",
      "latitude":40.92861,
      "longitude":14.24963
    },{
      "name":"Casapesenna",
      "latitude":40.99151,
      "longitude":14.13613
    },{
      "name":"Casapulla",
      "latitude":41.07684,
      "longitude":14.29002
    },{
      "name":"Casavatore",
      "latitude":40.89921,
      "longitude":14.27663
    },{
      "name":"Caserta",
      "latitude":41.07281,
      "longitude":14.33043
    },{
      "name":"Casoria",
      "latitude":40.90569,
      "longitude":14.2917
    },{
      "name":"Castel San Giorgio",
      "latitude":40.78371,
      "longitude":14.69884
    },{
      "name":"Castel Volturno",
      "latitude":41.03353,
      "longitude":13.94217
    },{
      "name":"Castellammare di Stabia",
      "latitude":40.71551,
      "longitude":14.48914
    },{
      "name":"Castello di Cisterna",
      "latitude":40.91379,
      "longitude":14.40598
    },{
      "name":"Cava deTirreni",
      "latitude":40.70091,
      "longitude":14.70564
    },{
      "name":"Cellole",
      "latitude":41.20481,
      "longitude":13.85432
    },{
      "name":"Cercola",
      "latitude":40.85661,
      "longitude":14.35773
    },{
      "name":"Cervinara",
      "latitude":41.02042,
      "longitude":14.61444
    },{
      "name":"Cesa",
      "latitude":40.9633,
      "longitude":14.2292
    },{
      "name":"Cicciano",
      "latitude":40.96471,
      "longitude":14.53894
    },{
      "name":"Cimitile",
      "latitude":40.94051,
      "longitude":14.52544
    },{
      "name":"Crispano",
      "latitude":40.95251,
      "longitude":14.28993
    },{
      "name":"Curti",
      "latitude":41.07616,
      "longitude":14.28039
    },{
      "name":"Eboli",
      "latitude":40.61421,
      "longitude":15.05785
    },{
      "name":"Ercolano",
      "latitude":40.80631,
      "longitude":14.36093
    },{
      "name":"Forio",
      "latitude":40.7342,
      "longitude":13.86462
    },{
      "name":"Frattamaggiore",
      "latitude":40.93931,
      "longitude":14.27403
    },{
      "name":"Frattaminore",
      "latitude":40.95551,
      "longitude":14.27273
    },{
      "name":"Frignano",
      "latitude":40.99811,
      "longitude":14.17913
    },{
      "name":"Giffoni Valle Piana",
      "latitude":40.71811,
      "longitude":14.94235
    },{
      "name":"Giugliano in Campania",
      "latitude":40.92306,
      "longitude":14.21039
    },{
      "name":"Gragnano",
      "latitude":40.69561,
      "longitude":14.51234
    },{
      "name":"Grazzanise",
      "latitude":41.09201,
      "longitude":14.10446
    },{
      "name":"Gricignano di Aversa",
      "latitude":40.98021,
      "longitude":14.23103
    },{
      "name":"Grottaminarda",
      "latitude":41.06972,
      "longitude":15.05894
    },{
      "name":"Grumo Nevano",
      "latitude":40.93591,
      "longitude":14.25983
    },{
      "name":"Ischia",
      "latitude":40.73793,
      "longitude":13.94862
    },{
      "name":"Ischia Porto",
      "latitude":40.73913,
      "longitude":13.951
    },{
      "name":"Lettere",
      "latitude":40.70491,
      "longitude":14.54494
    },{
      "name":"Lusciano",
      "latitude":40.97001,
      "longitude":14.19043
    },{
      "name":"Macerata Campania",
      "latitude":41.06331,
      "longitude":14.27373
    },{
      "name":"Maddaloni",
      "latitude":41.04001,
      "longitude":14.37683
    },{
      "name":"Maiori",
      "latitude":40.64848,
      "longitude":14.6407
    },{
      "name":"Marano di Napoli",
      "latitude":40.89748,
      "longitude":14.18836
    },{
      "name":"Marcianise",
      "latitude":41.03841,
      "longitude":14.30157
    },{
      "name":"Mariglianella",
      "latitude":40.92861,
      "longitude":14.44104
    },{
      "name":"Marigliano",
      "latitude":40.92449,
      "longitude":14.45714
    },{
      "name":"Massa Lubrense",
      "latitude":40.6053,
      "longitude":14.36674
    },{
      "name":"Massa di Somma",
      "latitude":40.84551,
      "longitude":14.37513
    },{
      "name":"Melito di Napoli",
      "latitude":40.90925,
      "longitude":14.23732
    },{
      "name":"Mercato",
      "latitude":40.71542,
      "longitude":14.9435
    },{
      "name":"Mercato San Severino",
      "latitude":40.78121,
      "longitude":14.75694
    },{
      "name":"Mercogliano",
      "latitude":40.92212,
      "longitude":14.74184
    },{
      "name":"Meta",
      "latitude":40.63921,
      "longitude":14.41824
    },{
      "name":"Mondragone",
      "latitude":41.11411,
      "longitude":13.89352
    },{
      "name":"Monte di Procida",
      "latitude":40.79809,
      "longitude":14.05023
    },{
      "name":"Montecorvino Pugliano",
      "latitude":40.67921,
      "longitude":14.94475
    },{
      "name":"Montecorvino Rovella",
      "latitude":40.69181,
      "longitude":14.97795
    },{
      "name":"Monteforte Irpino",
      "latitude":40.89181,
      "longitude":14.71854
    },{
      "name":"Montella",
      "latitude":40.84372,
      "longitude":15.01785
    },{
      "name":"Montesarchio",
      "latitude":41.05559,
      "longitude":14.62931
    },{
      "name":"Montoro Superiore",
      "latitude":40.81699,
      "longitude":14.79841
    },{
      "name":"Mugnano del Cardinale",
      "latitude":40.94301,
      "longitude":14.63564
    },{
      "name":"Mugnano di Napoli",
      "latitude":40.91463,
      "longitude":14.21056
    },{
      "name":"Napoli",
      "latitude":40.83333,
      "longitude":14.25
    },{
      "name":"Nocera Inferiore",
      "latitude":40.75221,
      "longitude":14.64014
    },{
      "name":"Nocera Superiore",
      "latitude":40.74211,
      "longitude":14.67294
    },{
      "name":"Nola",
      "latitude":40.9238,
      "longitude":14.52686
    },{
      "name":"Olevano sul Tusciano",
      "latitude":40.65721,
      "longitude":15.02305
    },{
      "name":"Orta di Atella",
      "latitude":40.96651,
      "longitude":14.26803
    },{
      "name":"Ottaviano",
      "latitude":40.84979,
      "longitude":14.48011
    },{
      "name":"Pagani",
      "latitude":40.75151,
      "longitude":14.61334
    },{
      "name":"Palma Campania",
      "latitude":40.86954,
      "longitude":14.55501
    },{
      "name":"Parete",
      "latitude":40.95891,
      "longitude":14.16193
    },{
      "name":"Pianillo",
      "latitude":40.64042,
      "longitude":14.54295
    },{
      "name":"Piano di Sorrento",
      "latitude":40.63101,
      "longitude":14.41604
    },{
      "name":"Piedimonte Matese",
      "latitude":41.35082,
      "longitude":14.36803
    },{
      "name":"Pignataro Maggiore",
      "latitude":41.18926,
      "longitude":14.16835
    },{
      "name":"Pimonte",
      "latitude":40.67361,
      "longitude":14.50984
    },{
      "name":"Poggiomarino",
      "latitude":40.80311,
      "longitude":14.53904
    },{
      "name":"Polla",
      "latitude":40.51711,
      "longitude":15.49796
    },{
      "name":"Pollena Trocchia",
      "latitude":40.85134,
      "longitude":14.37911
    },{
      "name":"Pomigliano dArco",
      "latitude":40.90816,
      "longitude":14.40042
    },{
      "name":"Pompei",
      "latitude":40.74611,
      "longitude":14.49734
    },{
      "name":"Pontecagnano",
      "latitude":40.64251,
      "longitude":14.87345
    },{
      "name":"Portici",
      "latitude":40.81563,
      "longitude":14.33716
    },{
      "name":"Portico di Caserta",
      "latitude":41.05651,
      "longitude":14.27943
    },{
      "name":"Pozzuoli",
      "latitude":40.83196,
      "longitude":14.11001
    },{
      "name":"Procida",
      "latitude":40.75691,
      "longitude":14.01443
    },{
      "name":"Qualiano",
      "latitude":40.92684,
      "longitude":14.15771
    },{
      "name":"Quarto",
      "latitude":40.88088,
      "longitude":14.11436
    },{
      "name":"Recale",
      "latitude":41.05511,
      "longitude":14.30403
    },{
      "name":"Roccapiemonte",
      "latitude":40.76071,
      "longitude":14.69264
    },{
      "name":"Roccarainola",
      "latitude":40.96941,
      "longitude":14.55984
    },{
      "name":"Sala Consilina",
      "latitude":40.39121,
      "longitude":15.59887
    },{
      "name":"Salerno",
      "latitude":40.67802,
      "longitude":14.74577
    },{
      "name":"San Cipriano dAversa",
      "latitude":40.99881,
      "longitude":14.13173
    },{
      "name":"San Felice a Cancello",
      "latitude":41.00581,
      "longitude":14.45583
    },{
      "name":"San Gennaro Vesuviano",
      "latitude":40.85891,
      "longitude":14.52504
    },{
      "name":"San Giorgio a Cremano",
      "latitude":40.83071,
      "longitude":14.33763
    },{
      "name":"San Giorgio del Sannio",
      "latitude":41.06962,
      "longitude":14.85224
    },{
      "name":"San Giuseppe Vesuviano",
      "latitude":40.82981,
      "longitude":14.50444
    },{
      "name":"San Marcellino",
      "latitude":40.99001,
      "longitude":14.17583
    },{
      "name":"San Marco Evangelista",
      "latitude":41.03808,
      "longitude":14.33817
    },{
      "name":"San Marzano sul Sarno",
      "latitude":40.77491,
      "longitude":14.58174
    },{
      "name":"San Nicola la Strada",
      "latitude":41.06073,
      "longitude":14.3348
    },{
      "name":"San Prisco",
      "latitude":41.08712,
      "longitude":14.27823
    },{
      "name":"San Sebastiano al Vesuvio",
      "latitude":40.84451,
      "longitude":14.36763
    },{
      "name":"San Valentino Torio",
      "latitude":40.79301,
      "longitude":14.59804
    },{
      "name":"San Vitaliano",
      "latitude":40.92442,
      "longitude":14.47463
    },{
      "name":"SantAgata deGoti",
      "latitude":41.08932,
      "longitude":14.49743
    },{
      "name":"SantAgnello",
      "latitude":40.63001,
      "longitude":14.39714
    },{
      "name":"SantAnastasia",
      "latitude":40.86888,
      "longitude":14.39863
    },{
      "name":"SantAntimo",
      "latitude":40.9471,
      "longitude":14.23474
    },{
      "name":"SantAntonio Abate",
      "latitude":40.72371,
      "longitude":14.54654
    },{
      "name":"SantArpino",
      "latitude":40.95951,
      "longitude":14.24893
    },{
      "name":"SantEgidio del Monte Albino",
      "latitude":40.73871,
      "longitude":14.59454
    },{
      "name":"Santa Maria Capua Vetere",
      "latitude":41.08112,
      "longitude":14.25158
    },{
      "name":"Santa Maria a Vico",
      "latitude":41.02552,
      "longitude":14.46543
    },{
      "name":"Santa Maria la Carita",
      "latitude":40.71611,
      "longitude":14.50984
    },{
      "name":"Sapri",
      "latitude":40.0751,
      "longitude":15.62957
    },{
      "name":"Sarno",
      "latitude":40.81081,
      "longitude":14.61984
    },{
      "name":"Saviano",
      "latitude":40.90463,
      "longitude":14.50988
    },{
      "name":"Scafati",
      "latitude":40.75281,
      "longitude":14.53384
    },{
      "name":"Serino",
      "latitude":40.85481,
      "longitude":14.87224
    },{
      "name":"Sessa Aurunca",
      "latitude":41.24082,
      "longitude":13.93282
    },{
      "name":"Siano",
      "latitude":40.80161,
      "longitude":14.69364
    },{
      "name":"Solofra",
      "latitude":40.82951,
      "longitude":14.84194
    },{
      "name":"Somma Vesuviana",
      "latitude":40.87107,
      "longitude":14.43969
    },{
      "name":"Sorrento",
      "latitude":40.62557,
      "longitude":14.3701
    },{
      "name":"Sparanise",
      "latitude":41.18682,
      "longitude":14.09372
    },{
      "name":"Striano",
      "latitude":40.81591,
      "longitude":14.57654
    },{
      "name":"Succivo",
      "latitude":40.96801,
      "longitude":14.25563
    },{
      "name":"Teano",
      "latitude":41.25132,
      "longitude":14.06652
    },{
      "name":"Teggiano",
      "latitude":40.37921,
      "longitude":15.54046
    },{
      "name":"Telese Terme",
      "latitude":41.21732,
      "longitude":14.52773
    },{
      "name":"Terzigno",
      "latitude":40.81221,
      "longitude":14.49644
    },{
      "name":"Teverola",
      "latitude":40.99561,
      "longitude":14.20763
    },{
      "name":"Torre Annunziata",
      "latitude":40.74971,
      "longitude":14.46464
    },{
      "name":"Torre del Greco",
      "latitude":40.78392,
      "longitude":14.3708
    },{
      "name":"Trecase",
      "latitude":40.76941,
      "longitude":14.43774
    },{
      "name":"Trentola-Ducenta",
      "latitude":40.97541,
      "longitude":14.17623
    },{
      "name":"Trescine",
      "latitude":41.01667,
      "longitude":14.63333
    },{
      "name":"Vairano Patenora",
      "latitude":41.33702,
      "longitude":14.13112
    },{
      "name":"Vallo della Lucania",
      "latitude":40.2297,
      "longitude":15.26576
    },{
      "name":"Vico Equense",
      "latitude":40.65981,
      "longitude":14.43174
    },{
      "name":"Villa Literno",
      "latitude":41.00991,
      "longitude":14.08052
    },{
      "name":"Villa di Briano",
      "latitude":41.00001,
      "longitude":14.16073
    },{
      "name":"Villaricca",
      "latitude":40.92161,
      "longitude":14.18983
    },{
      "name":"Vitulazio",
      "latitude":41.16092,
      "longitude":14.20869
    },{
      "name":"Volla",
      "latitude":40.87363,
      "longitude":14.34085
    },{
      "name":"Zuni",
      "latitude":41.21722,
      "longitude":14.13082
    }]
  },{
    "name":"Regione Emilia-Romagna",
    "cities":[{
      "name":"Alfonsine",
      "latitude":44.50611,
      "longitude":12.05639
    },{
      "name":"Anzola dellEmilia",
      "latitude":44.54637,
      "longitude":11.19461
    },{
      "name":"Argenta",
      "latitude":44.61237,
      "longitude":11.83562
    },{
      "name":"Bagnacavallo",
      "latitude":44.41247,
      "longitude":11.97713
    },{
      "name":"Bagnolo in Piano",
      "latitude":44.76297,
      "longitude":10.67329
    },{
      "name":"Bazzano",
      "latitude":44.50176,
      "longitude":11.08675
    },{
      "name":"Bellaria-Igea Marina",
      "latitude":44.14212,
      "longitude":12.47
    },{
      "name":"Bibbiano",
      "latitude":44.66436,
      "longitude":10.48029
    },{
      "name":"Bologna",
      "latitude":44.49381,
      "longitude":11.33875
    },{
      "name":"Bondeno",
      "latitude":44.88531,
      "longitude":11.41689
    },{
      "name":"Boretto",
      "latitude":44.90187,
      "longitude":10.55429
    },{
      "name":"Borgo Val di Taro",
      "latitude":44.48705,
      "longitude":9.76578
    },{
      "name":"Borgonovo Val Tidone",
      "latitude":45.01436,
      "longitude":9.44346
    },{
      "name":"Budrio",
      "latitude":44.53707,
      "longitude":11.53362
    },{
      "name":"Cadelbosco di Sopra",
      "latitude":44.76217,
      "longitude":10.59589
    },{
      "name":"Calderara di Reno",
      "latitude":44.56307,
      "longitude":11.27111
    },{
      "name":"Campogalliano",
      "latitude":44.69157,
      "longitude":10.842
    },{
      "name":"Carpi",
      "latitude":44.78237,
      "longitude":10.8777
    },{
      "name":"Casalecchio di Reno",
      "latitude":44.47557,
      "longitude":11.27591
    },{
      "name":"Casalgrande",
      "latitude":44.58466,
      "longitude":10.7355
    },{
      "name":"Castel Bolognese",
      "latitude":44.32067,
      "longitude":11.79992
    },{
      "name":"Castel Maggiore",
      "latitude":44.57707,
      "longitude":11.36071
    },{
      "name":"Castel San Giovanni",
      "latitude":45.05826,
      "longitude":9.43346
    },{
      "name":"Castel San Pietro Terme",
      "latitude":44.39857,
      "longitude":11.58482
    },{
      "name":"Castelfranco Emilia",
      "latitude":44.59577,
      "longitude":11.052
    },{
      "name":"Castellarano",
      "latitude":44.51306,
      "longitude":10.7329
    },{
      "name":"Castelnovo di Sotto",
      "latitude":44.80797,
      "longitude":10.56819
    },{
      "name":"Castelnovo neMonti",
      "latitude":44.43556,
      "longitude":10.40329
    },{
      "name":"Castelnuovo Rangone",
      "latitude":44.55126,
      "longitude":10.935
    },{
      "name":"Castenaso",
      "latitude":44.50887,
      "longitude":11.46982
    },{
      "name":"Cattolica",
      "latitude":43.95747,
      "longitude":12.73755
    },{
      "name":"Cavezzo",
      "latitude":44.83637,
      "longitude":11.0286
    },{
      "name":"Cavriago",
      "latitude":44.69366,
      "longitude":10.52749
    },{
      "name":"Cento",
      "latitude":44.72597,
      "longitude":11.28821
    },{
      "name":"Cervia",
      "latitude":44.26204,
      "longitude":12.34812
    },{
      "name":"Cesena",
      "latitude":44.1391,
      "longitude":12.24315
    },{
      "name":"Cesenatico",
      "latitude":44.19987,
      "longitude":12.3991
    },{
      "name":"Codigoro",
      "latitude":44.83111,
      "longitude":12.11417
    },{
      "name":"Collecchio",
      "latitude":44.75396,
      "longitude":10.21838
    },{
      "name":"Colorno",
      "latitude":44.92627,
      "longitude":10.37678
    },{
      "name":"Comacchio",
      "latitude":44.69415,
      "longitude":12.18847
    },{
      "name":"Copparo",
      "latitude":44.89298,
      "longitude":11.82492
    },{
      "name":"Correggio",
      "latitude":44.76977,
      "longitude":10.7823
    },{
      "name":"Crespellano",
      "latitude":44.51046,
      "longitude":11.13051
    },{
      "name":"Crevalcore",
      "latitude":44.72057,
      "longitude":11.1498
    },{
      "name":"Decima",
      "latitude":44.71045,
      "longitude":11.22978
    },{
      "name":"Fabbrico",
      "latitude":44.86947,
      "longitude":10.81159
    },{
      "name":"Faenza",
      "latitude":44.2857,
      "longitude":11.88334
    },{
      "name":"Ferrara",
      "latitude":44.82678,
      "longitude":11.62071
    },{
      "name":"Fidenza",
      "latitude":44.86396,
      "longitude":10.06668
    },{
      "name":"Finale Emilia",
      "latitude":44.83457,
      "longitude":11.2939
    },{
      "name":"Fiorano Modenese",
      "latitude":44.53596,
      "longitude":10.8218
    },{
      "name":"Fiorenzuola dArda",
      "latitude":44.92206,
      "longitude":9.90897
    },{
      "name":"Forli",
      "latitude":44.22361,
      "longitude":12.05278
    },{
      "name":"Forlimpopoli",
      "latitude":44.19107,
      "longitude":12.12873
    },{
      "name":"Formigine",
      "latitude":44.57296,
      "longitude":10.847
    },{
      "name":"Fusignano",
      "latitude":44.46507,
      "longitude":11.95713
    },{
      "name":"Gambettola",
      "latitude":44.11748,
      "longitude":12.33705
    },{
      "name":"Gatteo",
      "latitude":44.11194,
      "longitude":12.39139
    },{
      "name":"Granarolo del lEmilia",
      "latitude":44.55327,
      "longitude":11.44291
    },{
      "name":"Guastalla",
      "latitude":44.91317,
      "longitude":10.66089
    },{
      "name":"Imola",
      "latitude":44.35227,
      "longitude":11.71582
    },{
      "name":"Langhirano",
      "latitude":44.61266,
      "longitude":10.26559
    },{
      "name":"Lugo",
      "latitude":44.42707,
      "longitude":11.90763
    },{
      "name":"Maranello",
      "latitude":44.52476,
      "longitude":10.8655
    },{
      "name":"Massa Lombarda",
      "latitude":44.44687,
      "longitude":11.82602
    },{
      "name":"Medicina",
      "latitude":44.47867,
      "longitude":11.63812
    },{
      "name":"Meldola",
      "latitude":44.12833,
      "longitude":12.0625
    },{
      "name":"Mirandola",
      "latitude":44.88677,
      "longitude":11.0662
    },{
      "name":"Modena",
      "latitude":44.64783,
      "longitude":10.92539
    },{
      "name":"Molinella",
      "latitude":44.62127,
      "longitude":11.66862
    },{
      "name":"Montecchio Emilia",
      "latitude":44.70136,
      "longitude":10.44709
    },{
      "name":"Morciano di Romagna",
      "latitude":43.91406,
      "longitude":12.65055
    },{
      "name":"Noceto",
      "latitude":44.81136,
      "longitude":10.17128
    },{
      "name":"Nonantola",
      "latitude":44.67607,
      "longitude":11.0321
    },{
      "name":"Novellara",
      "latitude":44.84297,
      "longitude":10.72749
    },{
      "name":"Novi di Modena",
      "latitude":44.89047,
      "longitude":10.9014
    },{
      "name":"Ozzano dellEmilia",
      "latitude":44.44427,
      "longitude":11.47552
    },{
      "name":"Parma",
      "latitude":44.80266,
      "longitude":10.32898
    },{
      "name":"Pavullo nel Frignano",
      "latitude":44.33146,
      "longitude":10.835
    },{
      "name":"Piacenza",
      "latitude":45.04676,
      "longitude":9.69937
    },{
      "name":"Pianoro",
      "latitude":44.39296,
      "longitude":11.34231
    },{
      "name":"Pieve di Cento",
      "latitude":44.71227,
      "longitude":11.30761
    },{
      "name":"Podenzano",
      "latitude":44.95636,
      "longitude":9.68497
    },{
      "name":"Poggio Renatico",
      "latitude":44.76597,
      "longitude":11.49011
    },{
      "name":"Pontenure",
      "latitude":44.99916,
      "longitude":9.78857
    },{
      "name":"Portomaggiore",
      "latitude":44.69848,
      "longitude":11.80682
    },{
      "name":"Rastignano-Carteria di Sesto",
      "latitude":44.43623,
      "longitude":11.35695
    },{
      "name":"Ravenna",
      "latitude":44.4175,
      "longitude":12.20111
    },{
      "name":"Reggio nellEmilia",
      "latitude":44.69825,
      "longitude":10.63125
    },{
      "name":"Reggiolo",
      "latitude":44.91847,
      "longitude":10.81079
    },{
      "name":"Riccione",
      "latitude":43.99942,
      "longitude":12.65689
    },{
      "name":"Rimini",
      "latitude":44.06333,
      "longitude":12.58083
    },{
      "name":"Rio Saliceto",
      "latitude":44.81157,
      "longitude":10.8026
    },{
      "name":"Rivazzurra",
      "latitude":44.04186,
      "longitude":12.60894
    },{
      "name":"Rubiera",
      "latitude":44.65407,
      "longitude":10.7787
    },{
      "name":"Russi",
      "latitude":44.3725,
      "longitude":12.03222
    },{
      "name":"Salsomaggiore Terme",
      "latitude":44.81476,
      "longitude":9.97958
    },{
      "name":"San Felice sul Panaro",
      "latitude":44.83317,
      "longitude":11.1426
    },{
      "name":"San Giorgio di Piano",
      "latitude":44.64967,
      "longitude":11.37561
    },{
      "name":"San Giovanni in Marignano",
      "latitude":43.93416,
      "longitude":12.70135
    },{
      "name":"San Giovanni in Persiceto",
      "latitude":44.63997,
      "longitude":11.18411
    },{
      "name":"San Lazzaro di Savena",
      "latitude":44.46777,
      "longitude":11.41401
    },{
      "name":"San Martino in Rio",
      "latitude":44.73197,
      "longitude":10.7821
    },{
      "name":"San Mauro Pascoli",
      "latitude":44.10972,
      "longitude":12.42278
    },{
      "name":"San Pietro in Casale",
      "latitude":44.69957,
      "longitude":11.40221
    },{
      "name":"SantAgata Bolognese",
      "latitude":44.66417,
      "longitude":11.134
    },{
      "name":"SantIlario dEnza",
      "latitude":44.76246,
      "longitude":10.44809
    },{
      "name":"Santarcangelo di Romagna",
      "latitude":44.06326,
      "longitude":12.44657
    },{
      "name":"Sasso Marconi",
      "latitude":44.39946,
      "longitude":11.24951
    },{
      "name":"Sassuolo",
      "latitude":44.55086,
      "longitude":10.7847
    },{
      "name":"Savignano sul Rubicone",
      "latitude":44.09528,
      "longitude":12.40861
    },{
      "name":"Scandiano",
      "latitude":44.59646,
      "longitude":10.6907
    },{
      "name":"Soliera",
      "latitude":44.73797,
      "longitude":10.9263
    },{
      "name":"Sorbolo",
      "latitude":44.84817,
      "longitude":10.44769
    },{
      "name":"Spilamberto",
      "latitude":44.53426,
      "longitude":11.0195
    },{
      "name":"Traversetolo",
      "latitude":44.64216,
      "longitude":10.37719
    },{
      "name":"Vignola",
      "latitude":44.48296,
      "longitude":11.0048
    },{
      "name":"Villa Verucchio",
      "latitude":44.0051,
      "longitude":12.43575
    },{
      "name":"Zola Predosa",
      "latitude":44.48966,
      "longitude":11.21831
    }]
  },{
    "name":"Regione Liguria",
    "cities":[{
      "name":"Alassio",
      "latitude":44.00393,
      "longitude":8.16713
    },{
      "name":"Albenga",
      "latitude":44.04997,
      "longitude":8.21829
    },{
      "name":"Albisola Marina",
      "latitude":44.33079,
      "longitude":8.5096
    },{
      "name":"Albisola Superiore",
      "latitude":44.33889,
      "longitude":8.51046
    },{
      "name":"Andora",
      "latitude":43.95514,
      "longitude":8.14121
    },{
      "name":"Arcola",
      "latitude":44.11854,
      "longitude":9.91269
    },{
      "name":"Arenzano",
      "latitude":44.40521,
      "longitude":8.68315
    },{
      "name":"Bordighera",
      "latitude":43.78064,
      "longitude":7.66451
    },{
      "name":"Busalla",
      "latitude":44.5706,
      "longitude":8.94545
    },{
      "name":"Cairo Montenotte",
      "latitude":44.40314,
      "longitude":8.27455
    },{
      "name":"Carcare",
      "latitude":44.35414,
      "longitude":8.29205
    },{
      "name":"Casarza Ligure",
      "latitude":44.27188,
      "longitude":9.44704
    },{
      "name":"Ceriale",
      "latitude":44.09128,
      "longitude":8.22893
    },{
      "name":"Chiavari",
      "latitude":44.31771,
      "longitude":9.32241
    },{
      "name":"Cogoleto",
      "latitude":44.38934,
      "longitude":8.64286
    },{
      "name":"Diano Marina",
      "latitude":43.91032,
      "longitude":8.07925
    },{
      "name":"Finale Ligure",
      "latitude":44.16952,
      "longitude":8.3436
    },{
      "name":"Follo",
      "latitude":44.16375,
      "longitude":9.86188
    },{
      "name":"Genoa",
      "latitude":44.40632,
      "longitude":8.93386
    },{
      "name":"Imperia",
      "latitude":43.8875,
      "longitude":8.03083
    },{
      "name":"La Spezia",
      "latitude":44.11054,
      "longitude":9.84339
    },{
      "name":"Lavagna",
      "latitude":44.30794,
      "longitude":9.34217
    },{
      "name":"Lerici",
      "latitude":44.07587,
      "longitude":9.91121
    },{
      "name":"Loano",
      "latitude":44.12777,
      "longitude":8.25743
    },{
      "name":"Marina dAndora",
      "latitude":43.95353,
      "longitude":8.1546
    },{
      "name":"Pietra Ligure",
      "latitude":44.1492,
      "longitude":8.28206
    },{
      "name":"Rapallo",
      "latitude":44.3496,
      "longitude":9.22796
    },{
      "name":"Recco",
      "latitude":44.36227,
      "longitude":9.14354
    },{
      "name":"San Remo",
      "latitude":43.81725,
      "longitude":7.7772
    },{
      "name":"SantOlcese",
      "latitude":44.48284,
      "longitude":8.96466
    },{
      "name":"Santa Margherita Ligure",
      "latitude":44.33456,
      "longitude":9.21204
    },{
      "name":"Santo Stefano di Magra",
      "latitude":44.15135,
      "longitude":9.92409
    },{
      "name":"Sarzana",
      "latitude":44.11145,
      "longitude":9.95859
    },{
      "name":"Savona",
      "latitude":44.30905,
      "longitude":8.47715
    },{
      "name":"Serra Ricco",
      "latitude":44.51071,
      "longitude":8.93806
    },{
      "name":"Sestri Levante",
      "latitude":44.27317,
      "longitude":9.39683
    },{
      "name":"Taggia",
      "latitude":43.86216,
      "longitude":7.85049
    },{
      "name":"Vado Ligure",
      "latitude":44.26914,
      "longitude":8.43375
    },{
      "name":"Vallecrosia",
      "latitude":43.78671,
      "longitude":7.63902
    },{
      "name":"Varazze",
      "latitude":44.35954,
      "longitude":8.57405
    },{
      "name":"Ventimiglia",
      "latitude":43.78956,
      "longitude":7.60872
    }]
  },{
    "name":"Regione Lombardia",
    "cities":[{
      "name":"Abbiategrasso",
      "latitude":45.39821,
      "longitude":8.91678
    },{
      "name":"Adro",
      "latitude":45.61788,
      "longitude":9.96266
    },{
      "name":"Agrate Brianza",
      "latitude":45.57778,
      "longitude":9.35145
    },{
      "name":"Albano SantAlessandro",
      "latitude":45.68648,
      "longitude":9.77066
    },{
      "name":"Albavilla",
      "latitude":45.80038,
      "longitude":9.18504
    },{
      "name":"Albiate",
      "latitude":45.65708,
      "longitude":9.25614
    },{
      "name":"Albino",
      "latitude":45.76378,
      "longitude":9.79636
    },{
      "name":"Albizzate",
      "latitude":45.72917,
      "longitude":8.80163
    },{
      "name":"Alme",
      "latitude":45.73598,
      "longitude":9.61415
    },{
      "name":"Almenno San Salvatore",
      "latitude":45.75018,
      "longitude":9.59625
    },{
      "name":"Alzano Lombardo",
      "latitude":45.73338,
      "longitude":9.72865
    },{
      "name":"Appiano Gentile",
      "latitude":45.73758,
      "longitude":8.97874
    },{
      "name":"Arcisate",
      "latitude":45.85578,
      "longitude":8.86823
    },{
      "name":"Arconate",
      "latitude":45.54197,
      "longitude":8.84854
    },{
      "name":"Arcore",
      "latitude":45.62668,
      "longitude":9.32555
    },{
      "name":"Arese",
      "latitude":45.55227,
      "longitude":9.07654
    },{
      "name":"Arluno",
      "latitude":45.50507,
      "longitude":8.94154
    },{
      "name":"Asola",
      "latitude":45.22108,
      "longitude":10.41358
    },{
      "name":"Assago",
      "latitude":45.40887,
      "longitude":9.12565
    },{
      "name":"Azzano San Paolo",
      "latitude":45.65798,
      "longitude":9.67305
    },{
      "name":"Bagnolo Mella",
      "latitude":45.42908,
      "longitude":10.18437
    },{
      "name":"Baranzate",
      "latitude":45.52717,
      "longitude":9.11724
    },{
      "name":"Bareggio",
      "latitude":45.47506,
      "longitude":8.9978
    },{
      "name":"Barlassina",
      "latitude":45.65428,
      "longitude":9.12974
    },{
      "name":"Barzano",
      "latitude":45.73548,
      "longitude":9.31304
    },{
      "name":"Basiglio",
      "latitude":45.35917,
      "longitude":9.15855
    },{
      "name":"Bedizzole",
      "latitude":45.51038,
      "longitude":10.42327
    },{
      "name":"Belgioioso",
      "latitude":45.15856,
      "longitude":9.31376
    },{
      "name":"Bellusco",
      "latitude":45.61958,
      "longitude":9.41905
    },{
      "name":"Bergamo",
      "latitude":45.69798,
      "longitude":9.66895
    },{
      "name":"Bernareggio",
      "latitude":45.64778,
      "longitude":9.40505
    },{
      "name":"Besana in Brianza",
      "latitude":45.70378,
      "longitude":9.28594
    },{
      "name":"Besnate",
      "latitude":45.69767,
      "longitude":8.76773
    },{
      "name":"Besozzo",
      "latitude":45.85198,
      "longitude":8.66923
    },{
      "name":"Bettola-Zeloforamagno",
      "latitude":45.4308,
      "longitude":9.3087
    },{
      "name":"Biassono",
      "latitude":45.62988,
      "longitude":9.27045
    },{
      "name":"Binasco",
      "latitude":45.33187,
      "longitude":9.09905
    },{
      "name":"Bolgare",
      "latitude":45.63242,
      "longitude":9.81412
    },{
      "name":"Bollate",
      "latitude":45.54647,
      "longitude":9.12054
    },{
      "name":"Boltiere",
      "latitude":45.60088,
      "longitude":9.57845
    },{
      "name":"Bonate Sopra",
      "latitude":45.68338,
      "longitude":9.55975
    },{
      "name":"Bonate Sotto",
      "latitude":45.66818,
      "longitude":9.55865
    },{
      "name":"Borgosatollo",
      "latitude":45.48078,
      "longitude":10.24107
    },{
      "name":"Bottanuco",
      "latitude":45.63988,
      "longitude":9.50645
    },{
      "name":"Botticino",
      "latitude":45.53598,
      "longitude":10.30187
    },{
      "name":"Bovezzo",
      "latitude":45.59148,
      "longitude":10.24127
    },{
      "name":"Bovisio-Masciago",
      "latitude":45.60997,
      "longitude":9.15564
    },{
      "name":"Bregnano",
      "latitude":45.69778,
      "longitude":9.05934
    },{
      "name":"Brembate",
      "latitude":45.60478,
      "longitude":9.55655
    },{
      "name":"Brembate di Sopra",
      "latitude":45.71668,
      "longitude":9.57945
    },{
      "name":"Brescia",
      "latitude":45.52478,
      "longitude":10.22727
    },{
      "name":"Bresso",
      "latitude":45.53792,
      "longitude":9.18921
    },{
      "name":"Brignano Gera dAdda",
      "latitude":45.54658,
      "longitude":9.64766
    },{
      "name":"Broni",
      "latitude":45.06546,
      "longitude":9.26226
    },{
      "name":"Brugherio",
      "latitude":45.55301,
      "longitude":9.29907
    },{
      "name":"Brusaporto",
      "latitude":45.6714,
      "longitude":9.76041
    },{
      "name":"Busnago",
      "latitude":45.61648,
      "longitude":9.46375
    },{
      "name":"Bussero",
      "latitude":45.53407,
      "longitude":9.37205
    },{
      "name":"Busto Arsizio",
      "latitude":45.61128,
      "longitude":8.84914
    },{
      "name":"Busto Garolfo",
      "latitude":45.54767,
      "longitude":8.88564
    },{
      "name":"Cabiate",
      "latitude":45.67418,
      "longitude":9.17374
    },{
      "name":"Cadorago",
      "latitude":45.72728,
      "longitude":9.03784
    },{
      "name":"Calcinate",
      "latitude":45.62028,
      "longitude":9.79926
    },{
      "name":"Calcinato",
      "latitude":45.45718,
      "longitude":10.41357
    },{
      "name":"Calepio",
      "latitude":45.64262,
      "longitude":9.90658
    },{
      "name":"Calolziocorte",
      "latitude":45.79538,
      "longitude":9.43765
    },{
      "name":"Calusco dAdda",
      "latitude":45.69138,
      "longitude":9.47265
    },{
      "name":"Cambiago",
      "latitude":45.57208,
      "longitude":9.42425
    },{
      "name":"Canegrate",
      "latitude":45.56927,
      "longitude":8.92844
    },{
      "name":"Cantu",
      "latitude":45.72938,
      "longitude":9.14054
    },{
      "name":"Canzo",
      "latitude":45.84948,
      "longitude":9.27724
    },{
      "name":"Caponago",
      "latitude":45.56648,
      "longitude":9.37585
    },{
      "name":"Capriate San Gervasio",
      "latitude":45.61258,
      "longitude":9.52875
    },{
      "name":"Capriate San Gervasio",
      "latitude":45.61281,
      "longitude":9.52974
    },{
      "name":"Capriolo",
      "latitude":45.63528,
      "longitude":9.93236
    },{
      "name":"Carate Brianza",
      "latitude":45.67368,
      "longitude":9.23594
    },{
      "name":"Caravaggio",
      "latitude":45.49888,
      "longitude":9.64046
    },{
      "name":"Cardano al Campo",
      "latitude":45.64887,
      "longitude":8.76934
    },{
      "name":"Carnago",
      "latitude":45.72207,
      "longitude":8.83424
    },{
      "name":"Carnate",
      "latitude":45.65158,
      "longitude":9.37695
    },{
      "name":"Caronno Pertusella",
      "latitude":45.59777,
      "longitude":9.04634
    },{
      "name":"Carpenedolo",
      "latitude":45.36448,
      "longitude":10.43128
    },{
      "name":"Carugate",
      "latitude":45.54977,
      "longitude":9.34375
    },{
      "name":"Carugo",
      "latitude":45.70848,
      "longitude":9.19684
    },{
      "name":"Casalmaggiore",
      "latitude":44.99387,
      "longitude":10.41888
    },{
      "name":"Casalpusterlengo",
      "latitude":45.17687,
      "longitude":9.64906
    },{
      "name":"Casatenovo",
      "latitude":45.69638,
      "longitude":9.31165
    },{
      "name":"Casorate Primo",
      "latitude":45.31237,
      "longitude":9.01685
    },{
      "name":"Casorate Sempione",
      "latitude":45.67097,
      "longitude":8.74343
    },{
      "name":"Casorezzo",
      "latitude":45.52437,
      "longitude":8.90154
    },{
      "name":"Cassano Magnago",
      "latitude":45.66972,
      "longitude":8.81996
    },{
      "name":"Cassano dAdda",
      "latitude":45.52358,
      "longitude":9.51395
    },{
      "name":"Cassina dePecchi",
      "latitude":45.51637,
      "longitude":9.35975
    },{
      "name":"Cassolnovo",
      "latitude":45.36116,
      "longitude":8.80864
    },{
      "name":"Castano Primo",
      "latitude":45.55357,
      "longitude":8.77544
    },{
      "name":"Casteggio",
      "latitude":45.01006,
      "longitude":9.12235
    },{
      "name":"Castegnato",
      "latitude":45.56018,
      "longitude":10.11397
    },{
      "name":"Castel Goffredo",
      "latitude":45.29858,
      "longitude":10.47538
    },{
      "name":"Castel Mella",
      "latitude":45.49913,
      "longitude":10.14553
    },{
      "name":"Castelcovati",
      "latitude":45.50198,
      "longitude":9.94596
    },{
      "name":"Castellanza",
      "latitude":45.61237,
      "longitude":8.90114
    },{
      "name":"Castelleone",
      "latitude":45.29387,
      "longitude":9.76166
    },{
      "name":"Castenedolo",
      "latitude":45.46948,
      "longitude":10.29567
    },{
      "name":"Castiglione Olona",
      "latitude":45.75318,
      "longitude":8.87454
    },{
      "name":"Castiglione delle Stiviere",
      "latitude":45.39058,
      "longitude":10.48528
    },{
      "name":"Castrezzato",
      "latitude":45.51128,
      "longitude":9.98086
    },{
      "name":"Cavenago di Brianza",
      "latitude":45.58408,
      "longitude":9.41445
    },{
      "name":"Cazzago San Martino",
      "latitude":45.59378,
      "longitude":10.04186
    },{
      "name":"Cerese",
      "latitude":45.11948,
      "longitude":10.79049
    },{
      "name":"Ceriano Laghetto",
      "latitude":45.63037,
      "longitude":9.07834
    },{
      "name":"Cermenate",
      "latitude":45.70288,
      "longitude":9.08584
    },{
      "name":"Cernobbio",
      "latitude":45.84108,
      "longitude":9.06704
    },{
      "name":"Cernusco sul Naviglio",
      "latitude":45.52716,
      "longitude":9.3334
    },{
      "name":"Cerro Maggiore",
      "latitude":45.59527,
      "longitude":8.95024
    },{
      "name":"Cesano Boscone",
      "latitude":45.44207,
      "longitude":9.09445
    },{
      "name":"Cesano Maderno",
      "latitude":45.63038,
      "longitude":9.15224
    },{
      "name":"Cesate",
      "latitude":45.59587,
      "longitude":9.07574
    },{
      "name":"Chiari",
      "latitude":45.53588,
      "longitude":9.93036
    },{
      "name":"Chiavenna",
      "latitude":46.32159,
      "longitude":9.39864
    },{
      "name":"Chiuduno",
      "latitude":45.65068,
      "longitude":9.84946
    },{
      "name":"Cilavegna",
      "latitude":45.31006,
      "longitude":8.74474
    },{
      "name":"Cinisello Balsamo",
      "latitude":45.55707,
      "longitude":9.22185
    },{
      "name":"Ciserano",
      "latitude":45.58938,
      "longitude":9.60255
    },{
      "name":"Cislago",
      "latitude":45.65877,
      "longitude":8.97194
    },{
      "name":"Clusone",
      "latitude":45.88709,
      "longitude":9.94966
    },{
      "name":"Coccaglio",
      "latitude":45.56458,
      "longitude":9.97426
    },{
      "name":"Codogno",
      "latitude":45.16187,
      "longitude":9.70216
    },{
      "name":"Cogliate",
      "latitude":45.64597,
      "longitude":9.07884
    },{
      "name":"Colico Piano",
      "latitude":46.13239,
      "longitude":9.36984
    },{
      "name":"Cologne",
      "latitude":45.58138,
      "longitude":9.94136
    },{
      "name":"Cologno Monzese",
      "latitude":45.53004,
      "longitude":9.27795
    },{
      "name":"Cologno al Serio",
      "latitude":45.58208,
      "longitude":9.70876
    },{
      "name":"Como",
      "latitude":45.80998,
      "longitude":9.08744
    },{
      "name":"Concesio",
      "latitude":45.60518,
      "longitude":10.21697
    },{
      "name":"Concorezzo",
      "latitude":45.58968,
      "longitude":9.33595
    },{
      "name":"Corbetta",
      "latitude":45.46723,
      "longitude":8.91867
    },{
      "name":"Cormano",
      "latitude":45.53957,
      "longitude":9.17094
    },{
      "name":"Cornaredo",
      "latitude":45.49697,
      "longitude":9.02614
    },{
      "name":"Cornate dAdda",
      "latitude":45.64168,
      "longitude":9.46735
    },{
      "name":"Corsico",
      "latitude":45.43099,
      "longitude":9.11093
    },{
      "name":"Corte Franca",
      "latitude":45.62998,
      "longitude":9.98846
    },{
      "name":"Cosio Valtellino",
      "latitude":46.13509,
      "longitude":9.55164
    },{
      "name":"Costa Volpino",
      "latitude":45.82989,
      "longitude":10.09816
    },{
      "name":"Crema",
      "latitude":45.35877,
      "longitude":9.66826
    },{
      "name":"Cremona",
      "latitude":45.13617,
      "longitude":10.02797
    },{
      "name":"Cuggiono",
      "latitude":45.50683,
      "longitude":8.8155
    },{
      "name":"Curno",
      "latitude":45.68898,
      "longitude":9.60705
    },{
      "name":"Cusano Milanino",
      "latitude":45.55307,
      "longitude":9.18344
    },{
      "name":"Dairago",
      "latitude":45.56717,
      "longitude":8.86324
    },{
      "name":"Dalmine",
      "latitude":45.64928,
      "longitude":9.60395
    },{
      "name":"Desenzano del Garda",
      "latitude":45.46798,
      "longitude":10.53398
    },{
      "name":"Desio",
      "latitude":45.62018,
      "longitude":9.20424
    },{
      "name":"Erba",
      "latitude":45.80958,
      "longitude":9.23124
    },{
      "name":"Fagnano Olona",
      "latitude":45.66977,
      "longitude":8.85994
    },{
      "name":"Fara Gera dAdda",
      "latitude":45.55568,
      "longitude":9.53785
    },{
      "name":"Ferno",
      "latitude":45.61617,
      "longitude":8.75454
    },{
      "name":"Fino Mornasco",
      "latitude":45.74288,
      "longitude":9.04764
    },{
      "name":"Flero",
      "latitude":45.48258,
      "longitude":10.17347
    },{
      "name":"Gaggiano",
      "latitude":45.40484,
      "longitude":9.03488
    },{
      "name":"Gallarate",
      "latitude":45.66019,
      "longitude":8.79164
    },{
      "name":"Gambolo",
      "latitude":45.26416,
      "longitude":8.85724
    },{
      "name":"Gandino",
      "latitude":45.80789,
      "longitude":9.89646
    },{
      "name":"Garbagnate Milanese",
      "latitude":45.57647,
      "longitude":9.07174
    },{
      "name":"Gardone Val Trompia",
      "latitude":45.69419,
      "longitude":10.18696
    },{
      "name":"Garlasco",
      "latitude":45.19736,
      "longitude":8.92375
    },{
      "name":"Gavardo",
      "latitude":45.58938,
      "longitude":10.44257
    },{
      "name":"Gavirate",
      "latitude":45.84008,
      "longitude":8.71983
    },{
      "name":"Gerenzano",
      "latitude":45.63967,
      "longitude":9.00104
    },{
      "name":"Gessate",
      "latitude":45.54838,
      "longitude":9.43775
    },{
      "name":"Ghedi",
      "latitude":45.40108,
      "longitude":10.27927
    },{
      "name":"Ghisalba",
      "latitude":45.59478,
      "longitude":9.75926
    },{
      "name":"Giussano",
      "latitude":45.69408,
      "longitude":9.21124
    },{
      "name":"Goito",
      "latitude":45.25488,
      "longitude":10.67208
    },{
      "name":"Gonzaga",
      "latitude":44.94977,
      "longitude":10.82089
    },{
      "name":"Gorgonzola",
      "latitude":45.53157,
      "longitude":9.40465
    },{
      "name":"Gorla Maggiore",
      "latitude":45.66587,
      "longitude":8.89204
    },{
      "name":"Gorla Minore",
      "latitude":45.64117,
      "longitude":8.90264
    },{
      "name":"Gorle",
      "latitude":45.70018,
      "longitude":9.71275
    },{
      "name":"Grassobbio",
      "latitude":45.65688,
      "longitude":9.72566
    },{
      "name":"Grumello del Monte",
      "latitude":45.63718,
      "longitude":9.87676
    },{
      "name":"Guanzate",
      "latitude":45.72758,
      "longitude":9.01984
    },{
      "name":"Gussago",
      "latitude":45.58358,
      "longitude":10.15717
    },{
      "name":"Induno Olona",
      "latitude":45.84798,
      "longitude":8.83663
    },{
      "name":"Inverigo",
      "latitude":45.73718,
      "longitude":9.21774
    },{
      "name":"Inveruno",
      "latitude":45.51077,
      "longitude":8.85074
    },{
      "name":"Inzago",
      "latitude":45.54048,
      "longitude":9.48205
    },{
      "name":"Iseo",
      "latitude":45.65678,
      "longitude":10.05276
    },{
      "name":"Lacchiarella",
      "latitude":45.32427,
      "longitude":9.13905
    },{
      "name":"Lainate",
      "latitude":45.57176,
      "longitude":9.02681
    },{
      "name":"Laveno-Mombello",
      "latitude":45.90888,
      "longitude":8.62036
    },{
      "name":"Lazzate",
      "latitude":45.67208,
      "longitude":9.08424
    },{
      "name":"Lecco",
      "latitude":45.85317,
      "longitude":9.39005
    },{
      "name":"Legnano",
      "latitude":45.59597,
      "longitude":8.90784
    },{
      "name":"Leno",
      "latitude":45.37248,
      "longitude":10.21657
    },{
      "name":"Lentate sul Seveso",
      "latitude":45.68068,
      "longitude":9.11734
    },{
      "name":"Lesmo",
      "latitude":45.64858,
      "longitude":9.30735
    },{
      "name":"Limbiate",
      "latitude":45.59677,
      "longitude":9.12904
    },{
      "name":"Lipomo",
      "latitude":45.79288,
      "longitude":9.12024
    },{
      "name":"Lissone",
      "latitude":45.61236,
      "longitude":9.23985
    },{
      "name":"Locate di Triulzi",
      "latitude":45.35817,
      "longitude":9.22655
    },{
      "name":"Lodi",
      "latitude":45.31357,
      "longitude":9.50286
    },{
      "name":"Lodi Vecchio",
      "latitude":45.30237,
      "longitude":9.41756
    },{
      "name":"Lomazzo",
      "latitude":45.69918,
      "longitude":9.03434
    },{
      "name":"Lonate Pozzolo",
      "latitude":45.59677,
      "longitude":8.75474
    },{
      "name":"Lonato",
      "latitude":45.46478,
      "longitude":10.47388
    },{
      "name":"Lovere",
      "latitude":45.81169,
      "longitude":10.06896
    },{
      "name":"Luino",
      "latitude":46.00185,
      "longitude":8.74512
    },{
      "name":"Lumezzane",
      "latitude":45.64788,
      "longitude":10.26487
    },{
      "name":"Lurate Caccivio",
      "latitude":45.77068,
      "longitude":8.99784
    },{
      "name":"Macherio",
      "latitude":45.63974,
      "longitude":9.27394
    },{
      "name":"Magenta",
      "latitude":45.46457,
      "longitude":8.88264
    },{
      "name":"Magnago",
      "latitude":45.5792,
      "longitude":8.80245
    },{
      "name":"Malnate",
      "latitude":45.79078,
      "longitude":8.88193
    },{
      "name":"Mandello del Lario",
      "latitude":45.91918,
      "longitude":9.31934
    },{
      "name":"Manerbio",
      "latitude":45.35578,
      "longitude":10.13517
    },{
      "name":"Mantova",
      "latitude":45.16031,
      "longitude":10.79784
    },{
      "name":"Marcallo con Casone",
      "latitude":45.48327,
      "longitude":8.87194
    },{
      "name":"Mariano Comense",
      "latitude":45.69208,
      "longitude":9.17974
    },{
      "name":"Marmirolo",
      "latitude":45.21928,
      "longitude":10.75609
    },{
      "name":"Marnate",
      "latitude":45.62577,
      "longitude":8.91014
    },{
      "name":"Martinengo",
      "latitude":45.57308,
      "longitude":9.76706
    },{
      "name":"Meda",
      "latitude":45.65818,
      "longitude":9.15974
    },{
      "name":"Mede",
      "latitude":45.09786,
      "longitude":8.73594
    },{
      "name":"Melegnano",
      "latitude":45.35877,
      "longitude":9.32395
    },{
      "name":"Melzo",
      "latitude":45.50127,
      "longitude":9.42525
    },{
      "name":"Merate",
      "latitude":45.69868,
      "longitude":9.41165
    },{
      "name":"Milano",
      "latitude":45.46427,
      "longitude":9.18951
    },{
      "name":"Missaglia",
      "latitude":45.70888,
      "longitude":9.33705
    },{
      "name":"Montichiari",
      "latitude":45.41518,
      "longitude":10.39068
    },{
      "name":"Monza",
      "latitude":45.58248,
      "longitude":9.27485
    },{
      "name":"Morbegno",
      "latitude":46.13829,
      "longitude":9.57004
    },{
      "name":"Mortara",
      "latitude":45.24726,
      "longitude":8.73554
    },{
      "name":"Motta Visconti",
      "latitude":45.28906,
      "longitude":8.99445
    },{
      "name":"Mottella",
      "latitude":45.16382,
      "longitude":10.84436
    },{
      "name":"Mozzate",
      "latitude":45.67217,
      "longitude":8.95524
    },{
      "name":"Mozzo",
      "latitude":45.69868,
      "longitude":9.60865
    },{
      "name":"Muggio",
      "latitude":45.58837,
      "longitude":9.22625
    },{
      "name":"Nave",
      "latitude":45.58748,
      "longitude":10.28997
    },{
      "name":"Nembro",
      "latitude":45.74628,
      "longitude":9.76286
    },{
      "name":"Nerviano",
      "latitude":45.55667,
      "longitude":8.97774
    },{
      "name":"Nova Milanese",
      "latitude":45.59037,
      "longitude":9.19954
    },{
      "name":"Novate Milanese",
      "latitude":45.53097,
      "longitude":9.13474
    },{
      "name":"Offanengo",
      "latitude":45.37887,
      "longitude":9.74236
    },{
      "name":"Oggiono",
      "latitude":45.79188,
      "longitude":9.34674
    },{
      "name":"Olgiate Comasco",
      "latitude":45.78538,
      "longitude":8.96764
    },{
      "name":"Olgiate Molgora",
      "latitude":45.73028,
      "longitude":9.40335
    },{
      "name":"Olgiate Olona",
      "latitude":45.63706,
      "longitude":8.88147
    },{
      "name":"Olginate",
      "latitude":45.79268,
      "longitude":9.41555
    },{
      "name":"Opera",
      "latitude":45.37307,
      "longitude":9.21115
    },{
      "name":"Origgio",
      "latitude":45.59617,
      "longitude":9.01754
    },{
      "name":"Orzinuovi",
      "latitude":45.40398,
      "longitude":9.92156
    },{
      "name":"Osio Sotto",
      "latitude":45.61608,
      "longitude":9.58905
    },{
      "name":"Ospitaletto",
      "latitude":45.55398,
      "longitude":10.07966
    },{
      "name":"Ostiglia",
      "latitude":45.07118,
      "longitude":11.1374
    },{
      "name":"Paderno Dugnano",
      "latitude":45.56899,
      "longitude":9.16483
    },{
      "name":"Palazzolo sullOglio",
      "latitude":45.60368,
      "longitude":9.89716
    },{
      "name":"Palosco",
      "latitude":45.58928,
      "longitude":9.83646
    },{
      "name":"Pandino",
      "latitude":45.40707,
      "longitude":9.55346
    },{
      "name":"Pantigliate",
      "latitude":45.43526,
      "longitude":9.3522
    },{
      "name":"Parabiago",
      "latitude":45.55497,
      "longitude":8.94564
    },{
      "name":"Passirano",
      "latitude":45.59868,
      "longitude":10.06666
    },{
      "name":"Paullo",
      "latitude":45.41867,
      "longitude":9.39765
    },{
      "name":"Pavia",
      "latitude":45.18446,
      "longitude":9.16145
    },{
      "name":"Pedrengo",
      "latitude":45.69598,
      "longitude":9.73496
    },{
      "name":"Pero",
      "latitude":45.51017,
      "longitude":9.08704
    },{
      "name":"Pessano con Bornago",
      "latitude":45.54938,
      "longitude":9.38145
    },{
      "name":"Piazza",
      "latitude":45.59325,
      "longitude":10.1529
    },{
      "name":"Pieve Emanuele",
      "latitude":45.35052,
      "longitude":9.20268
    },{
      "name":"Pioltello",
      "latitude":45.50502,
      "longitude":9.33151
    },{
      "name":"Pisogne",
      "latitude":45.81009,
      "longitude":10.10726
    },{
      "name":"Poggio Rusco",
      "latitude":44.97488,
      "longitude":11.1187
    },{
      "name":"Pogliano Milanese",
      "latitude":45.53786,
      "longitude":8.99403
    },{
      "name":"Ponte San Pietro",
      "latitude":45.69628,
      "longitude":9.58485
    },{
      "name":"Ponte Tresa",
      "latitude":45.9671,
      "longitude":8.85725
    },{
      "name":"Ponteranica",
      "latitude":45.73248,
      "longitude":9.65175
    },{
      "name":"Pontevico",
      "latitude":45.27437,
      "longitude":10.09247
    },{
      "name":"Pontoglio",
      "latitude":45.56938,
      "longitude":9.85346
    },{
      "name":"Pozzuolo Martesana",
      "latitude":45.51398,
      "longitude":9.45625
    },{
      "name":"Pregnana Milanese",
      "latitude":45.51597,
      "longitude":9.00704
    },{
      "name":"Prevalle",
      "latitude":45.55138,
      "longitude":10.42207
    },{
      "name":"Provaglio dIseo",
      "latitude":45.63538,
      "longitude":10.04466
    },{
      "name":"Quinzano dOglio",
      "latitude":45.31088,
      "longitude":10.00857
    },{
      "name":"Ranica",
      "latitude":45.72328,
      "longitude":9.71335
    },{
      "name":"Rescaldina",
      "latitude":45.61647,
      "longitude":8.95384
    },{
      "name":"Rezzato",
      "latitude":45.51418,
      "longitude":10.31667
    },{
      "name":"Rho",
      "latitude":45.53087,
      "longitude":9.04014
    },{
      "name":"Rivolta dAdda",
      "latitude":45.47017,
      "longitude":9.51145
    },{
      "name":"Robbiate",
      "latitude":45.69148,
      "longitude":9.43685
    },{
      "name":"Robbio",
      "latitude":45.29056,
      "longitude":8.59114
    },{
      "name":"Rodengo-Saiano",
      "latitude":45.59958,
      "longitude":10.10716
    },{
      "name":"Romano di Lombardia",
      "latitude":45.52458,
      "longitude":9.74836
    },{
      "name":"Roncadelle",
      "latitude":45.52718,
      "longitude":10.15407
    },{
      "name":"Rosate",
      "latitude":45.35287,
      "longitude":9.01724
    },{
      "name":"Rovato",
      "latitude":45.56578,
      "longitude":10.00006
    },