{
  "name":"Mali",
  "regions":[{
    "name":"Bamako Region",
    "cities":[{
      "name":"Bamako",
      "latitude":12.65,
      "longitude":-8.0
    }]
  },{
    "name":"Gao Region",
    "cities":[{
      "name":"Gao",
      "latitude":16.27167,
      "longitude":-0.04472
    },{
      "name":"Inekar",
      "latitude":15.95944,
      "longitude":3.14111
    },{
      "name":"Menaka",
      "latitude":15.9182,
      "longitude":2.4022
    }]
  },{
    "name":"Kayes Region",
    "cities":[{
      "name":"Bafoulabe",
      "latitude":13.8065,
      "longitude":-10.8321
    },{
      "name":"Kayes",
      "latitude":14.44693,
      "longitude":-11.44448
    },{
      "name":"Kita",
      "latitude":13.0349,
      "longitude":-9.4895
    },{
      "name":"Sagalo",
      "latitude":12.2,
      "longitude":-10.7
    }]
  },{
    "name":"Kidal Region",
    "cities":[{
      "name":"Kidal",
      "latitude":18.44111,
      "longitude":1.40778
    }]
  },{
    "name":"Koulikoro Region",
    "cities":[{
      "name":"Banamba",
      "latitude":13.54773,
      "longitude":-7.44808
    },{
      "name":"Kangaba",
      "latitude":11.93333,
      "longitude":-8.41667
    },{
      "name":"Kati",
      "latitude":12.74409,
      "longitude":-8.07257
    },{
      "name":"Kolokani",
      "latitude":13.5728,
      "longitude":-8.0339
    },{
      "name":"Koulikoro",
      "latitude":12.86273,
      "longitude":-7.55985
    }]
  },{
    "name":"Mali",
    "cities":[{
      "name":"Dire",
      "latitude":12.28333,
      "longitude":-10.96667
    },{
      "name":"Kokofata",
      "latitude":12.88333,
      "longitude":-9.95
    }]
  },{
    "name":"Mopti Region",
    "cities":[{
      "name":"Bandiagara",
      "latitude":14.35005,
      "longitude":-3.61038
    },{
      "name":"Djenne",
      "latitude":13.90608,
      "longitude":-4.55332
    },{
      "name":"Douentza",
      "latitude":15.00155,
      "longitude":-2.94978
    },{
      "name":"Mopti",
      "latitude":14.4843,
      "longitude":-4.18296
    },{
      "name":"Tenenkou",
      "latitude":14.45722,
      "longitude":-4.9169
    }]
  },{
    "name":"Segou Region",
    "cities":[{
      "name":"Ke-Macina",
      "latitude":13.9641,
      "longitude":-5.35791
    },{
      "name":"Kinmparana",
      "latitude":12.84217,
      "longitude":-4.9245
    },{
      "name":"Markala",
      "latitude":13.7021,
      "longitude":-6.0659
    },{
      "name":"San",
      "latitude":13.30335,
      "longitude":-4.89562
    },{
      "name":"Segou",
      "latitude":13.4317,
      "longitude":-6.2157
    }]
  },{
    "name":"Sikasso Region",
    "cities":[{
      "name":"Bougouni",
      "latitude":11.41769,
      "longitude":-7.48323
    },{
      "name":"Kolondieba",
      "latitude":11.08943,
      "longitude":-6.8929
    },{
      "name":"Koutiala",
      "latitude":12.39173,
      "longitude":-5.46421
    },{
      "name":"Sikasso",
      "latitude":11.31755,
      "longitude":-5.66654
    },{
      "name":"Yorosso",
      "latitude":12.35812,
      "longitude":-4.77688
    }]
  },{
    "name":"Tombouctou Region",
    "cities":[{
      "name":"Goundam",
      "latitude":16.41453,
      "longitude":-3.67075
    },{
      "name":"Niafunke",
      "latitude":15.9322,
      "longitude":-3.9906
    },{
      "name":"Timbuktu",
      "latitude":16.77348,
      "longitude":-3.00742
    }]
  }]
}
