{
  "name":"Malawi",
  "regions":[{
    "name":"Central Region",
    "cities":[{
      "name":"Dedza",
      "latitude":-14.3779,
      "longitude":34.33322
    },{
      "name":"Dowa",
      "latitude":-13.65399,
      "longitude":33.93754
    },{
      "name":"Kasungu",
      "latitude":-13.03333,
      "longitude":33.48333
    },{
      "name":"Lilongwe",
      "latitude":-13.96692,
      "longitude":33.78725
    },{
      "name":"Mchinji",
      "latitude":-13.79841,
      "longitude":32.88019
    },{
      "name":"Mponela",
      "latitude":-13.53194,
      "longitude":33.74008
    },{
      "name":"Nkhotakota",
      "latitude":-12.92744,
      "longitude":34.29614
    },{
      "name":"Ntcheu",
      "latitude":-14.82027,
      "longitude":34.63586
    },{
      "name":"Ntchisi",
      "latitude":-13.52775,
      "longitude":33.9149
    },{
      "name":"Salima",
      "latitude":-13.7804,
      "longitude":34.4587
    }]
  },{
    "name":"Northern Region",
    "cities":[{
      "name":"Chitipa",
      "latitude":-9.70237,
      "longitude":33.26969
    },{
      "name":"Karonga",
      "latitude":-9.93333,
      "longitude":33.93333
    },{
      "name":"Livingstonia",
      "latitude":-10.60602,
      "longitude":34.10628
    },{
      "name":"Mzimba",
      "latitude":-11.9,
      "longitude":33.6
    },{
      "name":"Mzuzu",
      "latitude":-11.46556,
      "longitude":34.02071
    },{
      "name":"Nkhata Bay",
      "latitude":-11.60659,
      "longitude":34.29073
    },{
      "name":"Rumphi",
      "latitude":-11.01863,
      "longitude":33.85746
    }]
  },{
    "name":"Southern Region",
    "cities":[{
      "name":"Balaka",
      "latitude":-14.97928,
      "longitude":34.95575
    },{
      "name":"Blantyre",
      "latitude":-15.78499,
      "longitude":35.00854
    },{
      "name":"Chikwawa",
      "latitude":-16.03352,
      "longitude":34.80091
    },{
      "name":"Liwonde",
      "latitude":-15.06665,
      "longitude":35.22543
    },{
      "name":"Luchenza",
      "latitude":-16.00693,
      "longitude":35.30948
    },{
      "name":"Mangochi",
      "latitude":-14.47815,
      "longitude":35.26448
    },{
      "name":"Monkey Bay",
      "latitude":-14.08239,
      "longitude":34.91652
    },{
      "name":"Mulanje",
      "latitude":-16.03163,
      "longitude":35.5
    },{
      "name":"Mwanza",
      "latitude":-15.60262,
      "longitude":34.52479
    },{
      "name":"Nsanje",
      "latitude":-16.91995,
      "longitude":35.26199
    },{
      "name":"Thyolo",
      "latitude":-16.06775,
      "longitude":35.14046
    },{
      "name":"Zomba",
      "latitude":-15.38596,
      "longitude":35.3188
    }]
  }]
}
