{
  "name":"Namibia",
  "regions":[{
    "name":"Erongo",
    "cities":[{
      "name":"Karibib",
      "latitude":-21.93333,
      "longitude":15.83333
    },{
      "name":"Omaruru",
      "latitude":-21.43333,
      "longitude":15.93333
    },{
      "name":"Otjimbingwe",
      "latitude":-22.35,
      "longitude":16.13333
    },{
      "name":"Swakopmund",
      "latitude":-22.68333,
      "longitude":14.53333
    },{
      "name":"Usakos",
      "latitude":-22.0,
      "longitude":15.6
    },{
      "name":"Walvis Bay",
      "latitude":-22.9575,
      "longitude":14.50528
    }]
  },{
    "name":"Hardap",
    "cities":[{
      "name":"Mariental",
      "latitude":-24.63333,
      "longitude":17.96667
    },{
      "name":"Rehoboth",
      "latitude":-23.31667,
      "longitude":17.08333
    }]
  },{
    "name":"Karas",
    "cities":[{
      "name":"Bethanie",
      "latitude":-26.48333,
      "longitude":17.15
    },{
      "name":"Karasburg",
      "latitude":-28.01667,
      "longitude":18.75
    },{
      "name":"Keetmanshoop",
      "latitude":-26.58333,
      "longitude":18.13333
    },{
      "name":"Luderitz",
      "latitude":-26.64806,
      "longitude":15.15944
    },{
      "name":"Oranjemund",
      "latitude":-28.55,
      "longitude":16.43333
    },{
      "name":"Warmbad",
      "latitude":-28.45,
      "longitude":18.73333
    }]
  },{
    "name":"Kavango East Region",
    "cities":[]
  },{
    "name":"Kavango West Region",
    "cities":[]
  },{
    "name":"Khomas",
    "cities":[{
      "name":"Windhoek",
      "latitude":-22.55941,
      "longitude":17.08323
    }]
  },{
    "name":"Kunene",
    "cities":[{
      "name":"Khorixas",
      "latitude":-20.36667,
      "longitude":14.96667
    },{
      "name":"Opuwo",
      "latitude":-18.06068,
      "longitude":13.83998
    },{
      "name":"Outjo",
      "latitude":-20.11667,
      "longitude":16.15
    }]
  },{
    "name":"Ohangwena",
    "cities":[{
      "name":"Eenhana",
      "latitude":-17.46667,
      "longitude":16.33333
    }]
  },{
    "name":"Okavango",
    "cities":[{
      "name":"Rundu",
      "latitude":-17.93333,
      "longitude":19.76667
    }]
  },{
    "name":"Omaheke",
    "cities":[{
      "name":"Gobabis",
      "latitude":-22.45,
      "longitude":18.96667
    }]
  },{
    "name":"Omusati",
    "cities":[{
      "name":"Outapi",
      "latitude":-17.5,
      "longitude":14.98333
    }]
  },{
    "name":"Oshana",
    "cities":[{
      "name":"Ondangwa",
      "latitude":-17.91667,
      "longitude":15.95
    },{
      "name":"Ongwediva",
      "latitude":-17.78333,
      "longitude":15.76667
    },{
      "name":"Oshakati",
      "latitude":-17.78333,
      "longitude":15.68333
    }]
  },{
    "name":"Oshikoto",
    "cities":[{
      "name":"Omuthiya",
      "latitude":-17.71667,
      "longitude":16.21667
    },{
      "name":"Tsumeb",
      "latitude":-19.23333,
      "longitude":17.71667
    }]
  },{
    "name":"Otjozondjupa",
    "cities":[{
      "name":"Grootfontein",
      "latitude":-19.56667,
      "longitude":18.11667
    },{
      "name":"Okahandja",
      "latitude":-21.98333,
      "longitude":16.91667
    },{
      "name":"Okakarara",
      "latitude":-20.58333,
      "longitude":17.43333
    },{
      "name":"Otjiwarongo",
      "latitude":-20.46369,
      "longitude":16.64772
    }]
  },{
    "name":"Zambezi Region",
    "cities":[{
      "name":"Katima Mulilo",
      "latitude":-17.5,
      "longitude":24.26667
    }]
  }]
}
