{
  "name":"Sweden",
  "regions":[{
    "name":"Blekinge",
    "cities":[{
      "name":"Karlshamn",
      "latitude":56.1706,
      "longitude":14.86188
    },{
      "name":"Karlskrona",
      "latitude":56.16156,
      "longitude":15.58661
    },{
      "name":"Olofstroem",
      "latitude":56.2773,
      "longitude":14.53402
    },{
      "name":"Ronneby",
      "latitude":56.20999,
      "longitude":15.27602
    },{
      "name":"Soelvesborg",
      "latitude":56.05205,
      "longitude":14.57525
    }]
  },{
    "name":"Dalarna",
    "cities":[{
      "name":"Avesta",
      "latitude":60.14274,
      "longitude":16.16295
    },{
      "name":"Borlaenge",
      "latitude":60.4858,
      "longitude":15.43714
    },{
      "name":"Falun",
      "latitude":60.60357,
      "longitude":15.62597
    },{
      "name":"Hedemora",
      "latitude":60.27973,
      "longitude":15.98855
    },{
      "name":"Leksand",
      "latitude":60.73387,
      "longitude":15.00316
    },{
      "name":"Ludvika",
      "latitude":60.14959,
      "longitude":15.18776
    },{
      "name":"Malung",
      "latitude":60.68329,
      "longitude":13.71542
    },{
      "name":"Mora",
      "latitude":61.00704,
      "longitude":14.54316
    },{
      "name":"Orsa",
      "latitude":61.12034,
      "longitude":14.6155
    },{
      "name":"Smedjebacken",
      "latitude":60.14181,
      "longitude":15.41416
    }]
  },{
    "name":"Gaevleborgs Laen",
    "cities":[{
      "name":"Bollnas",
      "latitude":61.34817,
      "longitude":16.39464
    },{
      "name":"Gavle",
      "latitude":60.67452,
      "longitude":17.14174
    },{
      "name":"Hofors",
      "latitude":60.54573,
      "longitude":16.28668
    },{
      "name":"Hudiksvall",
      "latitude":61.72897,
      "longitude":17.10358
    },{
      "name":"Ljusdal",
      "latitude":61.82883,
      "longitude":16.09126
    },{
      "name":"Sandviken",
      "latitude":60.61667,
      "longitude":16.76667
    },{
      "name":"Soderhamn",
      "latitude":61.30373,
      "longitude":17.05921
    },{
      "name":"Valbo",
      "latitude":60.65,
      "longitude":17.03333
    }]
  },{
    "name":"Gotland",
    "cities":[{
      "name":"Visby",
      "latitude":57.64089,
      "longitude":18.29602
    }]
  },{
    "name":"Halland",
    "cities":[{
      "name":"Falkenberg",
      "latitude":56.90552,
      "longitude":12.49118
    },{
      "name":"Halmstad",
      "latitude":56.67446,
      "longitude":12.85676
    },{
      "name":"Kungsbacka",
      "latitude":57.48719,
      "longitude":12.07612
    },{
      "name":"Laholm",
      "latitude":56.51207,
      "longitude":13.04371
    },{
      "name":"Onsala",
      "latitude":57.42531,
      "longitude":12.02903
    },{
      "name":"Varberg",
      "latitude":57.10557,
      "longitude":12.25078
    }]
  },{
    "name":"Jaemtlands Laen",
    "cities":[{
      "name":"Ostersund",
      "latitude":63.1792,
      "longitude":14.63566
    }]
  },{
    "name":"Joenkoepings Laen",
    "cities":[{
      "name":"Bankeryd",
      "latitude":57.85,
      "longitude":14.11667
    },{
      "name":"Eksjoe",
      "latitude":57.66643,
      "longitude":14.97205
    },{
      "name":"Gislaved",
      "latitude":57.3044,
      "longitude":13.54078
    },{
      "name":"Habo",
      "latitude":57.91185,
      "longitude":14.07444
    },{
      "name":"Huskvarna",
      "latitude":57.78596,
      "longitude":14.30214
    },{
      "name":"Jonkoping",
      "latitude":57.78145,
      "longitude":14.15618
    },{
      "name":"Mullsjoe",
      "latitude":57.9171,
      "longitude":13.87831
    },{
      "name":"Nassjo",
      "latitude":57.65307,
      "longitude":14.69676
    },{
      "name":"Saevsjoe",
      "latitude":57.40327,
      "longitude":14.66244
    },{
      "name":"Tranas",
      "latitude":58.03717,
      "longitude":14.9782
    },{
      "name":"Varnamo",
      "latitude":57.18604,
      "longitude":14.04001
    },{
      "name":"Vetlanda",
      "latitude":57.42887,
      "longitude":15.07762
    }]
  },{
    "name":"Kalmar",
    "cities":[{
      "name":"Hultsfred",
      "latitude":57.48815,
      "longitude":15.84357
    },{
      "name":"Kalmar",
      "latitude":56.66157,
      "longitude":16.36163
    },{
      "name":"Lindsdal",
      "latitude":56.73333,
      "longitude":16.3
    },{
      "name":"Nybro",
      "latitude":56.74461,
      "longitude":15.90714
    },{
      "name":"Oskarshamn",
      "latitude":57.26455,
      "longitude":16.44837
    },{
      "name":"Sodra Sandby",
      "latitude":56.56667,
      "longitude":16.61667
    },{
      "name":"Vaestervik",
      "latitude":57.7584,
      "longitude":16.63733
    },{
      "name":"Vimmerby",
      "latitude":57.66588,
      "longitude":15.85515
    }]
  },{
    "name":"Kronoberg",
    "cities":[{
      "name":"AElmhult",
      "latitude":56.55146,
      "longitude":14.13827
    },{
      "name":"Alvesta",
      "latitude":56.89935,
      "longitude":14.55559
    },{
      "name":"Ljungby",
      "latitude":56.83324,
      "longitude":13.94082
    },{
      "name":"Vaexjoe",
      "latitude":56.87767,
      "longitude":14.80906
    }]
  },{
    "name":"Norrbotten",
    "cities":[{
      "name":"AElvsbyn",
      "latitude":65.67624,
      "longitude":21.00162
    },{
      "name":"Boden",
      "latitude":65.82518,
      "longitude":21.68864
    },{
      "name":"Gaellivare",
      "latitude":67.13387,
      "longitude":20.65278
    },{
      "name":"Kalix",
      "latitude":65.85298,
      "longitude":23.15645
    },{
      "name":"Kiruna",
      "latitude":67.85572,
      "longitude":20.22513
    },{
      "name":"Lulea",
      "latitude":65.58415,
      "longitude":22.15465
    },{
      "name":"Malmberget",
      "latitude":67.17529,
      "longitude":20.65495
    },{
      "name":"Pitea",
      "latitude":65.31717,
      "longitude":21.47944
    }]
  },{
    "name":"OErebro Laen",
    "cities":[{
      "name":"Degerfors",
      "latitude":59.23797,
      "longitude":14.43077
    },{
      "name":"Hallsberg",
      "latitude":59.06463,
      "longitude":15.10993
    },{
      "name":"Karlskoga",
      "latitude":59.32667,
      "longitude":14.52386
    },{
      "name":"Kumla",
      "latitude":59.1277,
      "longitude":15.14341
    },{
      "name":"Lindesberg",
      "latitude":59.59202,
      "longitude":15.2304
    },{
      "name":"Nora",
      "latitude":59.51926,
      "longitude":15.03979
    },{
      "name":"Orebro",
      "latitude":59.27412,
      "longitude":15.2066
    }]
  },{
    "name":"OEstergoetlands Laen",
    "cities":[{
      "name":"Atvidaberg",
      "latitude":58.20152,
      "longitude":15.9977
    },{
      "name":"Finspang",
      "latitude":58.70578,
      "longitude":15.76739
    },{
      "name":"Linkoping",
      "latitude":58.41086,
      "longitude":15.62157
    },{
      "name":"Ljungsbro",
      "latitude":58.51667,
      "longitude":15.5
    },{
      "name":"Malmslatt",
      "latitude":58.41102,
      "longitude":15.51647
    },{
      "name":"Mjolby",
      "latitude":58.32595,
      "longitude":15.12365
    },{
      "name":"Motala",
      "latitude":58.53706,
      "longitude":15.03649
    },{
      "name":"Norrkoping",
      "latitude":58.59419,
      "longitude":16.1826
    },{
      "name":"Soederkoeping",
      "latitude":58.48057,
      "longitude":16.32221
    },{
      "name":"Vadstena",
      "latitude":58.44863,
      "longitude":14.88969
    }]
  },{
    "name":"Skane Laen",
    "cities":[{
      "name":"AEngelholm",
      "latitude":56.2428,
      "longitude":12.86219
    },{
      "name":"Ahus",
      "latitude":55.91667,
      "longitude":14.28333
    },{
      "name":"Arloev",
      "latitude":55.63248,
      "longitude":13.07141
    },{
      "name":"Astorp",
      "latitude":56.13566,
      "longitude":12.9443
    },{
      "name":"Bjarred",
      "latitude":55.71667,
      "longitude":13.01667
    },{
      "name":"Bjuv",
      "latitude":56.08372,
      "longitude":12.91914
    },{
      "name":"Bromoella",
      "latitude":56.07551,
      "longitude":14.46958
    },{
      "name":"Bunkeflostrand",
      "latitude":55.53333,
      "longitude":12.95
    },{
      "name":"Eslov",
      "latitude":55.83928,
      "longitude":13.30393
    },{
      "name":"Hassleholm",
      "latitude":56.15905,
      "longitude":13.76638
    },{
      "name":"Helsingborg",
      "latitude":56.04673,
      "longitude":12.69437
    },{
      "name":"Hoeoer",
      "latitude":55.93444,
      "longitude":13.5385
    },{
      "name":"Hoerby",
      "latitude":55.85238,
      "longitude":13.66094
    },{
      "name":"Hoganas",
      "latitude":56.19971,
      "longitude":12.55795
    },{
      "name":"Hollviken",
      "latitude":55.40982,
      "longitude":12.9558
    },{
      "name":"Kaevlinge",
      "latitude":55.79188,
      "longitude":13.11021
    },{
      "name":"Klippan",
      "latitude":56.13559,
      "longitude":13.13086
    },{
      "name":"Kristianstad",
      "latitude":56.03129,
      "longitude":14.15242
    },{
      "name":"Landskrona",
      "latitude":55.8708,
      "longitude":12.83016
    },{
      "name":"Loddekopinge",
      "latitude":55.76667,
      "longitude":13.01667
    },{
      "name":"Lomma",
      "latitude":55.67244,
      "longitude":13.06849
    },{
      "name":"Lund",
      "latitude":55.70584,
      "longitude":13.19321
    },{
      "name":"Malmoe",
      "latitude":55.60587,
      "longitude":13.00073
    },{
      "name":"Osby",
      "latitude":56.38165,
      "longitude":13.99364
    },{
      "name":"Oxie",
      "latitude":55.53333,
      "longitude":13.1
    },{
      "name":"Perstorp",
      "latitude":56.13829,
      "longitude":13.39476
    },{
      "name":"Simrishamn",
      "latitude":55.55653,
      "longitude":14.35037
    },{
      "name":"Sjoebo",
      "latitude":55.63135,
      "longitude":13.70622
    },{
      "name":"Skanor med Falsterbo",
      "latitude":55.4,
      "longitude":12.85
    },{
      "name":"Skare",
      "latitude":55.38333,
      "longitude":13.05
    },{
      "name":"Skurup",
      "latitude":55.47839,
      "longitude":13.50186
    },{
      "name":"Staffanstorp",
      "latitude":55.64277,
      "longitude":13.20638
    },{
      "name":"Svedala",
      "latitude":55.50788,
      "longitude":13.23515
    },{
      "name":"Tomelilla",
      "latitude":55.54293,
      "longitude":13.9546
    },{
      "name":"Trelleborg",
      "latitude":55.37514,
      "longitude":13.15691
    },{
      "name":"Vellinge",
      "latitude":55.47124,
      "longitude":13.01971
    },{
      "name":"Ystad",
      "latitude":55.42966,
      "longitude":13.82041
    }]
  },{
    "name":"Soedermanlands Laen",
    "cities":[{
      "name":"Eskilstuna",
      "latitude":59.36661,
      "longitude":16.5077
    },{
      "name":"Flen",
      "latitude":59.05834,
      "longitude":16.58781
    },{
      "name":"Gnesta",
      "latitude":59.04751,
      "longitude":17.31191
    },{
      "name":"Katrineholm",
      "latitude":58.99587,
      "longitude":16.20721
    },{
      "name":"Nykoping",
      "latitude":58.753,
      "longitude":17.00788
    },{
      "name":"Oxelosund",
      "latitude":58.67057,
      "longitude":17.10152
    },{
      "name":"Strangnas",
      "latitude":59.37741,
      "longitude":17.03119
    },{
      "name":"Torshalla",
      "latitude":59.41667,
      "longitude":16.46667
    }]
  },{
    "name":"Stockholm",
    "cities":[{
      "name":"Akersberga",
      "latitude":59.47944,
      "longitude":18.29967
    },{
      "name":"Alby",
      "latitude":59.2335,
      "longitude":17.8538
    },{
      "name":"Alta",
      "latitude":59.26667,
      "longitude":18.18333
    },{
      "name":"Arsta",
      "latitude":59.2978,
      "longitude":18.0514
    },{
      "name":"Bergshamra",
      "latitude":59.38083,
      "longitude":18.03427
    },{
      "name":"Boo",
      "latitude":59.33333,
      "longitude":18.28333
    },{
      "name":"Brevik",
      "latitude":59.35,
      "longitude":18.2
    },{
      "name":"Bro",
      "latitude":59.51667,
      "longitude":17.63333
    },{
      "name":"Bromma",
      "latitude":59.34,
      "longitude":17.94
    },{
      "name":"Djursholm",
      "latitude":59.39926,
      "longitude":18.05619
    },{
      "name":"Ekeroe",
      "latitude":59.291,
      "longitude":17.81212
    },{
      "name":"Fisksatra",
      "latitude":59.28333,
      "longitude":18.26667
    },{
      "name":"Fittja",
      "latitude":59.24868,
      "longitude":17.85991
    },{
      "name":"Gustavsberg",
      "latitude":59.32684,
      "longitude":18.38975
    },{
      "name":"Handen",
      "latitude":59.16809,
      "longitude":18.13796
    },{
      "name":"Haninge",
      "latitude":59.16775,
      "longitude":18.14478
    },{
      "name":"Huddinge",
      "latitude":59.23705,
      "longitude":17.98192
    },{
      "name":"Jakobsberg",
      "latitude":59.42268,
      "longitude":17.83508
    },{
      "name":"Jordbro",
      "latitude":59.14972,
      "longitude":18.11667
    },{
      "name":"Kista",
      "latitude":59.40316,
      "longitude":17.94479
    },{
      "name":"Kungsaengen",
      "latitude":59.47857,
      "longitude":17.74834
    },{
      "name":"Lidingoe",
      "latitude":59.36667,
      "longitude":18.13333
    },{
      "name":"Marsta",
      "latitude":59.62157,
      "longitude":17.85476
    },{
      "name":"Nacka",
      "latitude":59.31053,
      "longitude":18.16372
    },{
      "name":"Norrtalje",
      "latitude":59.75799,
      "longitude":18.70496
    },{
      "name":"Nykvarn",
      "latitude":59.8,
      "longitude":18.3
    },{
      "name":"Nynashamn",
      "latitude":58.90337,
      "longitude":17.94793
    },{
      "name":"OEstermalm",
      "latitude":59.33879,
      "longitude":18.08487
    },{
      "name":"Rasunda",
      "latitude":59.36667,
      "longitude":17.98333
    },{
      "name":"Salem",
      "latitude":59.20186,
      "longitude":17.76646
    },{
      "name":"Saltsjobaden",
      "latitude":59.28333,
      "longitude":18.3
    },{
      "name":"Segeltorp",
      "latitude":59.27597,
      "longitude":17.93072
    },{
      "name":"Sigtuna",
      "latitude":59.61731,
      "longitude":17.72361
    },{
      "name":"Soedertaelje",
      "latitude":59.19554,
      "longitude":17.62525
    },{
      "name":"Sollentuna",
      "latitude":59.42804,
      "longitude":17.95093
    },{
      "name":"Solna",
      "latitude":59.36004,
      "longitude":18.00086
    },{
      "name":"Stockholm",
      "latitude":59.33258,
      "longitude":18.0649
    },{
      "name":"Sundbyberg",
      "latitude":59.36128,
      "longitude":17.97114
    },{
      "name":"Taby",
      "latitude":59.4439,
      "longitude":18.06872
    },{
      "name":"Tullinge",
      "latitude":59.2,
      "longitude":17.9
    },{
      "name":"Tumba",
      "latitude":59.19858,
      "longitude":17.83317
    },{
      "name":"Upplands Vaesby",
      "latitude":59.51839,
      "longitude":17.91128
    },{
      "name":"Vallentuna",
      "latitude":59.53436,
      "longitude":18.07758
    },{
      "name":"Vasterhaninge",
      "latitude":59.11667,
      "longitude":18.1
    }]
  },{
    "name":"Uppsala",
    "cities":[{
      "name":"Balsta",
      "latitude":59.5671,
      "longitude":17.52781
    },{
      "name":"Dalby",
      "latitude":59.53333,
      "longitude":17.35
    },{
      "name":"Enkoping",
      "latitude":59.63607,
      "longitude":17.07768
    },{
      "name":"Knivsta",
      "latitude":59.72564,
      "longitude":17.78753
    },{
      "name":"Saevja",
      "latitude":59.82083,
      "longitude":17.69899
    },{
      "name":"Skutskaer",
      "latitude":60.64104,
      "longitude":17.40915
    },{
      "name":"Storvreta",
      "latitude":59.96667,
      "longitude":17.7
    },{
      "name":"Tierp",
      "latitude":60.34269,
      "longitude":17.51812
    },{
      "name":"Uppsala",
      "latitude":59.85882,
      "longitude":17.63889
    }]
  },{
    "name":"Vaermlands Laen",
    "cities":[{
      "name":"Arvika",
      "latitude":59.65528,
      "longitude":12.58518
    },{
      "name":"Filipstad",
      "latitude":59.71236,
      "longitude":14.16831
    },{
      "name":"Forshaga",
      "latitude":59.52541,
      "longitude":13.48127
    },{
      "name":"Grums",
      "latitude":59.3466,
      "longitude":13.10906
    },{
      "name":"Hagfors",
      "latitude":60.02378,
      "longitude":13.67214
    },{
      "name":"Karlstad",
      "latitude":59.3793,
      "longitude":13.50357
    },{
      "name":"Kil",
      "latitude":59.50234,
      "longitude":13.31277
    },{
      "name":"Kristinehamn",
      "latitude":59.30978,
      "longitude":14.10808
    },{
      "name":"Saeffle",
      "latitude":59.13229,
      "longitude":12.92888
    },{
      "name":"Skoghall",
      "latitude":59.32324,
      "longitude":13.46552
    }]
  },{
    "name":"Vaesterbottens Laen",
    "cities":[{
      "name":"Holmsund",
      "latitude":63.70602,
      "longitude":20.36409
    },{
      "name":"Lycksele",
      "latitude":64.59537,
      "longitude":18.67351
    },{
      "name":"Mullsjo",
      "latitude":63.7,
      "longitude":19.7
    },{
      "name":"Skelleftea",
      "latitude":64.75067,
      "longitude":20.95279
    },{
      "name":"Umea",
      "latitude":63.82842,
      "longitude":20.25972
    }]
  },{
    "name":"Vaesternorrlands Laen",
    "cities":[{
      "name":"Haernoesand",
      "latitude":62.63228,
      "longitude":17.93794
    },{
      "name":"Kramfors",
      "latitude":62.93161,
      "longitude":17.77646
    },{
      "name":"Ornskoldsvik",
      "latitude":63.29091,
      "longitude":18.71525
    },{
      "name":"Solleftea",
      "latitude":63.16667,
      "longitude":17.26667
    },{
      "name":"Sundsvall",
      "latitude":62.39129,
      "longitude":17.3063
    },{
      "name":"Timra",
      "latitude":62.48703,
      "longitude":17.3257
    }]
  },{
    "name":"Vaestmanlands Laen",
    "cities":[{
      "name":"Arboga",
      "latitude":59.39387,
      "longitude":15.83882
    },{
      "name":"Fagersta",
      "latitude":60.00418,
      "longitude":15.79316
    },{
      "name":"Hallstahammar",
      "latitude":59.61395,
      "longitude":16.22846
    },{
      "name":"Koping",
      "latitude":59.51404,
      "longitude":15.99255
    },{
      "name":"Kungsoer",
      "latitude":59.42245,
      "longitude":16.09656
    },{
      "name":"Sala",
      "latitude":59.91993,
      "longitude":16.60655
    },{
      "name":"Surahammar",
      "latitude":59.70725,
      "longitude":16.22188
    },{
      "name":"Vasteras",
      "latitude":59.61617,
      "longitude":16.55276
    }]
  },{
    "name":"Vaestra Goetalands Laen",
    "cities":[{
      "name":"Akarp",
      "latitude":58.23333,
      "longitude":13.65
    },{
      "name":"Alingsas",
      "latitude":57.93033,
      "longitude":12.53345
    },{
      "name":"Amal",
      "latitude":59.051,
      "longitude":12.70492
    },{
      "name":"Billdal",
      "latitude":57.56667,
      "longitude":11.93333
    },{
      "name":"Bollebygd",
      "latitude":57.66866,
      "longitude":12.57272
    },{
      "name":"Boras",
      "latitude":57.72101,
      "longitude":12.9401
    },{
      "name":"Falkoeping",
      "latitude":58.17347,
      "longitude":13.55068
    },{
      "name":"Gardsten",
      "latitude":57.8048,
      "longitude":12.02883
    },{
      "name":"Goeteborg",
      "latitude":57.70716,
      "longitude":11.96679
    },{
      "name":"Hammarkullen",
      "latitude":57.78049,
      "longitude":12.03604
    },{
      "name":"Hjo",
      "latitude":58.30133,
      "longitude":14.28784
    },{
      "name":"Hono",
      "latitude":57.68972,
      "longitude":11.64972
    },{
      "name":"Kallered",
      "latitude":57.60992,
      "longitude":12.05106
    },{
      "name":"Kinna",
      "latitude":57.50728,
      "longitude":12.69463
    },{
      "name":"Kungalv",
      "latitude":57.87096,
      "longitude":11.98054
    },{
      "name":"Landvetter",
      "latitude":57.68665,
      "longitude":12.21169
    },{
      "name":"Lerum",
      "latitude":57.77051,
      "longitude":12.26904
    },{
      "name":"Lidkoping",
      "latitude":58.50517,
      "longitude":13.15765
    },{
      "name":"Lindome",
      "latitude":57.56667,
      "longitude":12.08333
    },{
      "name":"Loevgaerdet",
      "latitude":57.81555,
      "longitude":12.03861
    },{
      "name":"Lysekil",
      "latitude":58.27429,
      "longitude":11.43576
    },{
      "name":"Majorna",
      "latitude":57.69195,
      "longitude":11.91605
    },{
      "name":"Mariestad",
      "latitude":58.70971,
      "longitude":13.82367
    },{
      "name":"Moelndal",
      "latitude":57.6554,
      "longitude":12.01378
    },{
      "name":"Molnlycke",
      "latitude":57.65893,
      "longitude":12.11792
    },{
      "name":"Nodinge-Nol",
      "latitude":57.91259,
      "longitude":12.05591
    },{
      "name":"Partille",
      "latitude":57.7395,
      "longitude":12.10642
    },{
      "name":"Skara",
      "latitude":58.38659,
      "longitude":13.43836
    },{
      "name":"Skoevde",
      "latitude":58.39118,
      "longitude":13.84506
    },{
      "name":"Stenungsund",
      "latitude":58.07046,
      "longitude":11.8181
    },{
      "name":"Stroemstad",
      "latitude":58.93945,
      "longitude":11.1712
    },{
      "name":"Surte",
      "latitude":57.82533,
      "longitude":12.01604
    },{
      "name":"Tibro",
      "latitude":58.42453,
      "longitude":14.16162
    },{
      "name":"Tidaholm",
      "latitude":58.18035,
      "longitude":13.95824
    },{
      "name":"Torslanda",
      "latitude":57.72432,
      "longitude":11.77013
    },{
      "name":"Trollhattan",
      "latitude":58.28365,
      "longitude":12.28864
    },{
      "name":"Uddevalla",
      "latitude":58.34784,
      "longitude":11.9424
    },{
      "name":"Ulricehamn",
      "latitude":57.79159,
      "longitude":13.41422
    },{
      "name":"Vanersborg",
      "latitude":58.38075,
      "longitude":12.3234
    },{
      "name":"Vargarda",
      "latitude":58.03706,
      "longitude":12.80907
    }]
  }]
}
