{
  "name":"Togo",
  "regions":[{
    "name":"Centrale",
    "cities":[{
      "name":"Sokode",
      "latitude":8.98333,
      "longitude":1.13333
    },{
      "name":"Sotouboua",
      "latitude":8.5634,
      "longitude":0.98399
    },{
      "name":"Tchamba",
      "latitude":9.03333,
      "longitude":1.41667
    }]
  },{
    "name":"Kara",
    "cities":[{
      "name":"Bafilo",
      "latitude":9.35,
      "longitude":1.26667
    },{
      "name":"Bassar",
      "latitude":9.26021,
      "longitude":0.78106
    },{
      "name":"Kande",
      "latitude":9.95778,
      "longitude":1.04472
    },{
      "name":"Kara",
      "latitude":9.55111,
      "longitude":1.18611
    },{
      "name":"Niamtougou",
      "latitude":9.76806,
      "longitude":1.10528
    },{
      "name":"Pagouda",
      "latitude":9.7525,
      "longitude":1.32778
    }]
  },{
    "name":"Maritime",
    "cities":[{
      "name":"Aneho",
      "latitude":6.23333,
      "longitude":1.6
    },{
      "name":"Lome",
      "latitude":6.13748,
      "longitude":1.21227
    },{
      "name":"Tabligbo",
      "latitude":6.58333,
      "longitude":1.5
    },{
      "name":"Tsevie",
      "latitude":6.42611,
      "longitude":1.21333
    },{
      "name":"Vogan",
      "latitude":6.33333,
      "longitude":1.53333
    }]
  },{
    "name":"Plateaux",
    "cities":[{
      "name":"Amlame",
      "latitude":7.46667,
      "longitude":0.9
    },{
      "name":"Atakpame",
      "latitude":7.53333,
      "longitude":1.13333
    },{
      "name":"Badou",
      "latitude":7.58333,
      "longitude":0.6
    },{
      "name":"Kpalime",
      "latitude":6.9,
      "longitude":0.63333
    },{
      "name":"Notse",
      "latitude":6.95,
      "longitude":1.16667
    }]
  },{
    "name":"Savanes",
    "cities":[{
      "name":"Dapaong",
      "latitude":10.86225,
      "longitude":0.20762
    },{
      "name":"Sansanne-Mango",
      "latitude":10.35917,
      "longitude":0.47083
    }]
  }]
}
