{
  "name":"Tajikistan",
  "regions":[{
    "name":"Dushanbe",
    "cities":[{
      "name":"Boshkengash",
      "latitude":38.46613,
      "longitude":68.80533
    },{
      "name":"Dushanbe",
      "latitude":38.53575,
      "longitude":68.77905
    }]
  },{
    "name":"Region of Republican Subordination",
    "cities":[{
      "name":"Hisor",
      "latitude":38.52504,
      "longitude":68.55124
    },{
      "name":"Tursunzoda",
      "latitude":38.51437,
      "longitude":68.23327
    },{
      "name":"Vahdat",
      "latitude":38.55632,
      "longitude":69.01354
    }]
  },{
    "name":"Tajikistan",
    "cities":[{
      "name":"Khodzha-Maston",
      "latitude":38.74457,
      "longitude":68.62702
    },{
      "name":"Novobod",
      "latitude":39.01084,
      "longitude":70.15082
    },{
      "name":"Obigarm",
      "latitude":38.71731,
      "longitude":69.70885
    },{
      "name":"Rasht",
      "latitude":39.02872,
      "longitude":70.37446
    },{
      "name":"Roghun",
      "latitude":38.78257,
      "longitude":69.87081
    },{
      "name":"Shahrinav",
      "latitude":38.57085,
      "longitude":68.33498
    }]
  },{
    "name":"Viloyati Khatlon",
    "cities":[{
      "name":"Abdurahmoni Jomi",
      "latitude":37.94636,
      "longitude":68.80878
    },{
      "name":"Chubek",
      "latitude":37.61453,
      "longitude":69.70525
    },{
      "name":"Danghara",
      "latitude":38.09578,
      "longitude":69.33998
    },{
      "name":"Dusti",
      "latitude":37.34812,
      "longitude":68.66398
    },{
      "name":"Farkhor",
      "latitude":37.49219,
      "longitude":69.40356
    },{
      "name":"Gharavuti",
      "latitude":37.56702,
      "longitude":68.44668
    },{
      "name":"Jilikul",
      "latitude":37.49167,
      "longitude":68.53106
    },{
      "name":"Kirov",
      "latitude":37.81908,
      "longitude":68.85905
    },{
      "name":"Kolkhozobod",
      "latitude":37.58823,
      "longitude":68.65886
    },{
      "name":"Kulob",
      "latitude":37.91458,
      "longitude":69.78454
    },{
      "name":"Muminobod",
      "latitude":38.10714,
      "longitude":70.03213
    },{
      "name":"Norak",
      "latitude":38.38917,
      "longitude":69.32272
    },{
      "name":"Orzu",
      "latitude":37.5582,
      "longitude":68.81952
    },{
      "name":"Panj",
      "latitude":37.23634,
      "longitude":69.09911
    },{
      "name":"Qurghonteppa",
      "latitude":37.83399,
      "longitude":68.78186
    },{
      "name":"Shahritus",
      "latitude":37.26206,
      "longitude":68.13849
    },{
      "name":"Sovet",
      "latitude":38.0467,
      "longitude":69.58822
    },{
      "name":"Vakhsh",
      "latitude":37.71485,
      "longitude":68.83456
    },{
      "name":"Vose",
      "latitude":37.80396,
      "longitude":69.64416
    },{
      "name":"Yovon",
      "latitude":38.31408,
      "longitude":69.03784
    }]
  },{
    "name":"Viloyati Mukhtori Kuhistoni Badakhshon",
    "cities":[{
      "name":"Ishqoshim",
      "latitude":36.72484,
      "longitude":71.61331
    },{
      "name":"Khorugh",
      "latitude":37.48974,
      "longitude":71.55304
    },{
      "name":"Murghob",
      "latitude":38.17023,
      "longitude":73.96674
    }]
  },{
    "name":"Viloyati Sughd",
    "cities":[{
      "name":"Adrasmon",
      "latitude":40.64928,
      "longitude":69.98472
    },{
      "name":"Buston",
      "latitude":40.52286,
      "longitude":69.33308
    },{
      "name":"Chkalov",
      "latitude":40.23417,
      "longitude":69.69481
    },{
      "name":"Isfara",
      "latitude":40.12648,
      "longitude":70.62526
    },{
      "name":"Istaravshan",
      "latitude":39.9142,
      "longitude":69.00328
    },{
      "name":"Khujand",
      "latitude":40.28256,
      "longitude":69.62216
    },{
      "name":"Konibodom",
      "latitude":40.29414,
      "longitude":70.43122
    },{
      "name":"Konsoy",
      "latitude":40.49155,
      "longitude":69.70245
    },{
      "name":"Nov",
      "latitude":40.1522,
      "longitude":69.37076
    },{
      "name":"Pakhtakoron",
      "latitude":40.15709,
      "longitude":68.74659
    },{
      "name":"Panjakent",
      "latitude":39.49524,
      "longitude":67.60931
    },{
      "name":"Proletar",
      "latitude":40.16713,
      "longitude":69.50163
    },{
      "name":"Shaydon",
      "latitude":40.66992,
      "longitude":70.3502
    },{
      "name":"Taboshar",
      "latitude":40.57018,
      "longitude":69.64175
    }]
  }]
}
