{
  "name":"Taiwan",
  "regions":[{
    "name":"Fukien",
    "cities":[{
      "name":"Jincheng",
      "latitude":24.43667,
      "longitude":118.31833
    }]
  },{
    "name":"Kaohsiung",
    "cities":[{
      "name":"Kaohsiung",
      "latitude":22.61626,
      "longitude":120.31333
    }]
  },{
    "name":"Taipei",
    "cities":[{
      "name":"Banqiao",
      "latitude":25.01427,
      "longitude":121.46719
    },{
      "name":"Taipei",
      "latitude":25.04776,
      "longitude":121.53185
    }]
  },{
    "name":"Taiwan",
    "cities":[{
      "name":"Buli",
      "latitude":23.96639,
      "longitude":120.96952
    },{
      "name":"Daxi",
      "latitude":24.88373,
      "longitude":121.29043
    },{
      "name":"Douliu",
      "latitude":23.70944,
      "longitude":120.54333
    },{
      "name":"Hengchun",
      "latitude":22.00417,
      "longitude":120.74389
    },{
      "name":"Hsinchu",
      "latitude":24.80361,
      "longitude":120.96861
    },{
      "name":"Hualian",
      "latitude":23.97694,
      "longitude":121.60444
    },{
      "name":"Keelung",
      "latitude":25.12825,
      "longitude":121.7419
    },{
      "name":"Lugu",
      "latitude":23.74639,
      "longitude":120.7525
    },{
      "name":"Ma-kung",
      "latitude":23.5654,
      "longitude":119.58627
    },{
      "name":"Nantou",
      "latitude":23.91566,
      "longitude":120.66387
    },{
      "name":"Taichung",
      "latitude":24.1469,
      "longitude":120.6839
    },{
      "name":"Tainan",
      "latitude":22.99083,
      "longitude":120.21333
    },{
      "name":"Taitung City",
      "latitude":22.7583,
      "longitude":121.1444
    },{
      "name":"Taoyuan City",
      "latitude":24.99368,
      "longitude":121.29696
    },{
      "name":"Yilan",
      "latitude":24.757,
      "longitude":121.753
    },{
      "name":"Yujing",
      "latitude":23.12493,
      "longitude":120.46138
    },{
      "name":"Zhongxing New Village",
      "latitude":23.95908,
      "longitude":120.68516
    }]
  }]
}
